%time,field.x,field.y,field.z
1521800070447791099,3.4528798238e-07,1.20856085245e-14,0.0
1521800070465835094,0.00545234139571,-0.00657228401252,0.0
1521800070475805044,0.00545236775396,-0.00657228401291,0.0
1521800070499284982,0.00545239411221,-0.00657228401332,0.0
1521800070525532960,0.00545242047049,-0.00657228401375,0.0
1521800070550793886,0.00545244682878,-0.0065722840142,0.0
1521800070574230909,0.00545247318708,-0.00657228401467,0.0
1521800070609527111,0.00545247318575,-0.0065722840131,0.0
1521800070635895967,0.00545323416822,-0.00657284576313,0.0
1521800070653250932,0.00545326057137,-0.00657284580039,0.0
1521800070676167964,0.00545328697485,-0.00657284583793,0.0
1521800070712151050,0.00570650509565,-0.00657284469668,0.0
1521800070727615118,0.00651753744164,-0.00657284269195,0.0
1521800070755017995,0.00692581235694,-0.00657284271882,0.0
1521800070788702011,0.0159397558371,-0.00657887140253,0.0
1521800070811975002,0.0291291105543,-0.00657881261391,0.0
1521800070842474937,0.0716897152599,-0.00223322060714,0.0
1521800070863280057,0.131771028646,-0.00223002783047,0.0
1521800070884232997,0.160086375607,0.00489221775062,0.0
1521800070903736114,0.16968350209,0.00489337971288,0.0
1521800070930797100,0.188849109326,0.00489549889999,0.0
1521800070954125881,0.208873881283,0.00489781219379,0.0
1521800070980472087,0.229010171457,0.00490014295152,0.0
1521800071010750055,0.219556861489,-0.00470442490606,0.0
1521800071027230024,0.229704942561,-0.00470610695194,0.0
1521800071052203893,0.239876229668,-0.00470778171816,0.0
1521800071091825008,0.271288419156,-0.00471292392125,0.0
1521800071113918066,0.332320362178,-0.00472290283499,0.0
1521800071133893966,0.361759248203,-0.00472770805121,0.0
1521800071158272027,0.381993603192,-0.00473102150849,0.0
1521800071181269884,0.37339045609,0.000155541862898,0.0
1521800071210333108,0.384549438083,0.000159595675261,0.0
1521800071240019083,0.439088076651,0.000379466867496,0.0
1521800071256011009,0.45940192494,0.000386713571398,0.0
1521800071288259983,0.500027607208,0.000401187083636,0.0
1521800071310849905,0.520336955025,0.000408419610112,0.0
1521800071335716009,0.540642942278,0.000415650166767,0.0
1521800071361872911,0.560945233088,0.000422879022194,0.0
1521800071388109922,0.60050190478,-0.00203423472058,0.0
1521800071413927078,0.620804641385,-0.00207445849958,0.0
1521800071430541992,0.630981412166,-0.00209460528751,0.0
1521800071466720104,0.670450274661,-0.00217280409891,0.0
1521800071486336946,0.690642930158,-0.00221280893409,0.0
1521800071517416954,0.731018694218,-0.00229279026759,0.0
1521800071537830114,0.70945654903,-0.000651856386637,0.0
1521800071560638904,0.738801640704,-0.000658064540622,0.0
1521800071581928968,0.748920327237,-0.000660206675842,0.0
1521800071614084959,0.779158075293,-0.000666668122221,0.0
1521800071640489101,0.795346300588,0.00187748207233,0.0
1521800071663104057,0.815529551512,0.00187701933993,0.0
1521800071689976930,0.855877499779,0.00187604234355,0.0
1521800071713179111,0.887214402716,0.00187529951875,0.0
1521800071737894058,0.907443426811,0.00187480441449,0.0
1521800071768925905,1.00621887055,0.00194759159989,0.0
1521800071783657073,1.01635917986,0.00194760747751,0.0
1521800071815591096,1.04667482611,0.00194759094597,0.0
1521800071842637062,1.06689958293,0.00194759046414,0.0
1521800071865585088,1.07703626431,0.0019476053319,0.0
1521800071892653942,1.10732882303,0.00194758176284,0.0
1521800071908281087,1.11746229488,0.00194759620378,0.0
1521800071947782039,1.11553548861,-0.00556868097541,0.0
1521800071961669921,1.13568097118,-0.00557010318222,0.0
1521800071985202074,1.14576861678,-0.00557080663427,0.0
1521800072009047985,1.15587038631,-0.00557150514677,0.0
1521800072046273946,1.20722539766,-0.00557510265862,0.0
1521800072062710046,1.23646298638,-0.00557712996041,0.0
1521800072091424942,1.25659628769,-0.00557853167385,0.0
1521800072114742040,1.27672549316,-0.0055799326341,0.0
1521800072139939069,1.29685243759,-0.0055813330049,0.0
1521800072165608882,1.3281070401,-0.00558349261497,0.0
1521800072194607973,1.36845106114,-0.00558629574638,0.0
1521800072211074113,1.37855697703,-0.0055869899498,0.0
1521800072245956897,1.40878426587,-0.00558910456729,0.0
1521800072262342929,1.42895131725,-0.00559050808795,0.0
1521800072292334079,1.47832280393,-0.00559394030437,0.0
1521800072312407970,1.4984313773,-0.00559534228279,0.0
1521800072343480110,1.51853851228,-0.00559674266235,0.0
1521800072362310886,1.53864432171,-0.00559814212667,0.0
1521800072392147064,1.5587487144,-0.0055995410822,0.0
1521800072415496110,1.59895309678,-0.00560233838157,0.0
1521800072440571069,1.61905308652,-0.00560373684695,0.0
1521800072463366031,1.63915162903,-0.00560513525189,0.0
1521800072489988088,1.64921388034,-0.00560582979592,0.0
1521800072515666961,1.69047934872,-0.00560869937398,0.0
1521800072543979883,1.71061320609,-0.00561010057603,0.0
1521800072570180892,1.75088121444,-0.0056129026208,0.0
1521800072589977979,1.77101368832,-0.00561430341076,0.0
1521800072621002912,1.79114464954,-0.00561570417119,0.0
1521800072640381097,1.81127396075,-0.00561710473467,0.0
1521800072665610074,1.83140156616,-0.00561850529486,0.0
1521800072691201925,1.85152745096,-0.00561990584316,0.0
1521800072718509912,1.89173789869,-0.00562270530108,0.0
1521800072741271018,1.91185447767,-0.00562410420191,0.0
1521800072765378952,1.93197279376,-0.0056255033617,0.0
1521800072789062023,1.94204660729,-0.00562619759718,0.0
1521800072824678897,2.00129782182,-0.00563032974668,0.0
1521800072842902898,2.02137174288,-0.00563172754061,0.0
1521800072872618913,2.04144512944,-0.00563312465776,0.0
1521800072901024103,2.08158932324,-0.00563591772317,0.0
1521800072919648885,2.09163615047,-0.00563661186124,0.0
1521800072948554039,2.12172343961,-0.00563871172794,0.0
1521800072975887060,2.1618589456,-0.00564150280891,0.0
1521800072996203899,2.18192567763,-0.00564289783292,0.0
1521800073024358987,2.20199154741,-0.00564429246443,0.0
1521800073046758890,2.22205652284,-0.00564568671983,0.0
1521800073074770927,2.25319360246,-0.00564784146411,0.0
1521800073100379943,2.26220703335,-0.00564847254998,0.0
1521800073122837066,2.28227179378,-0.00564986661579,0.0
1521800073148410081,2.29231433293,-0.00565055995848,0.0
1521800073185816049,2.3334880302,-0.00565341900183,0.0
1521800073198802947,2.3625801025,-0.00565544528992,0.0
1521800073225156068,2.41380004612,-0.0056589934196,0.0
1521800073246073961,2.43388392957,-0.00566038707252,0.0
1521800073274241924,2.44393789779,-0.00566107939054,0.0
1521800073304656028,2.48302187531,-0.00566380097155,0.0
1521800073328399896,2.49406089016,-0.00566456838727,0.0
1521800073347759962,2.53423252879,-0.00566734244172,0.0
1521800073372767925,2.54428292276,-0.00566803382871,0.0
1521800073404819011,2.55430610854,-0.00566873607257,0.0
1521800073430150032,2.61452863518,-0.00567291465384,0.0
1521800073449631929,2.63460195987,-0.00567430688351,0.0
1521800073474817037,2.64465006609,-0.00567499882252,0.0
1521800073508163928,2.67474216946,-0.00567709169766,0.0
1521800073532074928,2.71488188099,-0.00567987476429,0.0
1521800073546392917,2.72492760005,-0.0056805665305,0.0
1521800073577970981,2.76399468483,-0.00568328260314,0.0
1521800073599996089,2.78403728506,-0.00568467250567,0.0
1521800073623853921,2.8040801102,-0.00568606181557,0.0
1521800073647824048,2.81410953007,-0.0056867535538,0.0
1521800073672002077,2.82414346128,-0.00568744362727,0.0
1521800073721522092,2.88429193119,-0.00569162290689,0.0
1521800073724320888,2.89432350314,-0.00569231512565,0.0
1521800073761416912,2.94445054784,-0.00569578778177,0.0
1521800073774619102,2.95448062956,-0.00569647932109,0.0
1521800073810821056,2.9845468309,-0.0056985656947,0.0
1521800073826174974,3.00458414012,-0.00569995446178,0.0
1521800073854429960,3.01461063015,-0.00570064604664,0.0
1521800073876785039,3.0156122035,-0.00570071915958,0.0
1521800073907818078,3.17316332923,-0.00333011682401,0.0
1521800073931256055,3.21328081619,-0.00332806443704,0.0
1521800073957170009,3.2333377972,-0.00332703926365,0.0
1521800073981575012,3.25339412967,-0.00332601398525,0.0
1521800074011221885,3.2237351154,-0.00383831175215,0.0
1521800074028539896,3.23376823237,-0.00383815451961,0.0
1521800074063635110,3.2728628467,-0.00383753284061,0.0
1521800074082170963,3.30392491395,-0.00383703659439,0.0
1521800074107209920,3.3329884953,-0.00383656809762,0.0
1521800074134995937,3.3852816552,-0.00392974750069,0.0
1521800074153882026,3.4053171175,-0.00392960389569,0.0
1521800074179652929,3.42535155731,-0.00392946004174,0.0
1521800074207684993,3.44538528043,-0.00392931604639,0.0
1521800074232163906,3.41488162038,0.0132003687953,0.0
1521800074259700059,3.43358605972,-0.008597548732,0.0
1521800074280333995,3.45361822865,-0.00859978790807,0.0
1521800074304878950,3.47364978069,-0.00860196994039,0.0
1521800074338931083,3.51371133045,-0.00860627720988,0.0
1521800074356221914,3.52372931979,-0.00860735288432,0.0
1521800074388039112,3.55376883686,-0.00861056173649,0.0
1521800074411891937,3.58121353555,-0.00608362525088,0.0
1521800074434859037,3.6012440391,-0.00608257493634,0.0
1521800074467209100,3.64130197549,-0.0060804976141,0.0
1521800074483649969,3.66133002294,-0.00607946210056,0.0
1521800074514945030,3.72344647545,0.00969417459307,0.0
1521800074534266948,3.73346796609,0.00969349425529,0.0
1521800074562912940,3.74348459558,0.00969266041416,0.0
1521800074591808080,3.78356142854,0.009689453114,0.0
1521800074609996080,3.79358414915,0.00968865760077,0.0
1521800074643877983,3.80822265886,-0.00475109292178,0.0
1521800074664663076,3.84829851803,-0.00476077888643,0.0
1521800074681947946,3.85832030214,-0.00476317523821,0.0
1521800074711031913,3.88836965739,-0.00477024623426,0.0
1521800074735007047,3.89839092412,-0.0047726107504,0.0
1521800074764481067,4.02192034906,-0.00794738582353,0.0
1521800074785756111,4.03193681679,-0.00794808013975,0.0
1521800074814877986,4.05295799343,-0.0079494806544,0.0
1521800074848015069,4.10201962022,-0.00795278167096,0.0
1521800074857867956,4.11203308235,-0.00795345563364,0.0
1521800074898874044,4.14206106568,-0.00795546511822,0.0
1521800074910393953,4.07037140954,0.00709058732346,0.0
1521800074941349029,4.10141213785,0.00708752981098,0.0
1521800074958864927,4.11142798503,0.00708648588578,0.0
1521800074986778020,4.11142156229,0.00708639395157,0.0
1521800075025028944,4.24867044501,-0.0102677787321,0.0
1521800075035484075,4.25868703992,-0.0102692789758,0.0
1521800075069163084,4.28871780623,-0.0102736738973,0.0
1521800075086675882,4.29873342247,-0.010275154116,0.0
1521800075117820024,4.33776730104,-0.0102808648148,0.0
1521800075137641906,4.35571024201,0.0109167578867,0.0
1521800075164572000,4.3957510727,0.0109713444074,0.0
1521800075191333055,4.43578760408,0.0110253938613,0.0
1521800075210946083,4.44579801335,0.0110389058016,0.0
1521800075241704940,4.47582136208,0.01107935051,0.0
1521800075266212940,4.5068495627,0.0111211623305,0.0
1521800075289092063,4.46868843267,0.00427030480873,0.0
1521800075313879966,4.50873734782,0.00427450687891,0.0
1521800075336083889,4.51875093079,0.00427559554551,0.0
1521800075369169950,4.59970177606,-0.00461663775455,0.0
1521800075390149116,4.61971888047,-0.00461701335551,0.0
1521800075411797046,4.62972885225,-0.00461719570647,0.0
1521800075439049005,4.63973412507,-0.00461732191891,0.0
1521800075479649066,4.71080768626,-0.0046183451355,0.0
1521800075488840103,4.7155188185,-0.000833096576675,0.0
1521800075517889022,4.75556530254,-0.000832349410112,0.0
1521800075543075084,4.79560842658,-0.000831740806223,0.0
1521800075565016984,4.82463489633,-0.000831315261134,0.0
1521800075588047027,4.83464442913,-0.000831168837476,0.0
1521800075619087934,4.83564456117,-0.00083115694507,0.0
1521800075643277883,4.78339117273,0.00257021679437,0.0
1521800075677120923,4.84343894923,0.0025720057099,0.0
1521800075692455053,4.89247517455,0.00257331933069,0.0
1521800075714586973,4.90248284449,0.00257358760526,0.0
1521800075747668981,4.91248728072,0.00257384691684,0.0
1521800075773720979,4.97141984013,0.00229725450642,0.0
1521800075798743009,5.00244789904,0.00229725562904,0.0
1521800075832989931,5.07150130019,0.00229726247422,0.0
1521800075843785047,5.08150864082,0.00229726595585,0.0
1521800075878863096,5.12136328756,0.0045092490701,0.0
1521800075919440031,5.13137019089,0.0045094701624,0.0
1521800075957942008,5.19240807458,0.00451073356359,0.0
1521800075958053112,5.23243907741,0.004511556128,0.0
1521800075998193979,5.24244819774,0.004511767035,0.0
1521800075998374938,5.25245424749,0.00451196428083,0.0
1521800076042120933,5.21222815663,0.00292713107162,0.0
1521800076042314052,5.22223607383,0.00292705030469,0.0
1521800076083641052,5.25225316874,0.0029268188835,0.0
1521800076122908115,5.26226105892,0.00292674466934,0.0
1521800076162322044,5.29228132567,0.00292651032414,0.0
1521800076162492990,5.33230956197,0.00292620402916,0.0
1521800076202323913,5.3423177648,0.00292613143807,0.0
1521800076202485084,5.3813360059,0.0029258343852,0.0
1521800076242403984,5.42135408842,0.00292552927622,0.0
1521800076242746114,5.43135934474,0.00292545593658,0.0
1521800076282032966,5.4613709174,0.00292522394683,0.0
1521800076323076009,5.47137598569,0.00292515075865,0.0
1521800076362041950,5.50138719198,0.00292491935872,0.0
1521800076362129926,5.54140351459,0.00292461707302,0.0
1521800076402827024,5.55140831229,0.00292454417574,0.0
1521800076402997970,5.57241931828,0.00292438690859,0.0
1521800076441981077,5.59243032242,0.00292423635035,0.0
1521800076449752092,5.63245280852,0.0029239358353,0.0
1521800076489902973,5.64245947516,0.00292386422694,0.0
1521800076530453920,5.67247471282,0.00292363465096,0.0
1521800076530519962,5.71249646265,0.00292333487712,0.0
1521800076571099042,5.72250288839,0.00292326330925,0.0
1521800076581326007,5.77252768083,0.00292288466435,0.0
1521800076618030071,5.78253386429,0.00292281304796,0.0
1521800076657974958,5.82154554687,0.00292251553864,0.0
1521800076658104896,5.83154980055,0.00292244315414,0.0
1521800076697913885,5.84155176517,0.00292236458874,0.0
1521800076701001882,5.88156450584,0.00292206534437,0.0
1521800076738634109,5.89156835814,0.00292199298988,0.0
1521800076781852960,5.92157667117,0.00292176616961,0.0
1521800076781933069,5.96158885003,0.0029214684749,0.0
1521800076822036027,5.971592489,0.00292139617572,0.0
1521800076829247951,6.00160038901,0.00292116999013,0.0
1521800076866570949,6.01160393361,0.00292109771157,0.0
1521800076906063079,6.03261010097,0.00292093816176,0.0
1521800076946259975,6.1016310919,0.00292042792653,0.0
1521800076946480035,6.11163445081,0.00292035578534,0.0
1521800076989152908,6.14164158411,0.00292013069442,0.0
1521800076989692926,6.15164482463,0.00292005864441,0.0
1521800077025959968,6.17265225502,0.00291990388051,0.0
1521800077030657052,6.22166571205,0.00291954205114,0.0
1521800077070286989,6.23166889544,0.00291947031322,0.0
1521800077110054969,6.26167525619,0.0029192463068,0.0
1521800077110157966,6.3016848817,0.00291895259454,0.0
1521800077151282072,6.31168779502,0.00291888106164,0.0
1521800077151566028,6.32169104935,0.00291881073565,0.0
1521800077190821886,6.34169401551,0.00291865886553,0.0
1521800077229969978,6.38170314406,0.00291836684608,0.0
1521800077230082988,6.39170590413,0.00291829571541,0.0
1521800077270484924,6.44171613969,0.00291793003591,0.0
1521800077279371976,6.4817266905,0.00291764199427,0.0
1521800077318907022,6.50173098864,0.00291749726295,0.0
1521800077357964038,6.51173362612,0.00291742657429,0.0
1521800077358112096,6.53273955023,0.00291727537533,0.0
1521800077398895978,6.57275132885,0.00291698712241,0.0
1521800077402142047,6.58275487709,0.00291691718249,0.0
1521800077438018083,6.61276078623,0.00291669969322,0.0
1521800077482604026,6.62276408348,0.00291662992154,0.0
1521800077483052968,6.66177126357,0.00291634999098,0.0
1521800077523057937,6.68177495901,0.00291620662972,0.0
1521800077526221990,6.69177727673,0.00291613662378,0.0
1521800077567408084,6.72178195653,0.00291592004948,0.0
1521800077605916976,6.76179019162,0.00291563600313,0.0
1521800077606055021,6.7717925418,0.00291556619622,0.0
1521800077646770954,6.81280261585,0.00291527519487,0.0
1521800077655343055,6.82280558904,0.00291520610181,0.0
1521800077694013118,6.85281246182,0.00291499114326,0.0
1521800077734612941,6.912827162,0.00291456706754,0.0
1521800077734850883,6.95611334403,-0.0258326043849,0.0
1521800077774209976,6.96611641143,-0.0258384849788,0.0
1521800077792360067,7.00029507568,-0.00158532563071,0.0
1521800077830183982,7.04030346946,-0.00158413923398,0.0
1521800077830312013,7.05030555003,-0.00158386460726,0.0
1521800077871274948,7.08030985176,-0.00158311823696,0.0
1521800077887886047,7.12031609409,-0.00158212530015,0.0
1521800077926013946,7.07086046481,-0.00337663423727,0.0
1521800077966185092,7.11086563165,-0.00337779858529,0.0
1521800077966372013,7.1208671914,-0.00337808406297,0.0
1521800078007194042,7.1618750291,-0.00337923926093,0.0
1521800078012845993,7.19103909853,0.0157055751889,0.0
1521800078049911975,7.18284778443,-0.00884103139469,0.0
1521800078091023921,7.22285597238,-0.00884928106568,0.0
1521800078091376066,7.26286414838,-0.00885624520584,0.0
1521800078130172967,7.2728664119,-0.00885796454274,0.0
1521800078150985956,7.37627798812,-0.00443885555822,0.0
1521800078191521883,7.38628007116,-0.00443978443435,0.0
1521800078191734075,7.41628384093,-0.00444262165098,0.0
1521800078230351924,7.45628910079,-0.00444641364058,0.0
1521800078236767053,7.38662745157,-0.0039035709896,0.0
1521800078275325059,7.40662850604,-0.00390479912702,0.0
1521800078317075014,7.4266304219,-0.0039060341336,0.0
1521800078317292928,7.43663156675,-0.00390665366546,0.0
1521800078355340957,7.47763687183,-0.00390919277415,0.0
1521800078371593952,7.53764553144,-0.00391290608659,0.0
1521800078410157918,7.56508379108,-0.00338734684567,0.0
1521800078450428009,7.61409282726,-0.00339721872962,0.0
1521800078450550079,7.65409746499,-0.00340528814343,0.0
1521800078490752935,7.6640987151,-0.00340730696029,0.0
1521800078494586944,7.67409953493,-0.00340932262164,0.0
1521800078534677982,7.73687125463,0.00993721250888,0.0
1521800078574099063,7.74687252716,0.00993828167614,0.0
1521800078574246883,7.78787738538,0.00994248906956,0.0
1521800078614403009,7.79787891371,0.00994352402352,0.0
1521800078620091915,7.82788300731,0.00994655193437,0.0
1521800078658740043,7.83788464142,0.00994757847426,0.0
1521800078697776079,7.82606594061,0.0116034867333,0.0
1521800078697854995,7.85706875982,0.0116047932717,0.0
1521800078737750053,7.86706990558,0.0116052227871,0.0
1521800078742495059,7.95653668935,0.0110124679533,0.0
1521800078783526897,7.96653845731,0.0110125084998,0.0
1521800078822904109,8.02554428244,0.0110127081022,0.0
1521800078823046922,8.06554777512,0.0110128517756,0.0
1521800078862780094,8.07554875512,0.0110128949065,0.0
1521800078872237920,8.13575503184,-0.00346732692227,0.0
1521800078910197019,8.15575689237,-0.00347039497236,0.0
1521800078950098991,8.17575862801,-0.00347342312484,0.0
1521800078950308084,8.19576029892,-0.00347643509097,0.0
1521800078989778041,8.20576125076,-0.00347794127573,0.0
1521800078991801977,8.19993950803,0.00210583669382,0.0
1521800079030030965,8.25994413729,0.00207625555024,0.0
1521800079069928884,8.26994514442,0.00207130739275,0.0
1521800079070056915,8.28894652492,0.00206189265605,0.0
1521800079109904050,8.30894797493,0.00205198174776,0.0
1521800079117923021,8.30520268108,0.00748526431334,0.0
1521800079158951997,8.31520330316,0.00748665645383,0.0
1521800079199009895,8.36520654735,0.0074934116032,0.0
1521800079199426889,8.40520921374,0.00749880110898,0.0
1521800079239115953,8.43621141827,0.00750297336217,0.0
1521800079241957902,8.38075447506,0.00633440938128,0.0
1521800079282063961,8.40975504636,0.00633433935477,0.0
1521800079321886062,8.44975710967,0.00633426659523,0.0
1521800079321975946,8.4597577034,0.00633425324497,0.0
1521800079361959934,8.50076035346,0.00633418897785,0.0
1521800079362363100,8.51076114784,0.00633417881202,0.0
1521800079402858972,8.54976392696,0.00633411097398,0.0
1521800079445964097,8.59280419483,0.00298486332221,0.0
1521800079446067094,8.60280479636,0.00298469763415,0.0
1521800079485887050,8.6128052773,0.00298454001096,0.0
1521800079496855020,8.73745840065,0.00828754317071,0.0
1521800079535067081,8.74745950958,0.00828800693041,0.0
1521800079574286937,8.77746124667,0.0082893084505,0.0
1521800079574419975,8.78746196117,0.00828974932686,0.0
1521800079613953113,8.81746345024,0.00829103916714,0.0
1521800079618511915,8.86846657253,0.00829325268605,0.0
1521800079657912015,8.7860425527,0.00426309023851,0.0
1521800079701802015,8.83504290979,0.00426165479308,0.0
1521800079702471971,8.84504333393,0.00426138205302,0.0
1521800079737895965,8.85504377849,0.00426111033116,0.0
1521800079745021104,8.92816843505,0.0475154715288,0.0
1521800079783413887,8.98389354856,-0.0222780980268,0.0
1521800079822494029,8.99389435842,-0.0222802638492,0.0
1521800079861939907,9.00389491557,-0.0222816612196,0.0
1521800079862041950,9.03289655257,-0.0222865764932,0.0
1521800079902900934,9.07289830477,-0.0222928867224,0.0
1521800079903204917,9.08289877743,-0.0222944691416,0.0
1521800079941890954,9.11006432253,0.00325088503534,0.0
1521800079951989889,9.13906567912,0.00325747967038,0.0
1521800079990257978,9.14906615353,0.00325974743876,0.0
1521800080031327962,9.170067256,0.00326447461639,0.0
1521800080031795978,9.1990685689,0.00327098604723,0.0
1521800080070074081,9.20906902078,0.00327323599556,0.0
1521800080077719926,9.25007057639,0.00328239269239,0.0
1521800080114131927,9.29907252176,0.00329336773183,0.0
1521800080155514001,9.31907322614,0.00329784358592,0.0
1521800080155972003,9.32907360136,0.00330008816659,0.0
1521800080193803071,9.33007372342,0.00330030347413,0.0
1521800080195489883,9.35907487369,0.00330680193198,0.0
1521800080237924098,9.369075265,0.00330904734615,0.0
1521800080273952960,9.43007773893,0.00332270504625,0.0
1521800080274070978,9.44007823221,0.00332495262188,0.0
1521800080314946889,9.499080052,0.00333814171962,0.0
1521800080324601888,9.51908065767,0.0033426181116,0.0
1521800080362061977,9.52908098336,0.00334486276506,0.0
1521800080402493953,9.53908124127,0.00334709245296,0.0
1521800080442007064,9.57908239751,0.00335604556804,0.0
1521800080442208051,9.58908270664,0.00335829013074,0.0
1521800080481807947,9.61908351034,0.00336499681722,0.0
1521800080481883049,9.67008534536,0.00337642843869,0.0
1521800080522619009,9.68008576135,0.00337867530225,0.0
1521800080527261972,9.71008694023,0.00338538179277,0.0
1521800080566133975,9.73008773668,0.00338985936169,0.0
1521800080605823040,9.75008852647,0.00339433731729,0.0
1521800080605916023,9.79009007959,0.00340329368582,0.0
1521800080647715091,9.80009049469,0.00340554031308,0.0
1521800080657367944,9.83009158163,0.00341224778513,0.0
1521800080695477962,9.84009198632,0.00341449434245,0.0
1521800080734996080,9.87909287235,0.00342321305137,0.0
1521800080735172033,9.89909334132,0.00342768983387,0.0
1521800080775408983,9.90909359794,0.00342993421156,0.0
1521800080780793905,9.91909379178,0.00343216563997,0.0
1521800080819082021,9.92909404064,0.00343440995214,0.0
1521800080858150005,9.97909531201,0.00344560061052,0.0
1521800080899271011,10.0500974611,0.0034615094474,0.0
1521800080899868011,10.0600978023,0.00346375513685,0.0
1521800080938252925,10.0700980948,0.00346598633405,0.0
1521800080938400983,10.0900987274,0.00347046402036,0.0
1521800080978172063,10.1391000801,0.00348142894752,0.0
1521800080978390932,10.1491003454,0.0034836723226,0.0
1521800081018915891,10.1991013878,0.00349486775352,0.0
1521800081028875112,10.2091016026,0.00349711148788,0.0
1521800081065804958,10.2391021347,0.00350382078403,0.0
1521800081105868101,10.2491023384,0.00350606437675,0.0
1521800081145924091,10.2791028625,0.00351277521021,0.0
1521800081146030902,10.3191035801,0.0035217323744,0.0
1521800081185951948,10.3291037726,0.00352397593118,0.0
1521800081187731981,10.3501041975,0.00352867216194,0.0
1521800081225801944,10.3601044255,0.00353091604202,0.0
1521800081266980886,10.4101056665,0.00354211910023,0.0
1521800081267399072,10.4501064507,0.00355107934951,0.0
1521800081306144952,10.4601066989,0.00355332489391,0.0
1521800081306696891,10.4601065724,0.00355331504159,0.0
1521800081345969915,10.5191076097,0.00356654141221,0.0
1521800081387018918,10.5291077809,0.00356878573841,0.0
1521800081425972938,10.5591082077,0.00357550132612,0.0
1521800081426142930,10.5691083703,0.00357774572312,0.0
1521800081465972900,10.5991089259,0.00358446677452,0.0
1521800081466098070,10.6391095022,0.0035934304072,0.0
1521800081505917072,10.6491096567,0.00359567519149,0.0
1521800081511254072,10.6791100474,0.0036023940499,0.0
1521800081550976991,10.6891101954,0.00360463899794,0.0
1521800081590076923,10.7191105744,0.00361135857538,0.0
1521800081590249061,10.7291107178,0.0036136036113,0.0
1521800081629889965,10.7901117045,0.00362727976683,0.0
1521800081636537075,10.810112081,0.00363176433765,0.0
1521800081675133943,10.8301124608,0.00363624857929,0.0
1521800081714148998,10.8401126631,0.00363849484325,0.0
1521800081754035949,10.8901135814,0.0036497006968,0.0
1521800081754158973,10.919113995,0.00365620421992,0.0
1521800081794507026,10.9598188275,-0.000978229446045,0.0
1521800081794691085,10.9698190499,-0.000978335091854,0.0
1521800081834063053,10.9998196358,-0.000978645596671,0.0
1521800081841197967,11.0488204989,-0.000979148343435,0.0
1521800081878813028,11.0588206636,-0.000979250235737,0.0
1521800081918917894,11.112790594,-0.00230270888651,0.0
1521800081919347047,11.1327910678,-0.00230289725462,0.0
1521800081958030939,11.1527914834,-0.00230307970646,0.0
1521800081958664894,11.1627917247,-0.0023031714243,0.0
1521800082000456094,11.2127925742,-0.00230361477982,0.0
1521800082038614988,11.2210535526,-0.00295568617769,0.0
1521800082038791894,11.241053652,-0.00295596211172,0.0
1521800082078305959,11.2610538594,-0.00295623546045,0.0
1521800082092875957,11.2900541516,-0.0029566305907,0.0
1521800082129822969,11.3000542522,-0.00295676720542,0.0
1521800082170365095,11.3364341418,0.0151619103374,0.0
1521800082170571088,11.3854350237,0.0151704375548,0.0
1521800082209738016,11.3954351592,0.0151721338396,0.0
1521800082219626903,11.4254355348,0.0151771282169,0.0
1521800082257823944,11.384061809,0.00941795631096,0.0
1521800082299150943,11.415060737,0.00941693440419,0.0
1521800082299578905,11.4640606293,0.0094155324611,0.0
1521800082337774038,11.4740606512,0.00941525934141,0.0
1521800082338757991,11.4840607482,0.00941497304848,0.0
1521800082378689050,11.5812729545,-0.00262545727725,0.0
1521800082419110059,11.6412749983,-0.00263256914598,0.0
1521800082419437885,11.6512751888,-0.00263372779343,0.0
1521800082458651065,11.6722755221,-0.00263614894175,0.0
1521800082465235948,11.6922758118,-0.00263844890492,0.0
1521800082503129959,11.7022760065,-0.00263960129989,0.0
1521800082546678066,11.7643474774,-0.00387942066941,0.0
1521800082585881948,11.8043481404,-0.0038812309505,0.0
1521800082585977077,11.8443486436,-0.00388303233596,0.0
1521800082626662969,11.8543488072,-0.00388348477188,0.0
1521800082626848936,11.8843490522,-0.00388482871959,0.0
1521800082665926933,11.7869024316,-0.00438348549136,0.0
1521800082676191091,11.8358991398,-0.00438368023997,0.0
1521800082713854074,11.8558989317,-0.00438374893486,0.0
1521800082754267930,11.9424896034,-0.00496822104341,0.0
1521800082754419088,11.9934942329,-0.00496829149696,0.0
1521800082798836946,12.0034946243,-0.0049683031469,0.0
1521800082801640033,12.0424951799,-0.00496832856174,0.0
1521800082839075088,12.0624954022,-0.0049683415695,0.0
1521800082877856969,12.0724955698,-0.00496835092665,0.0
1521800082877971887,12.1024957642,-0.00496836520429,0.0
1521800082918570041,12.1339522158,-0.00637089902508,0.0
1521800082919995069,12.1439523299,-0.006370985773,0.0
1521800082958230018,12.1739525884,-0.00637121744456,0.0
1521800082999181032,12.1839527403,-0.00637130084157,0.0
1521800083037923097,12.2029527982,-0.00637143674129,0.0
1521800083038037061,12.2312157232,-0.00546981528944,0.0
1521800083077838897,12.2412157502,-0.00546985844251,0.0
1521800083077943086,12.2802159988,-0.0054700259796,0.0
1521800083118089914,12.300216115,-0.00547011006381,0.0
1521800083122015953,12.3048989665,-0.0059665077014,0.0
1521800083163002967,12.3448994162,-0.00597828262246,0.0
1521800083205817937,12.3548995174,-0.00598122536749,0.0
1521800083206238985,12.3848996869,-0.00599003777654,0.0
1521800083242245912,12.4359000885,-0.0060050300022,0.0
1521800083246054887,12.4459001988,-0.00600797220594,0.0
1521800083282042980,12.5091249875,0.00354994248977,0.0
1521800083322344064,12.5191253835,0.00354476509903,0.0
1521800083362171888,12.5291254497,0.00353951280135,0.0
1521800083362338066,12.6091264356,0.00349755413916,0.0
1521800083402829885,12.568847018,-0.005879587403,0.0
1521800083408854961,12.6088452428,-0.00588794101417,0.0
1521800083446146011,12.6188450632,-0.00588997178006,0.0
1521800083487554073,12.6488451456,-0.00589588517079,0.0
1521800083487807035,12.6578451803,-0.00589764397509,0.0
1521800083526036024,12.7250471505,0.00720474906978,0.0
1521800083526161909,12.7350476774,0.00720574324137,0.0
1521800083567776918,12.7940484111,0.00721082128746,0.0
1521800083575314044,12.8140485413,0.00721250607806,0.0
1521800083613861083,12.8340486549,0.0072141859133,0.0
1521800083654125928,12.8740488617,0.00721754057559,0.0
1521800083654306888,12.7906245509,0.0083104908821,0.0
1521800083693969011,12.8306226779,0.00831139957988,0.0
1521800083705823898,12.8506224758,0.0083118415442,0.0
1521800083742357015,12.8706223909,0.00831228145264,0.0
1521800083782706975,12.8806223259,0.00831250539504,0.0
1521800083822160959,13.0055450714,0.00407524717619,0.0
1521800083822324037,13.045545517,0.00407327456477,0.0
1521800083861861944,13.0555456022,0.00407278515324,0.0
1521800083861991882,13.0965458132,0.00407078003413,0.0
1521800083901882886,13.0945458493,0.000387304507006,0.0
1521800083901992082,13.1145459209,0.00038661883123,0.0
1521800083942085027,13.1635461443,0.00038513015235,0.0
1521800083952369928,13.1735461972,0.000384834341668,0.0
1521800083989836931,13.1745461889,0.000384811951658,0.0
1521800084031354904,13.2035463189,0.000383968872702,0.0
1521800084031630039,13.213546371,0.00038367823901,0.0
1521800084069766044,13.2635465146,0.000382241212537,0.0
1521800084081870079,13.3235467162,0.000380515306294,0.0
1521800084122445106,13.3335467614,0.000380226723245,0.0
1521800084162117004,13.3435468169,0.000379937196513,0.0
1521800084162255048,13.3635468583,0.00037936465149,0.0
1521800084202007055,13.4035469704,0.000378217136281,0.0
1521800084202145099,13.4135470139,0.000377928940565,0.0
1521800084241862058,13.4435470843,0.000377069948705,0.0
1521800084261799097,13.494547302,0.000375604173706,0.0
1521800084298032045,13.5045473588,0.00037531590411,0.0
1521800084338402032,13.5345474623,0.000374457987565,0.0
1521800084338530063,13.5445475195,0.000374170042418,0.0
1521800084378077030,13.5745476163,0.000373313219824,0.0
1521800084389553070,13.6145477707,0.000372169019405,0.0
1521800084427009105,13.6245478248,0.000371881641232,0.0
1521800084466303110,13.6545479135,0.000371026221647,0.0
1521800084466522932,13.6645479656,0.000370739197922,0.0
1521800084506274938,13.6945480484,0.000369884886155,0.0
1521800084513268947,13.7435481718,0.000368487888698,0.0
1521800084549880027,13.7535482052,0.000368202046882,0.0
1521800084589837074,13.7835482771,0.000367348204236,0.0
1521800084589943885,13.823548352,0.000366210215491,0.0
1521800084629875898,13.8335483807,0.000365924945039,0.0
1521800084632226943,13.8635484162,0.000365073892816,0.0
1521800084671423912,13.8735484433,0.000364788967679,0.0
1521800084709798097,13.883548445,0.000364506397264,0.0
1521800084750837087,13.9035484757,0.000363938855983,0.0
1521800084751239061,13.9435485373,0.000362804487404,0.0
1521800084789724111,13.9535485619,0.000362520188492,0.0
1521800084792380094,14.0035486195,0.000361105299877,0.0
1521800084829816102,14.054548719,0.000359660030013,0.0
1521800084870579004,14.0835487618,0.000358840357426,0.0
1521800084870695114,14.0935487867,0.000358556718833,0.0
1521800084910367012,14.1035487863,0.000358275082999,0.0
1521800084910484075,14.1135488097,0.000357991490439,0.0
1521800084950448989,14.1635488886,0.000356579380898,0.0
1521800084954557895,14.173548913,0.000356296095885,0.0
1521800084993952989,14.2235489652,0.000354885003742,0.0
1521800085034842014,14.2435489924,0.000354320151446,0.0
1521800085035108089,14.2535490141,0.000354037024033,0.0
1521800085077969074,14.2745490556,0.000353443924733,0.0
1521800085092875003,14.3235491362,0.000352062117452,0.0
1521800085133965969,14.3335491603,0.000351779368835,0.0
1521800085174036026,14.374549244,0.000350623127507,0.0
1521800085174201011,14.3845492748,0.000350340254406,0.0
1521800085213969945,14.3945492834,0.000350059612364,0.0
1521800085214071989,14.4435493739,0.000348678894998,0.0
1521800085255247116,14.4535493982,0.00034839645157,0.0
1521800085264023065,14.4635493958,0.00034811617739,0.0
1521800085302826881,14.4835494205,0.000347553301749,0.0
1521800085342209100,14.543549497,0.00034586520304,0.0
1521800085342387914,14.5535495164,0.000345583375128,0.0
1521800085381951093,14.5835495423,0.000344741108036,0.0
1521800085384001970,14.6035495653,0.000344179302854,0.0
1521800085422010898,14.6345496205,0.000343307772555,0.0
1521800085462317943,14.6445496444,0.00034302641525,0.0
1521800085503648996,14.6635496495,0.000342495374768,0.0
1521800085503804922,14.714549725,0.00034106462296,0.0
1521800085542227983,14.7245497443,0.000340783962003,0.0
1521800085542390108,14.7635497675,0.000339693452676,0.0
1521800085582781076,14.773549782,0.000339413270567,0.0
1521800085593494892,14.8035497918,0.000338575850193,0.0
1521800085630539894,14.8135498047,0.00033829598765,0.0
1521800085670938014,14.8545498484,0.000337151356693,0.0
1521800085671130895,14.8945498905,0.000336035747645,0.0
1521800085710289001,14.9045499084,0.000335756296653,0.0
1521800085717340946,14.9338498501,0.000324403528798,0.0
1521800085753985881,14.9525126645,0.000290854359579,0.0
1521800085793920040,14.9702656099,0.000220450524473,0.0
1521800085794017076,15.0033297774,-0.000227097603475,0.0
1521800085835978984,15.0115659984,-0.000449981223417,0.0
1521800085844878911,15.0371169206,-0.00126107385319,0.0
1521800085883312940,15.0820517393,-0.00289585149296,0.0
1521800085922147035,15.0912809206,-0.00325470868707,0.0
1521800085922307014,15.0999365755,-0.00360783585427,0.0
1521800085962702035,15.1170489059,-0.00432930180094,0.0
1521800085962918996,15.1256614744,-0.00471465067837,0.0
1521800086002135992,15.1619071594,-0.00674086782135,0.0
1521800086042040109,15.2006399458,-0.00979684519435,0.0
1521800086042171001,15.2140232226,-0.0110778644545,0.0
1521800086082267999,15.2206609604,-0.0117519174577,0.0
1521800086091047048,15.2272031423,-0.0124325496175,0.0
1521800086130033016,15.2623153554,-0.0164135863248,0.0
1521800086169949054,15.2676985721,-0.0170915424388,0.0
1521800086170073986,15.2879099718,-0.0197733205411,0.0
1521800086209804058,15.2926723216,-0.0204793231582,0.0
1521800086221775054,15.3008112741,-0.0219230070535,0.0
1521800086259692907,15.3056237218,-0.0228050502643,0.0
1521800086298095941,15.3094654845,-0.0235531197835,0.0
1521800086298196077,15.3131162456,-0.0242418414548,0.0
1521800086340095996,15.3149195792,-0.0245941545377,0.0
1521800086351546049,15.3277898714,-0.027052816049,0.0
1521800086392525911,15.3303588081,-0.0275880977917,0.0
1521800086430020093,15.3422935665,-0.0299291494753,0.0
1521800086430146932,15.361285276,-0.0337393305808,0.0
1521800086471385955,15.3660313908,-0.0347303759939,0.0
1521800086475584983,15.3852178768,-0.0385853076074,0.0
1521800086515193939,15.3911653632,-0.0398271566943,0.0
1521800086554075956,15.3990476964,-0.0413998221656,0.0
1521800086554181098,15.4139744137,-0.0444453424166,0.0
1521800086593944072,15.4211363572,-0.0459407756492,0.0
1521800086603127956,15.4608652382,-0.0542246214927,0.0
1521800086642510890,15.4891787761,-0.0604610448818,0.0
1521800086683213949,15.5167603812,-0.0671679769239,0.0
1521800086683494091,15.5258890395,-0.0695822852363,0.0
1521800086722076892,15.5305351426,-0.070817619716,0.0
1521800086725436925,15.5404390931,-0.0737153529939,0.0
1521800086762003898,15.5504177956,-0.0767942266677,0.0
1521800086803242921,15.5526373752,-0.0774754874428,0.0
1521800086803680896,15.5555989462,-0.0785975285684,0.0
1521800086841763019,15.5566649312,-0.0789466139185,0.0
1521800086852283954,15.557195289,-0.0792547051875,0.0
1521800086890053987,15.5574706998,-0.079375532737,0.0
1521800086929951906,15.5574254098,-0.0793590322964,0.0
1521800086930059909,15.5572878986,-0.0792858419816,0.0
1521800086970149993,15.5571501478,-0.0792334031444,0.0
1521800086980204105,15.5570518841,-0.0791527699456,0.0
1521800087019527912,15.5568049526,-0.0790078353233,0.0
1521800087059057950,15.556663741,-0.0789492733154,0.0
1521800087059513092,15.5562255476,-0.0787293364384,0.0
1521800087098965883,15.5561157965,-0.0786340263331,0.0
1521800087099081993,15.5559513392,-0.0785598532502,0.0
1521800087138174057,15.5554805733,-0.0783057769323,0.0
1521800087146946907,15.5552663765,-0.0782103049932,0.0
1521800087186038970,15.5552953846,-0.0781829660757,0.0
1521800087225847959,15.5550603168,-0.0780648283213,0.0
1521800087225934028,15.5548498772,-0.0779679477809,0.0
1521800087267745971,15.5545474073,-0.0777365388419,0.0
1521800087283545970,15.5540321317,-0.077392146108,0.0
1521800087321885108,15.5539207979,-0.077312523887,0.0
1521800087321990966,15.5537943304,-0.0772450283151,0.0
1521800087362102031,15.5535812311,-0.0771234402658,0.0
1521800087371927022,15.5534087387,-0.0770312589339,0.0
1521800087409969091,15.5533021487,-0.0769115579597,0.0
1521800087450263023,15.5530356328,-0.0767070561143,0.0
1521800087494040966,15.552890061,-0.0766217507557,0.0
1521800087494153976,15.5530584065,-0.0766348454129,0.0
1521800087535449028,15.5549647437,-0.0775860942927,0.0
1521800087535928964,15.5554769178,-0.0779090176304,0.0
1521800087574028015,15.5632198095,-0.082328571133,0.0
1521800087575347900,15.5650300273,-0.083490658578,0.0
1521800087614985942,15.5656864444,-0.0838478110244,0.0
1521800087654011011,15.5887936035,-0.098028396919,0.0
1521800087654117107,15.5926969147,-0.10053447964,0.0
1521800087694008111,15.5980186244,-0.103785086363,0.0
1521800087706619024,15.6129526916,-0.113224327725,0.0
1521800087746071100,15.6303724085,-0.124111030964,0.0
1521800087786766052,15.6362835785,-0.127906210849,0.0
1521800087826745986,15.6644660104,-0.145716999052,0.0
1521800087826963901,15.6714118561,-0.150176495889,0.0
1521800087865946054,15.6798650192,-0.155468701632,0.0
1521800087866092920,15.7289759025,-0.186798270123,0.0
1521800087906999111,15.7372934756,-0.19213808994,0.0
1521800087912256002,15.7702240348,-0.213273366511,0.0
1521800087950120925,15.7787081549,-0.21872005061,0.0
1521800087989837884,15.7870952512,-0.224115452365,0.0
1521800087989962100,15.8039943073,-0.234977468591,0.0
1521800088030023097,15.8125054975,-0.240441498613,0.0
1521800088041802883,15.8547284692,-0.267590472904,0.0
1521800088077987909,15.9056013137,-0.30028929824,0.0
1521800088123003959,15.9319589542,-0.317223517663,0.0
1521800088123327016,15.9405046211,-0.322709579914,0.0
1521800088162019014,15.9489186875,-0.328123972134,0.0
1521800088162130117,15.9574637655,-0.333610577211,0.0
1521800088202986955,15.9816266752,-0.349242929754,0.0
1521800088207453966,15.9878058355,-0.353321763407,0.0
1521800088246505022,16.010985787,-0.368428469235,0.0
1521800088287497997,16.0453596939,-0.391305841149,0.0
1521800088287918090,16.0524384146,-0.396124119815,0.0
1521800088327236890,16.0820792052,-0.416396251516,0.0
1521800088330240011,16.0892811901,-0.421375879764,0.0
1521800088370263099,16.1130256449,-0.438265622101,0.0
1521800088410098075,16.1194949403,-0.442947417152,0.0
1521800088410221099,16.1350872786,-0.454470826812,0.0
1521800088450715065,16.1523135956,-0.467785401846,0.0
1521800088455811023,16.1564673873,-0.47101160284,0.0
1521800088493936061,16.1658806068,-0.478710873872,0.0
1521800088534662961,16.172512045,-0.484070050028,0.0
1521800088574800968,16.1795307745,-0.489759853566,0.0
1521800088574923992,16.2047431591,-0.510540903193,0.0
1521800088614358901,16.2092353058,-0.514349412916,0.0
1521800088614465951,16.214955182,-0.519033792019,0.0
1521800088655126094,16.2259970741,-0.528232847575,0.0
1521800088669188022,16.2644999203,-0.560410100418,0.0
1521800088709914922,16.2712849124,-0.566164122916,0.0
1521800088749901056,16.3017062815,-0.591784491078,0.0
1521800088750008106,16.3090964804,-0.598051516115,0.0
1521800088790014982,16.3168118732,-0.604561191793,0.0
1521800088793814897,16.3473001979,-0.630396797647,0.0
1521800088830298900,16.3549610653,-0.636893252816,0.0
1521800088870111942,16.3779376554,-0.656387700139,0.0
1521800088870218038,16.4086231396,-0.682428477784,0.0
1521800088910744905,16.4163413161,-0.688973472183,0.0
1521800088916260004,16.4393079019,-0.708470575809,0.0
1521800088955329895,16.4470280947,-0.715017254483,0.0
1521800088993915081,16.4699896597,-0.734509769046,0.0
1521800088994004964,16.5006400518,-0.760524963691,0.0
1521800089034989118,16.5083441449,-0.7670579427,0.0
1521800089042697906,16.53814907,-0.792358355795,0.0
1521800089082242965,16.5687643196,-0.818337731596,0.0
1521800089122360944,16.5764517021,-0.824856490557,0.0
1521800089122602939,16.6078883725,-0.851530078978,0.0
1521800089161945104,16.6155943027,-0.85806453934,0.0
1521800089171523094,16.6453677457,-0.883335375198,0.0
1521800089211960077,16.6604985567,-0.89618911211,0.0
1521800089250027894,16.6681183951,-0.902650852946,0.0
1521800089289974927,16.6863713629,-0.918138010167,0.0
1521800089290092945,16.7231098312,-0.949804131484,0.0
1521800089331090927,16.7294593955,-0.955336081661,0.0
1521800089331482887,16.7446810473,-0.968977982358,0.0
1521800089370280981,16.7545755216,-0.978029437324,0.0
1521800089371860027,16.7644430648,-0.987182597203,0.0
1521800089410646915,16.7798826149,-1.00161144481,0.0
1521800089450639963,16.7851745184,-1.00662888707,0.0
1521800089490118980,16.80394666,-1.02424137865,0.0
1521800089490286111,16.8108713649,-1.03080685319,0.0
1521800089530088901,16.830122149,-1.048991676,0.0
1521800089530406951,16.858448626,-1.07588269795,0.0
1521800089571504116,16.8655623679,-1.08266365577,0.0
1521800089584731101,16.9017821097,-1.11716659012,0.0
1521800089622123003,16.9306789292,-1.14473242768,0.0
1521800089622337102,16.9379104358,-1.15162556007,0.0
1521800089661806106,16.9583849782,-1.17129770238,0.0
1521800089673016071,16.9651698894,-1.17779482502,0.0
1521800089715056896,16.9708596924,-1.18336389851,0.0
1521800089754245996,17.0100566914,-1.22197107611,0.0
1521800089754400968,17.0151553713,-1.22713849146,0.0
1521800089794168949,17.0189314765,-1.23115005628,0.0
1521800089797259092,17.0235737184,-1.23594993392,0.0
1521800089833913087,17.0268317897,-1.23950807513,0.0
1521800089874150991,17.0310247291,-1.2439171764,0.0
1521800089914511919,17.0502496806,-1.26540395844,0.0
1521800089914602994,17.066429554,-1.28385800567,0.0
1521800089954497098,17.0699681304,-1.28782783022,0.0
1521800089954628944,17.0730595376,-1.29144073212,0.0
1521800089994643926,17.0846577901,-1.30465253235,0.0
1521800090001583099,17.0934080921,-1.31471449819,0.0
1521800090037947893,17.0975834714,-1.31960003454,0.0
1521800090079544067,17.1104405491,-1.33464862974,0.0
1521800090117960929,17.1254336526,-1.35252682688,0.0
1521800090118056058,17.1290784682,-1.35686453516,0.0
1521800090158961057,17.141107776,-1.37169260528,0.0
1521800090159318923,17.1439936015,-1.37528585207,0.0
1521800090197827100,17.1497707739,-1.38297258677,0.0
1521800090210630893,17.1553961433,-1.39070026914,0.0
1521800090251172065,17.156755442,-1.39253063715,0.0
1521800090291524887,17.1578559715,-1.39449262148,0.0
1521800090291635990,17.1584652001,-1.39534595279,0.0
1521800090330153942,17.159234034,-1.39661319179,0.0
1521800090330424070,17.1618762876,-1.40013840324,0.0
1521800090370759010,17.1625125487,-1.40109196931,0.0
1521800090409908056,17.1669052801,-1.40716083511,0.0
1521800090410043954,17.1681337004,-1.40901385221,0.0
1521800090450081110,17.1745165345,-1.41809468834,0.0
1521800090455770015,17.1861475254,-1.43519079604,0.0
1521800090494760036,17.1886028462,-1.43889632308,0.0
1521800090534189939,17.1990737579,-1.45418005148,0.0
1521800090575047016,17.2149552268,-1.47765275077,0.0
1521800090575331926,17.2188229461,-1.48348962845,0.0
1521800090613775968,17.2331956056,-1.50474061975,0.0
1521800090613852024,17.2377301547,-1.5115837915,0.0
1521800090654398918,17.2486249381,-1.52764140331,0.0
1521800090661221027,17.275968936,-1.56875232861,0.0
1521800090699517011,17.2814125808,-1.57696746576,0.0
1521800090738059997,17.298059587,-1.60205963499,0.0
1521800090779221057,17.3091463167,-1.61879450861,0.0
1521800090779647111,17.3147138125,-1.62719653185,0.0
1521800090819659948,17.3424540104,-1.66909548999,0.0
1521800090820153951,17.3646757541,-1.70265997113,0.0
1521800090858108043,17.3757871361,-1.71944293964,0.0
1521800090859364032,17.3813766896,-1.72787823981,0.0
1521800090899101972,17.3868918853,-1.73621564733,0.0
1521800090938029050,17.3979994314,-1.7529922578,0.0
1521800090938196897,17.4035877328,-1.76142566687,0.0
1521800090977829933,17.4362195844,-1.81072554741,0.0
1521800090991810083,17.4581041307,-1.84383096947,0.0
1521800091029808044,17.4684651378,-1.85958842713,0.0
1521800091071043968,17.4783217195,-1.87462645976,0.0
1521800091071501016,17.4833216634,-1.88222169176,0.0
1521800091110373020,17.5014060587,-1.91033164056,0.0
1521800091113917112,17.5091256972,-1.92272947934,0.0
1521800091150449991,17.5160995635,-1.93420752793,0.0
1521800091190593957,17.519718292,-1.94016725462,0.0
1521800091190973997,17.5284116939,-1.95506488221,0.0
1521800091230223894,17.5313532738,-1.96015043313,0.0
1521800091240160942,17.5346676369,-1.96642377969,0.0
1521800091280664920,17.5483965785,-1.99122869124,0.0
1521800091319025039,17.5507305968,-1.99559785226,0.0
1521800091360928058,17.5651101945,-2.02275348414,0.0
1521800091361237049,17.5690152008,-2.03040393844,0.0
1521800091398679018,17.5723801834,-2.03715379333,0.0
1521800091399049997,17.5741477382,-2.0406886066,0.0
1521800091438041925,17.577269314,-2.04760448852,0.0
1521800091438157081,17.578486948,-2.05015219907,0.0
1521800091478094100,17.580275545,-2.05476345765,0.0
1521800091491019010,17.5822636653,-2.05913216753,0.0
1521800091530571937,17.5827732336,-2.06031783478,0.0
1521800091572714090,17.5858179203,-2.06682962432,0.0
1521800091572932004,17.588173461,-2.07203387078,0.0
1521800091611134052,17.5909620408,-2.07827162219,0.0
1521800091616944074,17.592229253,-2.08128187034,0.0
1521800091654484033,17.5980019569,-2.09423920245,0.0
1521800091694642066,17.6086534283,-2.11887096815,0.0
1521800091694838047,17.6108254013,-2.1240307168,0.0
1521800091735110044,17.6194154432,-2.1437739128,0.0
1521800091747802972,17.632005849,-2.17303604049,0.0
1521800091786119937,17.6351171152,-2.18042679842,0.0
1521800091826056003,17.6464312794,-2.20673317977,0.0
1521800091826157093,17.6616595809,-2.24263735043,0.0
1521800091865864038,17.6654560015,-2.25165565062,0.0
1521800091868134975,17.6771646968,-2.27940155151,0.0
1521800091906366109,17.6810517171,-2.28863502644,0.0
1521800091946322917,17.6962244475,-2.32470518664,0.0
1521800091986161947,17.7117812925,-2.36170267373,0.0
1521800091986352920,17.7156943868,-2.37099805588,0.0
1521800092026176929,17.7196167123,-2.38031536336,0.0
1521800092026364088,17.727342759,-2.39871071913,0.0
1521800092067042112,17.7506973161,-2.45424906604,0.0
1521800092070674896,17.7546094654,-2.46354218656,0.0
1521800092110352993,17.7705973394,-2.50155653355,0.0
1521800092150089979,17.7783965122,-2.52010045944,0.0
1521800092150290966,17.7823190094,-2.52941814803,0.0
1521800092190720081,17.7939781603,-2.55714942587,0.0
1521800092199517011,17.8095782216,-2.59423846683,0.0
1521800092238981962,17.8134988407,-2.60355167963,0.0
1521800092285917043,17.8286347742,-2.63955372159,0.0
1521800092286333084,17.8325441941,-2.64884033491,0.0
1521800092325961112,17.8441891575,-2.67653187811,0.0
1521800092326081991,17.8480967243,-2.68581408411,0.0
1521800092368741989,17.8640619779,-2.72376514165,0.0
1521800092375261068,17.8679770389,-2.73306514197,0.0
1521800092414172887,17.879648337,-2.76081369368,0.0
1521800092453927993,17.8952365207,-2.79786615012,0.0
1521800092454019069,17.8991518162,-2.80716669686,0.0
1521800092494019031,17.9108192132,-2.83490458351,0.0
1521800092508177042,17.9264045214,-2.87194805372,0.0
1521800092548974990,17.9303181425,-2.88124461851,0.0
1521800092586020946,17.9419846645,-2.90897807441,0.0
1521800092586137056,17.9575672759,-2.94601282848,0.0
1521800092627069950,17.961479147,-2.95530523257,0.0
1521800092635621070,17.9731449752,-2.98303484158,0.0
1521800092674171924,17.9809349481,-3.00154813293,0.0
1521800092714060068,17.9922202018,-3.02837176423,0.0
1521800092714183092,17.9961245814,-3.03764637463,0.0
1521800092754657983,18.0077665624,-3.06531886212,0.0
1521800092754890918,18.0116675576,-3.0745854283,0.0
1521800092793916940,18.0276209519,-3.11249632926,0.0
1521800092810906887,18.0431972347,-3.14950996939,0.0
1521800092850706100,18.0471041639,-3.15879061775,0.0
1521800092889878988,18.0587684533,-3.18651135725,0.0
1521800092889997959,18.0743413599,-3.22351621894,0.0
1521800092930104970,18.0782473911,-3.23279472928,0.0
1521800092935149908,18.0899102008,-3.26051077333,0.0
1521800092974742889,18.0976954935,-3.27900987689,0.0
1521800093013955116,18.1054808084,-3.2975088733,0.0
1521800093014059066,18.1210509421,-3.33450522341,0.0
1521800093054990053,18.1249549988,-3.34377903778,0.0
1521800093063868999,18.1400947784,-3.37975802476,0.0
1521800093104521989,18.1556424621,-3.41669996716,0.0
1521800093142000913,18.1595385493,-3.42595484824,0.0
1521800093142167091,18.1711953254,-3.45365297442,0.0
1521800093185779094,18.1750915837,-3.46290824815,0.0
1521800093189152002,18.1867399642,-3.49058655772,0.0
1521800093226562976,18.1906352814,-3.49983959754,0.0
1521800093266014099,18.2022846639,-3.52751961172,0.0
1521800093266128063,18.2178319881,-3.56445839774,0.0
1521800093305901050,18.2217263393,-3.57370913537,0.0
1521800093310420036,18.237669177,-3.61158677662,0.0
1521800093350923061,18.2415675105,-3.62084696767,0.0
1521800093389796972,18.2567148381,-3.65683753008,0.0
1521800093389916896,18.2606094191,-3.66608879439,0.0
1521800093431849002,18.2765563876,-3.70397545058,0.0
1521800093447796106,18.2921146094,-3.74093827992,0.0
1521800093486728906,18.2960124265,-3.7501972282,0.0
1521800093526123046,18.3105875946,-3.78489693048,0.0
1521800093526256084,18.3143226564,-3.79378435999,0.0
1521800093567491054,18.3180534449,-3.80267920797,0.0
1521800093571513891,18.3310811766,-3.83419341643,0.0
1521800093609843969,18.3344161422,-3.84238596491,0.0
1521800093651551008,18.3450229509,-3.8685837166,0.0
1521800093652086973,18.3520823001,-3.88626532041,0.0
1521800093691345930,18.359005121,-3.90372420125,0.0
1521800093693840026,18.3756783757,-3.94616752546,0.0
1521800093731559038,18.3788083445,-3.95430116497,0.0
1521800093769862890,18.3941604309,-3.99526861037,0.0
1521800093769953012,18.3972341057,-4.00365449763,0.0
1521800093810079097,18.4104250609,-4.039489943,0.0
1521800093816464900,18.4172533413,-4.05810696775,0.0
1521800093854074001,18.4206457793,-4.0673739819,0.0
1521800093896292924,18.4241093002,-4.07681924569,0.0
1521800093896843910,18.4275289505,-4.08616044012,0.0
1521800093935183048,18.4377391986,-4.11407046688,0.0
1521800093942804098,18.4442803575,-4.13201583071,0.0
1521800093983006000,18.4541786127,-4.15922219809,0.0
1521800094021739959,18.4673438552,-4.19683232818,0.0
1521800094021823883,18.4698726278,-4.20431187795,0.0
1521800094062259912,18.4853523079,-4.25129807915,0.0
1521800094064435005,18.4908761263,-4.26836810529,0.0
1521800094101962089,18.5025477461,-4.30460812783,0.0
1521800094142885923,18.5054463832,-4.3136721097,0.0
1521800094183516025,18.5146067674,-4.34220853066,0.0
1521800094184076070,18.5176100241,-4.35159885256,0.0
1521800094223139047,18.5206151969,-4.36099507843,0.0
1521800094223314046,18.5206844988,-4.36119066875,0.0
1521800094261990070,18.5417073362,-4.42691004014,0.0
1521800094262084960,18.5447597306,-4.43645360723,0.0
1521800094301862001,18.5600017123,-4.48411905725,0.0
1521800094314476013,18.5694662303,-4.51371381893,0.0
1521800094355236053,18.5725229413,-4.5232706854,0.0
1521800094394057989,18.5755696374,-4.53279970472,0.0
1521800094394185066,18.5938890148,-4.59008564446,0.0
1521800094434628963,18.5969461543,-4.59964371024,0.0
1521800094446919918,18.5999909413,-4.60916669372,0.0
1521800094486058950,18.6060935587,-4.628249786,0.0
1521800094526165962,18.6244020547,-4.68550177702,0.0
1521800094526309967,18.6274582892,-4.69505730659,0.0
1521800094566766977,18.6305039153,-4.70458266289,0.0
1521800094572283029,18.6366061507,-4.72366464081,0.0
1521800094610300064,18.6396621203,-4.73321934578,0.0
1521800094649939060,18.648809599,-4.76182515745,0.0
1521800094690083980,18.667074227,-4.81895091734,0.0
1521800094690254926,18.6701160741,-4.82846250179,0.0
1521800094730206966,18.6858888134,-4.87853634942,0.0
1521800094730329990,18.6883738611,-4.8866548628,0.0
1521800094770179986,18.694338991,-4.90697936967,0.0
1521800094770275115,18.6963803288,-4.91412552104,0.0
1521800094810250997,18.6983527352,-4.92113694454,0.0
1521800094827079057,18.7088705092,-4.95926127419,0.0
1521800094865834951,18.7108793827,-4.96689616307,0.0
1521800094906193971,18.7173130407,-4.99126658143,0.0
1521800094906361103,18.7212969514,-5.00663746282,0.0
1521800094946307897,18.7252257466,-5.02198580568,0.0
1521800094955085992,18.7335552434,-5.05497288384,0.0
1521800094994774103,18.7355987138,-5.06324874068,0.0
1521800095035759925,18.7446371482,-5.0994354379,0.0
1521800095036369085,18.753261296,-5.1346589663,0.0
1521800095074862003,18.7553815459,-5.14336814297,0.0
1521800095077790021,18.7608564276,-5.1667194428,0.0
1521800095118886947,18.762689212,-5.17470249056,0.0
1521800095158011913,18.7701358252,-5.20784993004,0.0
1521800095158143043,18.7718926162,-5.2160280223,0.0
1521800095198667049,18.7778617467,-5.24352171914,0.0
1521800095203361034,18.7818991439,-5.26232737591,0.0
1521800095241816997,18.7859947304,-5.28146866247,0.0
1521800095282427072,18.7942687568,-5.32026676199,0.0
1521800095282746076,18.7963325623,-5.32997204214,0.0
1521800095323282003,18.802587908,-5.35935797135,0.0
1521800095326370954,18.8086220251,-5.38773290057,0.0
1521800095366745948,18.8127848955,-5.40731073749,0.0
1521800095406877994,18.8148693691,-5.41711166291,0.0
1521800095446111917,18.8208772458,-5.44554614575,0.0
1521800095446285009,18.828681855,-5.48271166188,0.0
1521800095486104011,18.8305824516,-5.49195825191,0.0
1521800095486197948,18.8403552729,-5.54003550653,0.0
1521800095530014038,18.8422940764,-5.54969092566,0.0
1521800095530145883,18.8521213722,-5.59857624845,0.0
1521800095569945096,18.8540875546,-5.60836761649,0.0
1521800095575356960,18.858225083,-5.62896799378,0.0
1521800095615044116,18.8601960846,-5.63878291498,0.0
1521800095655277967,18.8699095926,-5.68726054745,0.0
1521800095694067001,18.8770279253,-5.72338292474,0.0
1521800095694197893,18.8804389768,-5.74123432818,0.0
1521800095734620094,18.8839106025,-5.75959527614,0.0
1521800095735018014,18.8856046546,-5.76871283096,0.0
1521800095773840904,18.8890730473,-5.78720504779,0.0
1521800095785090923,18.8962037967,-5.82572467284,0.0
1521800095821888923,18.897974151,-5.83530386307,0.0
1521800095862097978,18.9046282211,-5.87201269086,0.0
1521800095862174987,18.9062215267,-5.8809510822,0.0
1521800095903604984,18.9122151753,-5.91527705918,0.0
1521800095912355899,18.917894312,-5.95132078766,0.0
1521800095950844049,18.9192728463,-5.96024735934,0.0
1521800095989919900,18.9227657685,-5.98414648016,0.0
1521800095990030050,18.9239301869,-5.99224236448,0.0
1521800096030006885,18.9283048138,-6.02451080368,0.0
1521800096039715051,18.930409418,-6.04109498012,0.0
1521800096077786922,18.931395863,-6.04925785462,0.0
1521800096118488073,18.9372051061,-6.09615876661,0.0
1521800096118664979,18.9395675174,-6.11555259921,0.0
1521800096157783031,18.9407200841,-6.12514296931,0.0
1521800096160721063,18.9419476963,-6.13519651855,0.0
1521800096197787046,18.9501762401,-6.20349395927,0.0
1521800096237912893,18.9513697542,-6.21342327467,0.0
1521800096277993917,18.9573413371,-6.26311232181,0.0
1521800096278126955,18.958655748,-6.27404760375,0.0
1521800096319098949,18.9598520229,-6.2839975301,0.0
1521800096319456100,18.962119424,-6.30287144154,0.0
1521800096358961105,18.9645076005,-6.32274506408,0.0
1521800096360443115,18.9657037334,-6.33269335133,0.0
1521800096398624897,18.9716730284,-6.38236767626,0.0
1521800096438354969,18.976450665,-6.42211900329,0.0
1521800096477886915,18.9812284529,-6.4618695914,0.0
1521800096477997064,18.9824244502,-6.47181580509,0.0
1521800096518893003,18.9836170781,-6.48174188175,0.0
1521800096519382953,18.9848130584,-6.49168783896,0.0
1521800096558166027,18.9883953758,-6.52149322453,0.0
1521800096565645933,18.9944914055,-6.57220124493,0.0
1521800096603215932,18.9956880334,-6.58215214287,0.0
1521800096642118930,19.0003452317,-6.62090113477,0.0
1521800096642254114,19.0015412447,-6.63084756147,0.0
1521800096682969093,19.0064360825,-6.67157076954,0.0
1521800096687017917,19.0076320071,-6.68151656892,0.0
1521800096727375984,19.0122885152,-6.72025745246,0.0
1521800096765851974,19.013484164,-6.73020095708,0.0
1521800096765964984,19.0146769138,-6.74012599339,0.0
1521800096806751012,19.0158725109,-6.7500690627,0.0
1521800096817893981,19.0231606713,-6.81069495267,0.0
1521800096855139017,19.0266236276,-6.8395038961,0.0
1521800096894656896,19.0278192527,-6.84944715216,0.0
1521800096934062957,19.032717823,-6.89019458965,0.0
1521800096934190034,19.0339138535,-6.90014121397,0.0
1521800096973907947,19.0374951152,-6.92993437224,0.0
1521800096974020004,19.043347883,-6.97861926189,0.0
1521800097013883113,19.0445432614,-6.98856045713,0.0
1521800097021964073,19.0481249764,-7.0183549248,0.0
1521800097062175035,19.0493202756,-7.02829545076,0.0
1521800097101964950,19.0529021227,-7.05809039578,0.0
1521800097102078914,19.0576795606,-7.09782783988,0.0
1521800097141870021,19.0588747803,-7.10776768287,0.0
1521800097145172119,19.0637723764,-7.14850376927,0.0
1521800097182842016,19.064967976,-7.15844675861,0.0
1521800097226152896,19.0685510452,-7.18825023338,0.0
1521800097226322889,19.0744038628,-7.23693235697,0.0
1521800097266078948,19.075599096,-7.24687227153,0.0
1521800097277086973,19.0804962337,-7.28760377135,0.0
1521800097314205884,19.0816916954,-7.29754557502,0.0
1521800097355212926,19.0828854173,-7.30747519748,0.0
1521800097394881963,19.0887374922,-7.35614991851,0.0
1521800097395224094,19.0899325504,-7.36608835478,0.0
1521800097434850931,19.0942329416,-7.40185456487,0.0
1521800097435107946,19.0954285087,-7.41179722074,0.0
1521800097474046945,19.0982922886,-7.43561866257,0.0
1521800097474195957,19.0994872753,-7.44555647493,0.0
1521800097513814926,19.1043849513,-7.48629043996,0.0
1521800097525543928,19.1091632289,-7.52603129249,0.0
1521800097562268018,19.1103585373,-7.53597175953,0.0
1521800097602612972,19.1139413165,-7.56577043146,0.0
1521800097602726936,19.1151365984,-7.57571067021,0.0
1521800097641911983,19.1163302865,-7.58563931528,0.0
1521800097650005102,19.119793841,-7.61444619934,0.0
1521800097685897111,19.1282734953,-7.68497129702,0.0
1521800097726926088,19.129468237,-7.69490726482,0.0
1521800097766031980,19.1337054853,-7.73066897112,0.0
1521800097766124963,19.1347654306,-7.73975863789,0.0
1521800097809556007,19.1372845581,-7.76276568709,0.0
1521800097809735059,19.1387717741,-7.77732365065,0.0
1521800097845864057,19.1394742032,-7.7847313356,0.0
1521800097851428985,19.1394926654,-7.7850821306,0.0
1521800097889769077,19.1401449553,-7.79231940245,0.0
1521800097936037063,19.1429741602,-7.83446758041,0.0
1521800097936491012,19.1431819198,-7.83895895651,0.0
1521800097978636026,19.143371977,-7.84778079046,0.0
1521800097986408948,19.143441547,-7.85660577295,0.0
1521800098026045083,19.143390203,-7.85919375463,0.0
1521800098026155948,19.1433900813,-7.86051791131,0.0
1521800098066010951,19.1432617554,-7.86198281583,0.0
1521800098075386047,19.1432544507,-7.86227618029,0.0
1521800098113850116,19.1432437265,-7.86263885295,0.0
1521800098156562089,19.1432561855,-7.865624722,0.0
1521800098156693935,19.1432232168,-7.86628084905,0.0
