%time,field.x,field.y,field.z,field.w
1521800070447813034,0.0,0.0,3.88476691986e-08,1.0
1521800070465854883,0.0,0.0,2.27671942503e-06,0.999999999997
1521800070475929021,0.0,0.0,2.27718507941e-06,0.999999999997
1521800070499345064,0.0,0.0,2.27765073378e-06,0.999999999997
1521800070526168107,0.0,0.0,2.27811638816e-06,0.999999999997
1521800070550793886,0.0,0.0,2.27858204253e-06,0.999999999997
1521800070574260950,0.0,0.0,2.27904769691e-06,0.999999999997
1521800070609524965,0.0,0.0,2.28226333088e-06,0.999999999997
1521800070635901927,0.0,0.0,2.39109366989e-06,0.999999999997
1521800070653245925,0.0,0.0,2.39146449263e-06,0.999999999997
1521800070676176071,0.0,0.0,2.39183531537e-06,0.999999999997
1521800070714502096,0.0,0.0,7.32237236598e-07,1.0
1521800070727643013,0.0,0.0,-2.8769050304e-08,1.0
1521800070755759000,0.0,0.0,-1.7584977623e-07,1.0
1521800070788819074,0.0,0.0,2.25305099887e-06,0.999999999997
1521800070812978029,0.0,0.0,2.22809672783e-06,0.999999999998
1521800070840070009,0.0,0.0,2.55354275912e-05,0.999999999674
1521800070863292932,0.0,0.0,2.5550207084e-05,0.999999999674
1521800070884243965,0.0,0.0,5.60319283741e-05,0.99999999843
1521800070905678033,0.0,0.0,5.63086231258e-05,0.999999998415
1521800070930803060,0.0,0.0,5.67880680366e-05,0.999999998388
1521800070954178094,0.0,0.0,5.70530604198e-05,0.999999998372
1521800070980386972,0.0,0.0,5.71764609107e-05,0.999999998365
1521800071010766029,0.0,0.0,-8.22354171242e-05,0.999999996619
1521800071027231931,0.0,0.0,-8.22281924399e-05,0.999999996619
1521800071052202939,0.0,0.0,-8.22209677557e-05,0.99999999662
1521800071091784000,0.0,0.0,-8.22085746053e-05,0.999999996621
1521800071113919973,0.0,0.0,-8.2187957209e-05,0.999999996623
1521800071133927106,0.0,0.0,-8.21803172813e-05,0.999999996623
1521800071158282041,0.0,0.0,-8.21740968981e-05,0.999999996624
1521800071181394100,0.0,0.0,0.000178755694879,0.999999984023
1521800071210674047,0.0,0.0,0.000178758557219,0.999999984023
1521800071240014076,0.0,0.0,0.000177490949229,0.999999984248
1521800071256012916,0.0,0.0,0.000177491572872,0.999999984248
1521800071288461923,0.0,0.0,0.000177505206908,0.999999984246
1521800071310874938,0.0,0.0,0.000177510532556,0.999999984245
1521800071335685968,0.0,0.0,0.000177517619196,0.999999984244
1521800071362091064,0.0,0.0,0.000177525170388,0.999999984242
1521800071388143062,0.0,0.0,-0.000990814751311,0.999999509143
1521800071413925886,0.0,0.0,-0.000990814686919,0.999999509143
1521800071430529117,0.0,0.0,-0.0009908128378,0.999999509145
1521800071466689109,0.0,0.0,-0.000990809958403,0.999999509148
1521800071486368894,0.0,0.0,-0.000990809020415,0.999999509149
1521800071518090009,0.0,0.0,-0.000990799460523,0.999999509158
1521800071537831068,0.0,0.0,-0.000107071299695,0.999999994268
1521800071560762882,0.0,0.0,-0.000107068407747,0.999999994268
1521800071581928968,0.0,0.0,-0.000107066905908,0.999999994268
1521800071614118099,0.0,0.0,-0.000107062854373,0.999999994269
1521800071640515089,0.0,0.0,-1.28575897043e-05,0.999999999917
1521800071663172960,0.0,0.0,-1.28565712099e-05,0.999999999917
1521800071688848972,0.0,0.0,-1.28485123503e-05,0.999999999917
1521800071713259935,0.0,0.0,-1.28441250312e-05,0.999999999918
1521800071737926006,0.0,0.0,-1.28394982484e-05,0.999999999918
1521800071769277095,0.0,0.0,-4.66651263909e-07,1.0
1521800071783848047,0.0,0.0,-4.62681836253e-07,1.0
1521800071815645933,0.0,0.0,-4.54723339233e-07,1.0
1521800071840817928,0.0,0.0,-4.51445329593e-07,1.0
1521800071864128112,0.0,0.0,-4.49597370835e-07,1.0
1521800071892668008,0.0,0.0,-4.43282656168e-07,1.0
1521800071908288002,0.0,0.0,-4.39681980727e-07,1.0
1521800071948052883,0.0,0.0,-3.50672756586e-05,0.999999999385
1521800071961682081,0.0,0.0,-3.50596915294e-05,0.999999999385
1521800071985248088,0.0,0.0,-3.50558756297e-05,0.999999999386
1521800072009680986,0.0,0.0,-3.50520597301e-05,0.999999999386
1521800072046165943,0.0,0.0,-3.50355231376e-05,0.999999999386
1521800072063273906,0.0,0.0,-3.50220861789e-05,0.999999999387
1521800072091434001,0.0,0.0,-3.50136391907e-05,0.999999999387
1521800072114835977,0.0,0.0,-3.50067148281e-05,0.999999999387
1521800072139969110,0.0,0.0,-3.50001768581e-05,0.999999999387
1521800072165611982,0.0,0.0,-3.49910092657e-05,0.999999999388
1521800072194605112,0.0,0.0,-3.49785540627e-05,0.999999999388
1521800072211096048,0.0,0.0,-3.4976439856e-05,0.999999999388
1521800072245750904,0.0,0.0,-3.49739620411e-05,0.999999999388
1521800072262351036,0.0,0.0,-3.49686975706e-05,0.999999999389
1521800072292337894,0.0,0.0,-3.49576006127e-05,0.999999999389
1521800072312462091,0.0,0.0,-3.49551801294e-05,0.999999999389
1521800072343496084,0.0,0.0,-3.49513707772e-05,0.999999999389
1521800072362323999,0.0,0.0,-3.49474351713e-05,0.999999999389
1521800072392184019,0.0,0.0,-3.49443244645e-05,0.999999999389
1521800072415502071,0.0,0.0,-3.49376250015e-05,0.99999999939
1521800072440577983,0.0,0.0,-3.49351178077e-05,0.99999999939
1521800072463381052,0.0,0.0,-3.49323071459e-05,0.99999999939
1521800072490170955,0.0,0.0,-3.49308219717e-05,0.99999999939
1521800072515759944,0.0,0.0,-3.49222298887e-05,0.99999999939
1521800072543797016,0.0,0.0,-3.49168480516e-05,0.99999999939
1521800072570172071,0.0,0.0,-3.4910423579e-05,0.999999999391
1521800072589967966,0.0,0.0,-3.49090383663e-05,0.999999999391
1521800072621211051,0.0,0.0,-3.4904628897e-05,0.999999999391
1521800072640397071,0.0,0.0,-3.49047018845e-05,0.999999999391
1521800072665621042,0.0,0.0,-3.49042639229e-05,0.999999999391
1521800072691035985,0.0,0.0,-3.4903756935e-05,0.999999999391
1521800072718509912,0.0,0.0,-3.4904815531e-05,0.999999999391
1521800072741313934,0.0,0.0,-3.48999309255e-05,0.999999999391
1521800072765387058,0.0,0.0,-3.4892659786e-05,0.999999999391
1521800072789117097,0.0,0.0,-3.4889277105e-05,0.999999999391
1521800072826447010,0.0,0.0,-3.48754512787e-05,0.999999999392
1521800072843044042,0.0,0.0,-3.48736564154e-05,0.999999999392
1521800072872735977,0.0,0.0,-3.48696905908e-05,0.999999999392
1521800072901407003,0.0,0.0,-3.48590175901e-05,0.999999999392
1521800072919671058,0.0,0.0,-3.48557123621e-05,0.999999999393
1521800072948559999,0.0,0.0,-3.48440401428e-05,0.999999999393
1521800072975898981,0.0,0.0,-3.48309504943e-05,0.999999999393
1521800072996213912,0.0,0.0,-3.48208985614e-05,0.999999999394
1521800073024374961,0.0,0.0,-3.4812452164e-05,0.999999999394
1521800073046930074,0.0,0.0,-3.48064945314e-05,0.999999999394
1521800073074800014,0.0,0.0,-3.47973337342e-05,0.999999999395
1521800073100450038,0.0,0.0,-3.47956640265e-05,0.999999999395
1521800073123238086,0.0,0.0,-3.47920299261e-05,0.999999999395
1521800073148420095,0.0,0.0,-3.47903065681e-05,0.999999999395
1521800073187500000,0.0,0.0,-3.47798541099e-05,0.999999999395
1521800073198955059,0.0,0.0,-3.47715553764e-05,0.999999999395
1521800073225162982,0.0,0.0,-3.47530347557e-05,0.999999999396
1521800073245985031,0.0,0.0,-3.47436000125e-05,0.999999999396
1521800073274162054,0.0,0.0,-3.47420648348e-05,0.999999999396
1521800073304805040,0.0,0.0,-3.47349822451e-05,0.999999999397
1521800073328406095,0.0,0.0,-3.47333061012e-05,0.999999999397
1521800073347773075,0.0,0.0,-3.47276419408e-05,0.999999999397
1521800073372833013,0.0,0.0,-3.4727252581e-05,0.999999999397
1521800073404871940,0.0,0.0,-3.47256560175e-05,0.999999999397
1521800073430197954,0.0,0.0,-3.47116283592e-05,0.999999999398
1521800073449660062,0.0,0.0,-3.47041376866e-05,0.999999999398
1521800073475435972,0.0,0.0,-3.47019598936e-05,0.999999999398
1521800073508212089,0.0,0.0,-3.46957595256e-05,0.999999999398
1521800073531488895,0.0,0.0,-3.46893434913e-05,0.999999999398
1521800073546734094,0.0,0.0,-3.46866605746e-05,0.999999999398
1521800073577997922,0.0,0.0,-3.46803672616e-05,0.999999999399
1521800073600176095,0.0,0.0,-3.46787119534e-05,0.999999999399
1521800073623891115,0.0,0.0,-3.46771543979e-05,0.999999999399
1521800073647711038,0.0,0.0,-3.467629273e-05,0.999999999399
1521800073672009944,0.0,0.0,-3.46754310622e-05,0.999999999399
1521800073721532106,0.0,0.0,-3.46724147032e-05,0.999999999399
1521800073724272966,0.0,0.0,-3.46712095398e-05,0.999999999399
1521800073761554956,0.0,0.0,-3.46667842253e-05,0.999999999399
1521800073774691104,0.0,0.0,-3.46642593729e-05,0.999999999399
1521800073810831069,0.0,0.0,-3.4659608499e-05,0.999999999399
1521800073826239109,0.0,0.0,-3.46569456032e-05,0.999999999399
1521800073854444026,0.0,0.0,-3.46552066709e-05,0.9999999994
1521800073876791000,0.0,0.0,-3.46547235532e-05,0.9999999994
1521800073907859086,0.0,0.0,2.5455157992e-05,0.999999999676
1521800073931323051,0.0,0.0,2.54665165649e-05,0.999999999676
1521800073957366943,0.0,0.0,2.54742195821e-05,0.999999999676
1521800073981822013,0.0,0.0,2.54798534753e-05,0.999999999675
1521800074011239051,0.0,0.0,7.94796736953e-06,0.999999999968
1521800074030169963,0.0,0.0,7.9517596738e-06,0.999999999968
1521800074063658952,0.0,0.0,7.96252392625e-06,0.999999999968
1521800074082180976,0.0,0.0,7.97194147829e-06,0.999999999968
1521800074107284069,0.0,0.0,7.98051384959e-06,0.999999999968
1521800074134989976,0.0,0.0,3.52629468477e-06,0.999999999994
1521800074153887987,0.0,0.0,3.53185063812e-06,0.999999999994
1521800074179661035,0.0,0.0,3.53658773897e-06,0.999999999994
1521800074207722902,0.0,0.0,3.54225340065e-06,0.999999999994
1521800074232166051,0.0,0.0,0.000134440159553,0.999999990963
1521800074259736061,0.0,0.0,-5.33961963503e-05,0.999999998574
1521800074280339002,0.0,0.0,-5.33910434469e-05,0.999999998575
1521800074304881095,0.0,0.0,-5.33860740765e-05,0.999999998575
1521800074338968038,0.0,0.0,-5.33766772201e-05,0.999999998575
1521800074356189966,0.0,0.0,-5.33746783755e-05,0.999999998576
1521800074388086080,0.0,0.0,-5.33680213014e-05,0.999999998576
1521800074411822080,0.0,0.0,2.58235391361e-05,0.999999999667
1521800074434859037,0.0,0.0,2.58262319098e-05,0.999999999667
1521800074467241048,0.0,0.0,2.58361439952e-05,0.999999999666
1521800074483963966,0.0,0.0,2.58393756075e-05,0.999999999666
1521800074514995098,0.0,0.0,-4.16128232048e-05,0.999999999134
1521800074534210920,0.0,0.0,-4.16108681661e-05,0.999999999134
1521800074562922000,0.0,0.0,-4.16087815267e-05,0.999999999134
1521800074592104911,0.0,0.0,-4.16037223537e-05,0.999999999135
1521800074610409021,0.0,0.0,-4.16025812537e-05,0.999999999135
1521800074644018888,0.0,0.0,-0.000117448888428,0.999999993103
1521800074664974927,0.0,0.0,-0.000117441934798,0.999999993104
1521800074686206102,0.0,0.0,-0.000117440272131,0.999999993104
1521800074711049079,0.0,0.0,-0.0001174393753,0.999999993104
1521800074733747959,0.0,0.0,-0.000117439008072,0.999999993104
1521800074764503955,0.0,0.0,-3.34592440385e-05,0.99999999944
1521800074785353899,0.0,0.0,-3.34577056908e-05,0.99999999944
1521800074814862966,0.0,0.0,-3.34539062763e-05,0.99999999944
1521800074848031044,0.0,0.0,-3.34536046223e-05,0.99999999944
1521800074857878923,0.0,0.0,-3.34520628473e-05,0.99999999944
1521800074901294946,0.0,0.0,-3.34461469072e-05,0.999999999441
1521800074910413980,0.0,0.0,-5.7591020714e-05,0.999999998342
1521800074941382884,0.0,0.0,-5.75886334907e-05,0.999999998342
1521800074958878040,0.0,0.0,-5.75839841267e-05,0.999999998342
1521800074986790895,0.0,0.0,-5.75838765398e-05,0.999999998342
1521800075025748014,0.0,0.0,-7.30974198302e-05,0.999999997328
1521800075036273956,0.0,0.0,-7.30951794047e-05,0.999999997329
1521800075070780038,0.0,0.0,-7.30880089622e-05,0.999999997329
1521800075086821079,0.0,0.0,-7.30844688921e-05,0.999999997329
1521800075117841005,0.0,0.0,-7.30725760813e-05,0.99999999733
1521800075137667894,0.0,0.0,0.000673302228025,0.999999773332
1521800075166218042,0.0,0.0,0.000673317717687,0.999999773322
1521800075191503047,0.0,0.0,0.000673328847834,0.999999773314
1521800075211097002,0.0,0.0,0.000673332640469,0.999999773312
1521800075241759061,0.0,0.0,0.000673344799006,0.999999773303
1521800075266504049,0.0,0.0,0.000673351521165,0.999999773299
1521800075288954019,0.0,0.0,5.53306719105e-05,0.999999998469
1521800075313961029,0.0,0.0,5.53418681685e-05,0.999999998469
1521800075336381912,0.0,0.0,5.53439796129e-05,0.999999998469
1521800075368974924,0.0,0.0,-6.70626287413e-06,0.999999999978
1521800075390163898,0.0,0.0,-6.70201825727e-06,0.999999999978
1521800075411789894,0.0,0.0,-6.69936167675e-06,0.999999999978
1521800075439111948,0.0,0.0,-6.69563442143e-06,0.999999999978
1521800075480712890,0.0,0.0,-6.68220289816e-06,0.999999999978
1521800075488846063,0.0,0.0,7.14558912658e-06,0.999999999974
1521800075517932891,0.0,0.0,7.15365332432e-06,0.999999999974
1521800075543273925,0.0,0.0,7.15741921759e-06,0.999999999974
1521800075565042018,0.0,0.0,7.16253531693e-06,0.999999999974
1521800075588109016,0.0,0.0,7.1637614723e-06,0.999999999974
1521800075619179010,0.0,0.0,7.16396113454e-06,0.999999999974
1521800075643244981,0.0,0.0,1.30728883982e-05,0.999999999915
1521800075677062988,0.0,0.0,1.3080397808e-05,0.999999999914
1521800075692511081,0.0,0.0,1.30881370656e-05,0.999999999914
1521800075714845895,0.0,0.0,1.30887326708e-05,0.999999999914
1521800075747812032,0.0,0.0,1.30901092724e-05,0.999999999914
1521800075773699998,0.0,0.0,-5.86990608273e-08,1.0
1521800075798893928,0.0,0.0,-5.46060853965e-08,1.0
1521800075832984924,0.0,0.0,-4.67306467377e-08,1.0
1521800075844007968,0.0,0.0,-4.63063494042e-08,1.0
1521800075878931999,0.0,0.0,1.00489932532e-05,0.99999999995
1521800075919501066,0.0,0.0,1.00504307486e-05,0.999999999949
1521800075958024024,0.0,0.0,1.00621353419e-05,0.999999999949
1521800075958101034,0.0,0.0,1.00736380165e-05,0.999999999949
1521800075998063087,0.0,0.0,1.00768469413e-05,0.999999999949
1521800075998146057,0.0,0.0,1.00800026276e-05,0.999999999949
1521800076042054891,0.0,0.0,-3.9412404158e-06,0.999999999992
1521800076042361974,0.0,0.0,-3.93928202596e-06,0.999999999992
1521800076083456039,0.0,0.0,-3.93344969918e-06,0.999999999992
1521800076122920989,0.0,0.0,-3.93153407614e-06,0.999999999992
1521800076162043094,0.0,0.0,-3.92080457697e-06,0.999999999992
1521800076162174940,0.0,0.0,-3.90699872069e-06,0.999999999992
1521800076202349901,0.0,0.0,-3.90436970896e-06,0.999999999992
1521800076202516078,0.0,0.0,-3.89329893304e-06,0.999999999992
1521800076242181062,0.0,0.0,-3.87753043025e-06,0.999999999992
1521800076242708921,0.0,0.0,-3.87345215944e-06,0.999999999992
1521800076282233953,0.0,0.0,-3.86346623601e-06,0.999999999993
1521800076322621107,0.0,0.0,-3.85909637935e-06,0.999999999993
1521800076362617969,0.0,0.0,-3.85126481598e-06,0.999999999993
1521800076362721920,0.0,0.0,-3.83752999428e-06,0.999999999993
1521800076402856111,0.0,0.0,-3.83458968656e-06,0.999999999993
1521800076403007030,0.0,0.0,-3.82740636212e-06,0.999999999993
1521800076441989898,0.0,0.0,-3.81986914638e-06,0.999999999993
1521800076449801921,0.0,0.0,-3.80974723519e-06,0.999999999993
1521800076489917039,0.0,0.0,-3.8067551447e-06,0.999999999993
1521800076530083894,0.0,0.0,-3.80102708704e-06,0.999999999993
1521800076530193090,0.0,0.0,-3.79446659739e-06,0.999999999993
1521800076571352005,0.0,0.0,-3.79349520955e-06,0.999999999993
1521800076581774950,0.0,0.0,-3.78830383879e-06,0.999999999993
1521800076618135929,0.0,0.0,-3.7872303304e-06,0.999999999993
1521800076657984972,0.0,0.0,-3.78014498779e-06,0.999999999993
1521800076658108949,0.0,0.0,-3.77789948641e-06,0.999999999993
1521800076697858095,0.0,0.0,-3.77709082763e-06,0.999999999993
1521800076701000928,0.0,0.0,-3.76910986176e-06,0.999999999993
1521800076738576889,0.0,0.0,-3.76784027632e-06,0.999999999993
1521800076777888059,0.0,0.0,-3.76234475837e-06,0.999999999993
1521800076778021097,0.0,0.0,-3.75807376958e-06,0.999999999993
1521800076818510055,0.0,0.0,-3.75786839965e-06,0.999999999993
1521800076829257965,0.0,0.0,-3.75310156597e-06,0.999999999993
1521800076866586923,0.0,0.0,-3.75139196971e-06,0.999999999993
1521800076906097888,0.0,0.0,-3.74749142393e-06,0.999999999993
1521800076946330070,0.0,0.0,-3.73699095739e-06,0.999999999993
1521800076946485996,0.0,0.0,-3.73562285218e-06,0.999999999993
1521800076987682104,0.0,0.0,-3.7285800492e-06,0.999999999993
1521800076988493919,0.0,0.0,-3.72587552522e-06,0.999999999993
1521800077025985002,0.0,0.0,-3.7204745881e-06,0.999999999993
1521800077030949115,0.0,0.0,-3.70835148125e-06,0.999999999993
1521800077070252895,0.0,0.0,-3.70626404162e-06,0.999999999993
1521800077110157012,0.0,0.0,-3.69764512781e-06,0.999999999993
1521800077110280036,0.0,0.0,-3.68933025708e-06,0.999999999993
1521800077151278018,0.0,0.0,-3.68681472654e-06,0.999999999993
1521800077151690959,0.0,0.0,-3.68429919601e-06,0.999999999993
1521800077190849065,0.0,0.0,-3.67644491941e-06,0.999999999993
1521800077229974985,0.0,0.0,-3.66291362708e-06,0.999999999993
1521800077230092048,0.0,0.0,-3.65937940784e-06,0.999999999993
1521800077270560979,0.0,0.0,-3.64103325059e-06,0.999999999993
1521800077279381036,0.0,0.0,-3.63290608037e-06,0.999999999993
1521800077318819046,0.0,0.0,-3.62979708627e-06,0.999999999993
1521800077357991933,0.0,0.0,-3.62790535108e-06,0.999999999993
1521800077358115911,0.0,0.0,-3.62254822803e-06,0.999999999993
1521800077399471998,0.0,0.0,-3.61516033657e-06,0.999999999993
1521800077402163982,0.0,0.0,-3.61336548068e-06,0.999999999993
1521800077438029050,0.0,0.0,-3.60753482768e-06,0.999999999993
1521800077477932929,0.0,0.0,-3.60459467544e-06,0.999999999994
1521800077519586086,0.0,0.0,-3.59340371247e-06,0.999999999994
1521800077520201921,0.0,0.0,-3.58829452116e-06,0.999999999994
1521800077557866096,0.0,0.0,-3.58532936399e-06,0.999999999994
1521800077557992935,0.0,0.0,-3.57778321422e-06,0.999999999994
1521800077597908020,0.0,0.0,-3.56809886192e-06,0.999999999994
1521800077600348949,0.0,0.0,-3.56471590964e-06,0.999999999994
1521800077637804985,0.0,0.0,-3.55444414098e-06,0.999999999994
1521800077677984952,0.0,0.0,-3.5543051316e-06,0.999999999994
1521800077717984914,0.0,0.0,-3.54546506207e-06,0.999999999994
1521800077758093118,0.0,0.0,-3.5398517317e-06,0.999999999994
1521800077758251905,0.0,0.0,-0.000290397195883,0.999999957835
1521800077758327007,0.0,0.0,-0.000290396173844,0.999999957835
1521800077800390958,0.0,0.0,1.23281960485e-05,0.999999999924
1521800077809818983,0.0,0.0,1.23327201155e-05,0.999999999924
1521800077846601963,0.0,0.0,1.23328996873e-05,0.999999999924
1521800077886514902,0.0,0.0,1.23364626638e-05,0.999999999924
1521800077926207065,0.0,0.0,1.23433592055e-05,0.999999999924
1521800077926376104,0.0,0.0,-1.39432178734e-05,0.999999999903
1521800077966376066,0.0,0.0,-1.39382591342e-05,0.999999999903
1521800077966617107,0.0,0.0,-1.39364087852e-05,0.999999999903
1521800078007838010,0.0,0.0,-1.39280744186e-05,0.999999999903
1521800078013359069,0.0,0.0,0.000132602063338,0.999999991208
1521800078049961090,0.0,0.0,-8.27375440063e-05,0.999999996577
1521800078091109037,0.0,0.0,-8.2727174803e-05,0.999999996578
1521800078091459989,0.0,0.0,-8.27175602963e-05,0.999999996579
1521800078130296945,0.0,0.0,-8.27160460485e-05,0.999999996579
1521800078152322053,0.0,0.0,-4.73929424551e-05,0.999999998877
1521800078191603899,0.0,0.0,-4.7391259811e-05,0.999999998877
1521800078191776037,0.0,0.0,-4.73831578651e-05,0.999999998877
1521800078230092048,0.0,0.0,-4.73679065609e-05,0.999999998878
1521800078236346006,0.0,0.0,-3.08960052127e-05,0.999999999523
1521800078275163888,0.0,0.0,-3.08883455528e-05,0.999999999523
1521800078315237998,0.0,0.0,-3.08813749323e-05,0.999999999523
1521800078315629959,0.0,0.0,-3.08785561128e-05,0.999999999523
1521800078355422019,0.0,0.0,-3.08644316064e-05,0.999999999524
1521800078371609926,0.0,0.0,-3.08487057476e-05,0.999999999524
1521800078410219907,0.0,0.0,-0.000100859450385,0.999999994914
1521800078450433969,0.0,0.0,-0.000100841092831,0.999999994916
1521800078450552940,0.0,0.0,-0.000100826669872,0.999999994917
1521800078490819931,0.0,0.0,-0.000100823024031,0.999999994917
1521800078494781017,0.0,0.0,-0.000100819403553,0.999999994918
1521800078534641981,0.0,0.0,5.0309053629e-05,0.999999998734
1521800078574126958,0.0,0.0,5.03125884805e-05,0.999999998734
1521800078574239969,0.0,0.0,5.03189206396e-05,0.999999998734
1521800078614409923,0.0,0.0,5.03213662806e-05,0.999999998734
1521800078620117902,0.0,0.0,5.0329062434e-05,0.999999998733
1521800078662276029,0.0,0.0,5.03311491757e-05,0.999999998733
1521800078697846889,0.0,0.0,2.05786656334e-05,0.999999999788
1521800078697947978,0.0,0.0,2.05803538082e-05,0.999999999788
1521800078737740993,0.0,0.0,2.0580340361e-05,0.999999999788
1521800078742530107,0.0,0.0,1.50609729421e-06,0.999999999999
1521800078783128976,0.0,0.0,1.50765460785e-06,0.999999999999
1521800078822912931,0.0,0.0,1.51693329037e-06,0.999999999999
1521800078823060035,0.0,0.0,1.52026824375e-06,0.999999999999
1521800078862793922,0.0,0.0,1.52262963308e-06,0.999999999999
1521800078872184038,0.0,0.0,-7.49447614543e-05,0.999999997192
1521800078910118103,0.0,0.0,-7.49417325678e-05,0.999999997192
1521800078950174093,0.0,0.0,-7.49376105554e-05,0.999999997192
1521800078950475931,0.0,0.0,-7.4933635825e-05,0.999999997192
1521800078989801883,0.0,0.0,-7.49315290572e-05,0.999999997193
1521800078992253065,0.0,0.0,-0.000247864349097,0.999999969282
1521800079030121088,0.0,0.0,-0.000247854935481,0.999999969284
1521800079070173978,0.0,0.0,-0.000247852834843,0.999999969284
1521800079070342063,0.0,0.0,-0.000247848573375,0.999999969286
1521800079109901905,0.0,0.0,-0.000247843753873,0.999999969287
1521800079119015932,0.0,0.0,6.7077721162e-05,0.99999999775
1521800079161473989,0.0,0.0,6.70790868866e-05,0.99999999775
1521800079199043989,0.0,0.0,6.7091202033e-05,0.999999997749
1521800079199439048,0.0,0.0,6.7101066576e-05,0.999999997749
1521800079239142894,0.0,0.0,6.71090459781e-05,0.999999997748
1521800079242027997,0.0,0.0,-9.95146613115e-07,1.0
1521800079281960010,0.0,0.0,-9.89764987313e-07,1.0
1521800079321891069,0.0,0.0,-9.75835061545e-07,1.0
1521800079321983098,0.0,0.0,-9.73129297042e-07,1.0
1521800079361972093,0.0,0.0,-9.5831576325e-07,1.0
1521800079362427949,0.0,0.0,-9.53953720289e-07,1.0
1521800079402916908,0.0,0.0,-9.41816267146e-07,1.0
1521800079442325115,0.0,0.0,-7.86429793458e-06,0.999999999969
1521800079442548990,0.0,0.0,-7.86155693477e-06,0.999999999969
1521800079481900930,0.0,0.0,-7.85883397928e-06,0.999999999969
1521800079496798038,0.0,0.0,2.14031677442e-05,0.999999999771
1521800079534806966,0.0,0.0,2.14067575586e-05,0.999999999771
1521800079574300050,0.0,0.0,2.14168993855e-05,0.999999999771
1521800079574424982,0.0,0.0,2.14187551511e-05,0.999999999771
1521800079614116907,0.0,0.0,2.14246746851e-05,0.99999999977
1521800079618706941,0.0,0.0,2.14358451246e-05,0.99999999977
1521800079657917976,0.0,0.0,-1.33668515931e-05,0.999999999911
1521800079700109958,0.0,0.0,-1.33560733268e-05,0.999999999911
1521800079700926065,0.0,0.0,-1.33550760834e-05,0.999999999911
1521800079737919092,0.0,0.0,-1.33540788399e-05,0.999999999911
1521800079745728015,0.0,0.0,6.5172851479e-05,0.999999997876
1521800079786777019,0.0,0.0,-7.70486980683e-05,0.999999997032
1521800079826534032,0.0,0.0,-7.7047838929e-05,0.999999997032
1521800079826791048,0.0,0.0,-7.7047570627e-05,0.999999997032
1521800079869122982,0.0,0.0,-7.70468830991e-05,0.999999997032
1521800079880557060,0.0,0.0,-7.70419607486e-05,0.999999997032
1521800079918947935,0.0,0.0,-7.70412801197e-05,0.999999997032
1521800079957988977,0.0,0.0,0.000111651018498,0.999999993767
1521800079958139896,0.0,0.0,0.000111659681795,0.999999993766
1521800079998104095,0.0,0.0,0.000111662994772,0.999999993766
1521800079998266935,0.0,0.0,0.000111667544318,0.999999993765
1521800080037952899,0.0,0.0,0.000111670026189,0.999999993765
1521800080040427923,0.0,0.0,0.000111672119259,0.999999993765
1521800080077883005,0.0,0.0,0.000111679398137,0.999999993764
1521800080118140935,0.0,0.0,0.000111689350081,0.999999993763
1521800080159682989,0.0,0.0,0.000111694813846,0.999999993762
1521800080160362005,0.0,0.0,0.000111698141514,0.999999993762
1521800080197818994,0.0,0.0,0.000111699391557,0.999999993762
1521800080197922945,0.0,0.0,0.000111712831741,0.99999999376
1521800080238815069,0.0,0.0,0.000111717020789,0.99999999376
1521800080255260944,0.0,0.0,0.000111745681608,0.999999993756
1521800080294064998,0.0,0.0,0.000111748524467,0.999999993756
1521800080335359096,0.0,0.0,0.000111765768214,0.999999993754
1521800080335779905,0.0,0.0,0.000111770780601,0.999999993754
1521800080374039888,0.0,0.0,0.000111773945004,0.999999993753
1521800080374186038,0.0,0.0,0.000111775935602,0.999999993753
1521800080413861989,0.0,0.0,0.000111785750053,0.999999993752
1521800080421932935,0.0,0.0,0.000111789096316,0.999999993752
1521800080462701082,0.0,0.0,0.000111796135344,0.999999993751
1521800080502662897,0.0,0.0,0.000111808697343,0.999999993749
1521800080502866029,0.0,0.0,0.000111811754127,0.999999993749
1521800080541922092,0.0,0.0,0.000111822437094,0.999999993748
1521800080549967050,0.0,0.0,0.000111830480509,0.999999993747
1521800080585916042,0.0,0.0,0.000111835505831,0.999999993746
1521800080626043081,0.0,0.0,0.000111846436592,0.999999993745
1521800080626185894,0.0,0.0,0.000111849803002,0.999999993745
1521800080666008949,0.0,0.0,0.000111857057599,0.999999993744
1521800080675621986,0.0,0.0,0.000111858071957,0.999999993744
1521800080715660095,0.0,0.0,0.000111861967212,0.999999993743
1521800080754148960,0.0,0.0,0.00011186491468,0.999999993743
1521800080754338026,0.0,0.0,0.000111866659991,0.999999993743
1521800080793843030,0.0,0.0,0.00011186762512,0.999999993743
1521800080798863887,0.0,0.0,0.00011186862187,0.999999993743
1521800080838282108,0.0,0.0,0.000111870587753,0.999999993742
1521800080878329038,0.0,0.0,0.00011187951144,0.999999993741
1521800080878442049,0.0,0.0,0.000111880910442,0.999999993741
1521800080919214963,0.0,0.0,0.000111881253841,0.999999993741
1521800080931051969,0.0,0.0,0.000111879824767,0.999999993741
1521800080971208095,0.0,0.0,0.000111888092928,0.999999993741
1521800081009874105,0.0,0.0,0.000111888459858,0.99999999374
1521800081009970903,0.0,0.0,0.000111894876074,0.99999999374
1521800081051105022,0.0,0.0,0.000111896398184,0.99999999374
1521800081058856010,0.0,0.0,0.000111901982503,0.999999993739
1521800081098170995,0.0,0.0,0.000111903938478,0.999999993739
1521800081138927936,0.0,0.0,0.000111908538471,0.999999993738
1521800081139113903,0.0,0.0,0.000111915662827,0.999999993737
1521800081178777933,0.0,0.0,0.000111917704,0.999999993737
1521800081188000917,0.0,0.0,0.000111924130517,0.999999993736
1521800081225805044,0.0,0.0,0.000111928825894,0.999999993736
1521800081266980886,0.0,0.0,0.000111950185607,0.999999993734
1521800081267400979,0.0,0.0,0.000111959431837,0.999999993733
1521800081306144952,0.0,0.0,0.000111963198828,0.999999993732
1521800081306934118,0.0,0.0,0.00011196319776,0.999999993732
1521800081345957040,0.0,0.0,0.000111983604014,0.99999999373
1521800081387234926,0.0,0.0,0.000111987324602,0.999999993729
1521800081425975084,0.0,0.0,0.000111998418869,0.999999993728
1521800081426134109,0.0,0.0,0.000112001934886,0.999999993728
1521800081465965032,0.0,0.0,0.000112015434419,0.999999993726
1521800081466094017,0.0,0.0,0.00011202955799,0.999999993725
1521800081505937099,0.0,0.0,0.000112033348243,0.999999993724
1521800081511341094,0.0,0.0,0.000112044105602,0.999999993723
1521800081551259040,0.0,0.0,0.000112047820572,0.999999993723
1521800081590095996,0.0,0.0,0.000112054199935,0.999999993722
1521800081590245008,0.0,0.0,0.00011205636831,0.999999993722
1521800081629864931,0.0,0.0,0.000112069288258,0.99999999372
1521800081636564016,0.0,0.0,0.000112072193009,0.99999999372
1521800081675306081,0.0,0.0,0.00011208041036,0.999999993719
1521800081714586973,0.0,0.0,0.000112082596321,0.999999993719
1521800081754029989,0.0,0.0,0.000112093115277,0.999999993718
1521800081754146099,0.0,0.0,0.00011209552853,0.999999993717
1521800081794740915,0.0,0.0,-5.1460292428e-06,0.999999999987
1521800081794982910,0.0,0.0,-5.14448710013e-06,0.999999999987
1521800081834111928,0.0,0.0,-5.13877190692e-06,0.999999999987
1521800081841372966,0.0,0.0,-5.13049347588e-06,0.999999999987
1521800081878838062,0.0,0.0,-5.12954377494e-06,0.999999999987
1521800081918962955,0.0,0.0,-4.42197561984e-06,0.99999999999
1521800081919305086,0.0,0.0,-4.41701476145e-06,0.99999999999
1521800081958039045,0.0,0.0,-4.41663935307e-06,0.99999999999
1521800081958746910,0.0,0.0,-4.41525232802e-06,0.99999999999
1521800082000283956,0.0,0.0,-4.40935785063e-06,0.99999999999
1521800082038634061,0.0,0.0,-6.74992331841e-06,0.999999999977
1521800082038806915,0.0,0.0,-6.74901013871e-06,0.999999999977
1521800082077837944,0.0,0.0,-6.74878143814e-06,0.999999999977
1521800082092897891,0.0,0.0,-6.74651266211e-06,0.999999999977
1521800082129820108,0.0,0.0,-6.74466808621e-06,0.999999999977
1521800082171183109,0.0,0.0,8.25497135686e-05,0.999999996593
1521800082171298980,0.0,0.0,8.25568302455e-05,0.999999996592
1521800082209726095,0.0,0.0,8.25585958935e-05,0.999999996592
1521800082219515085,0.0,0.0,8.25655552123e-05,0.999999996591
1521800082257850885,0.0,0.0,-1.40989713816e-05,0.999999999901
1521800082299313068,0.0,0.0,-1.40885736123e-05,0.999999999901
1521800082299825906,0.0,0.0,-1.40763801509e-05,0.999999999901
1521800082337812900,0.0,0.0,-1.40742458439e-05,0.999999999901
1521800082338831901,0.0,0.0,-1.40718662372e-05,0.999999999901
1521800082378901004,0.0,0.0,-5.73715564111e-05,0.999999998354
1521800082418992996,0.0,0.0,-5.73536973187e-05,0.999999998355
1521800082419469118,0.0,0.0,-5.73502806233e-05,0.999999998355
1521800082458826065,0.0,0.0,-5.73409116864e-05,0.999999998356
1521800082465241909,0.0,0.0,-5.73304854322e-05,0.999999998357
1521800082503454923,0.0,0.0,-5.73282360248e-05,0.999999998357
1521800082546200037,0.0,0.0,-2.24077284854e-05,0.999999999749
1521800082585887908,0.0,0.0,-2.23964150601e-05,0.999999999749
1521800082585982084,0.0,0.0,-2.2388456509e-05,0.999999999749
1521800082626153945,0.0,0.0,-2.23865168079e-05,0.999999999749
1521800082626310110,0.0,0.0,-2.23788447003e-05,0.99999999975
1521800082666547060,0.0,0.0,-1.58354695315e-06,0.999999999999
1521800082676323890,0.0,0.0,-1.56842687522e-06,0.999999999999
1521800082713861942,0.0,0.0,-1.56257384739e-06,0.999999999999
1521800082754511117,0.0,0.0,-2.48808273577e-07,1.0
1521800082754596948,0.0,0.0,-2.34825406096e-07,1.0
1521800082798852920,0.0,0.0,-2.32286147957e-07,1.0
1521800082801645994,0.0,0.0,-2.22321308356e-07,1.0
1521800082839042901,0.0,0.0,-2.17614202089e-07,1.0
1521800082877868890,0.0,0.0,-2.15042390522e-07,1.0
1521800082877983093,0.0,0.0,-2.10902520676e-07,1.0
1521800082918591022,0.0,0.0,-3.74286635495e-06,0.999999999993
1521800082920181035,0.0,0.0,-3.74156085573e-06,0.999999999993
1521800082958096027,0.0,0.0,-3.73712030892e-06,0.999999999993
1521800082999435901,0.0,0.0,-3.73443209894e-06,0.999999999993
1521800083038430929,0.0,0.0,-3.7298551178e-06,0.999999999993
1521800083038511991,0.0,0.0,-2.03243362219e-06,0.999999999998
1521800083077845096,0.0,0.0,-2.03110852047e-06,0.999999999998
1521800083077948093,0.0,0.0,-2.02523763914e-06,0.999999999998
1521800083118383884,0.0,0.0,-2.01994919695e-06,0.999999999998
1521800083122756004,0.0,0.0,-0.000146822612895,0.999999989222
1521800083163002967,0.0,0.0,-0.000146817823536,0.999999989222
1521800083208148956,0.0,0.0,-0.000146815259618,0.999999989223
1521800083208843946,0.0,0.0,-0.00014681002432,0.999999989223
1521800083242435932,0.0,0.0,-0.000146795640292,0.999999989226
1521800083246062040,0.0,0.0,-0.000146792688952,0.999999989226
1521800083286869049,0.0,0.0,-0.000262724853776,0.999999965488
1521800083325978994,0.0,0.0,-0.000262721508463,0.999999965489
1521800083326078891,0.0,0.0,-0.000262718244172,0.99999996549
1521800083366633892,0.0,0.0,-0.000262698120089,0.999999965495
1521800083374495983,0.0,0.0,-9.81099849685e-05,0.999999995187
1521800083413813114,0.0,0.0,-9.80972037776e-05,0.999999995188
1521800083454900026,0.0,0.0,-9.80948884918e-05,0.999999995189
1521800083494678020,0.0,0.0,-9.80843780942e-05,0.99999999519
1521800083494915008,0.0,0.0,-9.80818637108e-05,0.99999999519
1521800083533818960,0.0,0.0,4.17085970739e-05,0.99999999913
1521800083533901929,0.0,0.0,4.17120507309e-05,0.99999999913
1521800083573836088,0.0,0.0,4.1735289241e-05,0.999999999129
1521800083575299978,0.0,0.0,4.1741313919e-05,0.999999999129
1521800083613868951,0.0,0.0,4.17466369907e-05,0.999999999129
1521800083654164075,0.0,0.0,4.17576885615e-05,0.999999999128
1521800083654304981,0.0,0.0,1.07609852344e-05,0.999999999942
1521800083693972110,0.0,0.0,1.07678798894e-05,0.999999999942
1521800083705838918,0.0,0.0,1.07720041597e-05,0.999999999942
1521800083742172956,0.0,0.0,1.07753465404e-05,0.999999999942
1521800083782747030,0.0,0.0,1.07773159026e-05,0.999999999942
1521800083822185039,0.0,0.0,-2.45201945196e-05,0.999999999699
1521800083822330951,0.0,0.0,-2.45091401055e-05,0.9999999997
1521800083861865997,0.0,0.0,-2.45060770981e-05,0.9999999997
1521800083861995935,0.0,0.0,-2.44973436116e-05,0.9999999997
1521800083901880025,0.0,0.0,-1.43582777414e-05,0.999999999897
1521800083901990890,0.0,0.0,-1.4357677875e-05,0.999999999897
1521800083942002058,0.0,0.0,-1.43576003101e-05,0.999999999897
1521800083952357053,0.0,0.0,-1.4355950601e-05,0.999999999897
1521800083989959001,0.0,0.0,-1.43561414583e-05,0.999999999897
1521800084031119108,0.0,0.0,-1.43535112108e-05,0.999999999897
1521800084031507015,0.0,0.0,-1.43521261983e-05,0.999999999897
1521800084070118904,0.0,0.0,-1.43431986252e-05,0.999999999897
1521800084081850051,0.0,0.0,-1.43341679861e-05,0.999999999897
1521800084122328042,0.0,0.0,-1.43331732067e-05,0.999999999897
1521800084163750886,0.0,0.0,-1.43321784273e-05,0.999999999897
1521800084164074897,0.0,0.0,-1.43282512176e-05,0.999999999897
1521800084202007055,0.0,0.0,-1.43200056262e-05,0.999999999897
1521800084202148914,0.0,0.0,-1.43185710948e-05,0.999999999897
1521800084241868019,0.0,0.0,-1.43134488021e-05,0.999999999898
1521800084261820077,0.0,0.0,-1.43056747508e-05,0.999999999898
1521800084302411079,0.0,0.0,-1.4303930002e-05,0.999999999898
1521800084342081069,0.0,0.0,-1.42936965095e-05,0.999999999898
1521800084342225074,0.0,0.0,-1.42910537187e-05,0.999999999898
1521800084382461071,0.0,0.0,-1.42781738524e-05,0.999999999898
1521800084389704942,0.0,0.0,-1.42712685623e-05,0.999999999898
1521800084426845073,0.0,0.0,-1.42680312898e-05,0.999999999898
1521800084466288089,0.0,0.0,-1.42563064702e-05,0.999999999898
1521800084466505050,0.0,0.0,-1.42519452791e-05,0.999999999898
1521800084506300926,0.0,0.0,-1.42394036477e-05,0.999999999899
1521800084513248920,0.0,0.0,-1.42205569487e-05,0.999999999899
1521800084554090976,0.0,0.0,-1.42172655298e-05,0.999999999899
1521800084593846082,0.0,0.0,-1.4210792407e-05,0.999999999899
1521800084593934059,0.0,0.0,-1.41969742129e-05,0.999999999899
1521800084634274959,0.0,0.0,-1.41924899108e-05,0.999999999899
1521800084634443998,0.0,0.0,-1.41816878073e-05,0.999999999899
1521800084674835920,0.0,0.0,-1.41787210165e-05,0.999999999899
1521800084681144952,0.0,0.0,-1.41745027772e-05,0.9999999999
1521800084718360900,0.0,0.0,-1.41663065492e-05,0.9999999999
1521800084757910013,0.0,0.0,-1.41539725869e-05,0.9999999999
1521800084758019924,0.0,0.0,-1.4151303045e-05,0.9999999999
1521800084799125909,0.0,0.0,-1.41382668769e-05,0.9999999999
1521800084809386014,0.0,0.0,-1.41328401271e-05,0.9999999999
1521800084846366882,0.0,0.0,-1.41298116052e-05,0.9999999999
1521800084885988950,0.0,0.0,-1.41283108299e-05,0.9999999999
1521800084886154890,0.0,0.0,-1.41257872914e-05,0.9999999999
1521800084925968885,0.0,0.0,-1.41229607891e-05,0.9999999999
1521800084936374902,0.0,0.0,-1.41148925143e-05,0.9999999999
1521800084974472999,0.0,0.0,-1.41143304427e-05,0.9999999999
1521800085013911008,0.0,0.0,-1.41097616314e-05,0.9999999999
1521800085014046907,0.0,0.0,-1.41070268879e-05,0.9999999999
1521800085054953098,0.0,0.0,-1.41061459896e-05,0.999999999901
1521800085060730934,0.0,0.0,-1.41033531194e-05,0.999999999901
1521800085098179101,0.0,0.0,-1.40934969055e-05,0.999999999901
1521800085139061927,0.0,0.0,-1.40919144877e-05,0.999999999901
1521800085139430999,0.0,0.0,-1.4086089719e-05,0.999999999901
1521800085177866935,0.0,0.0,-1.40830432729e-05,0.999999999901
1521800085184664011,0.0,0.0,-1.4080966077e-05,0.999999999901
1521800085221983909,0.0,0.0,-1.40748628195e-05,0.999999999901
1521800085262069940,0.0,0.0,-1.40717625555e-05,0.999999999901
1521800085303527116,0.0,0.0,-1.40695769094e-05,0.999999999901
1521800085303921937,0.0,0.0,-1.40649662604e-05,0.999999999901
1521800085342240095,0.0,0.0,-1.40515412443e-05,0.999999999901
1521800085342360973,0.0,0.0,-1.4048181237e-05,0.999999999901
1521800085381910085,0.0,0.0,-1.40386251258e-05,0.999999999901
1521800085384044885,0.0,0.0,-1.40301306702e-05,0.999999999902
1521800085422147989,0.0,0.0,-1.40175019823e-05,0.999999999902
1521800085462323904,0.0,0.0,-1.40154214335e-05,0.999999999902
1521800085502604007,0.0,0.0,-1.40103179776e-05,0.999999999902
1521800085502722024,0.0,0.0,-1.3994633992e-05,0.999999999902
1521800085542249917,0.0,0.0,-1.39903348791e-05,0.999999999902
1521800085542385101,0.0,0.0,-1.39744857671e-05,0.999999999902
1521800085582811117,0.0,0.0,-1.39708418609e-05,0.999999999902
1521800085593966960,0.0,0.0,-1.39598922371e-05,0.999999999903
1521800085635153055,0.0,0.0,-1.39571022713e-05,0.999999999903
1521800085674040079,0.0,0.0,-1.39436466713e-05,0.999999999903
1521800085674170017,0.0,0.0,-1.39327388536e-05,0.999999999903
1521800085714585065,0.0,0.0,-1.39316481211e-05,0.999999999903
1521800085717077970,0.0,0.0,-0.000654223635886,0.999999785996
1521800085753969907,0.0,0.0,-0.00179825801551,0.999998383133
1521800085793857097,0.0,0.0,-0.00476523765411,0.999988646191
1521800085793946981,0.0,0.0,-0.0135218789605,0.999908575215
1521800085834964036,0.0,0.0,-0.0155313945366,0.999879380617
1521800085844870090,0.0,0.0,-0.0180414434796,0.999837239913
1521800085883312940,0.0,0.0,-0.0194467886315,0.999810893325
1521800085922254085,0.0,0.0,-0.0197837944537,0.999804281586
1521800085922441959,0.0,0.0,-0.0204593734317,0.999790685113
1521800085962315082,0.0,0.0,-0.0223374332835,0.999750488409
1521800085963123083,0.0,0.0,-0.0237184311763,0.99971867844
1521800086002156019,0.0,0.0,-0.034342372919,0.999410126736
1521800086041980028,0.0,0.0,-0.0482895665112,0.99883337838
1521800086042131900,0.0,0.0,-0.0505818796071,0.998719917422
1521800086082273960,0.0,0.0,-0.0515898602056,0.998668356525
1521800086091049909,0.0,0.0,-0.0526409200008,0.998613505587
1521800086130038022,0.0,0.0,-0.0626031989921,0.998038495989
1521800086170034885,0.0,0.0,-0.0647500438295,0.99790151409
1521800086209995985,0.0,0.0,-0.0736192526451,0.997286421065
1521800086210102081,0.0,0.0,-0.0756905285336,0.99713135739
1521800086249850988,0.0,0.0,-0.0838094146115,0.996481802153
1521800086249937057,0.0,0.0,-0.0881542721942,0.996106833775
1521800086289726018,0.0,0.0,-0.0921805761105,0.995742306718
1521800086290955066,0.0,0.0,-0.0972866997335,0.995256398148
1521800086331470966,0.0,0.0,-0.0984097813369,0.995145976698
1521800086371663093,0.0,0.0,-0.1028534828,0.994696517072
1521800086371804952,0.0,0.0,-0.10282221267,0.994699749966
1521800086409914970,0.0,0.0,-0.102775432755,0.994704584498
1521800086426162958,0.0,0.0,-0.102754518683,0.994706745172
1521800086461889982,0.0,0.0,-0.10275173506,0.99470703272
1521800086503170013,0.0,0.0,-0.102742534898,0.99470798304
1521800086503406047,0.0,0.0,-0.102741084519,0.994708132847
1521800086543159008,0.0,0.0,-0.102739971071,0.994708247852
1521800086544615030,0.0,0.0,-0.102738418212,0.99470840824
1521800086582048892,0.0,0.0,-0.102753701201,0.994706829618
1521800086622014045,0.0,0.0,-0.105053104712,0.994466613412
1521800086662065982,0.0,0.0,-0.112145656802,0.993691779004
1521800086662203073,0.0,0.0,-0.12465962885,0.992199565075
1521800086702121973,0.0,0.0,-0.129564346681,0.99157101615
1521800086702224016,0.0,0.0,-0.131878561725,0.991265880053
1521800086742877960,0.0,0.0,-0.138508411043,0.990361257355
1521800086757534027,0.0,0.0,-0.148341187007,0.988936242757
1521800086794210910,0.0,0.0,-0.15073295805,0.988574516846
1521800086835371017,0.0,0.0,-0.15765066657,0.987494945471
1521800086835932016,0.0,0.0,-0.159685030968,0.98716801553
1521800086874357938,0.0,0.0,-0.16712703472,0.985935370228
1521800086880211114,0.0,0.0,-0.175668261596,0.984449420675
1521800086918665885,0.0,0.0,-0.178026953931,0.98402561129
1521800086958821058,0.0,0.0,-0.182790354042,0.983151914238
1521800086959047079,0.0,0.0,-0.185191799771,0.982702395081
1521800086999367952,0.0,0.0,-0.189383937702,0.981903113418
1521800087005033969,0.0,0.0,-0.196107845073,0.980582333668
1521800087041809082,0.0,0.0,-0.197850842521,0.98023213787
1521800087082652091,0.0,0.0,-0.204016256041,0.97896750062
1521800087082885026,0.0,0.0,-0.209967399642,0.977708387551
1521800087121740102,0.0,0.0,-0.211229562039,0.977436479839
1521800087125027894,0.0,0.0,-0.214621492508,0.976697299553
1521800087161979913,0.0,0.0,-0.217082796991,0.97615319456
1521800087202259063,0.0,0.0,-0.218705288095,0.975790959663
1521800087242425918,0.0,0.0,-0.220274392485,0.975437948829
1521800087242597103,0.0,0.0,-0.222740256162,0.974877827363
1521800087283653974,0.0,0.0,-0.230330348373,0.973112496384
1521800087284075021,0.0,0.0,-0.241320963795,0.970445357778
1521800087321995973,0.0,0.0,-0.244424968866,0.96966820851
1521800087322084903,0.0,0.0,-0.246640385723,0.969107073615
1521800087362050056,0.0,0.0,-0.252017491954,0.967722679154
1521800087372154951,0.0,0.0,-0.254827770989,0.966986456541
1521800087409975051,0.0,0.0,-0.258185716654,0.96609530364
1521800087451018095,0.0,0.0,-0.264531733115,0.964376981359
1521800087494118928,0.0,0.0,-0.26630279107,0.963889424918
1521800087494210958,0.0,0.0,-0.272547466873,0.962142337859
1521800087535588979,0.0,0.0,-0.277879040189,0.960616072645
1521800087536001920,0.0,0.0,-0.278520482961,0.960430289282
1521800087574031114,0.0,0.0,-0.281532960164,0.959551557938
1521800087575788974,0.0,0.0,-0.281627574736,0.959523792904
1521800087614989995,0.0,0.0,-0.28155619637,0.959544740117
1521800087653933048,0.0,0.0,-0.281522917908,0.959554504285
1521800087654052972,0.0,0.0,-0.281522053576,0.95955475787
1521800087693914890,0.0,0.0,-0.281521728499,0.959554853243
1521800087706478118,0.0,0.0,-0.281520944773,0.959555083179
1521800087746071100,0.0,0.0,-0.281520993116,0.959555068995
1521800087786838054,0.0,0.0,-0.281521122295,0.959555031096
1521800087826982975,0.0,0.0,-0.281521400025,0.959554949614
1521800087827111959,0.0,0.0,-0.281521452783,0.959554934135
1521800087865928888,0.0,0.0,-0.281519707682,0.959555446124
1521800087866044044,0.0,0.0,-0.281505519698,0.95955960856
1521800087907969951,0.0,0.0,-0.28150492126,0.959559784123
1521800087912220954,0.0,0.0,-0.28150322774,0.959560280947
1521800087950131893,0.0,0.0,-0.281502872939,0.959560385034
1521800087989819049,0.0,0.0,-0.281502550327,0.959560479678
1521800087989938974,0.0,0.0,-0.281501930033,0.959560661651
1521800088030034065,0.0,0.0,-0.281501631731,0.959560749162
1521800088042650938,0.0,0.0,-0.281500245603,0.959561155803
1521800088077987909,0.0,0.0,-0.281498714273,0.959561605038
1521800088123409032,0.0,0.0,-0.28149791584,0.959561839267
1521800088123963117,0.0,0.0,-0.281497681092,0.959561908133
1521800088162045001,0.0,0.0,-0.281527712487,0.959553097594
1521800088162141084,0.0,0.0,-0.281588003477,0.959535406485
1521800088202986955,0.0,0.0,-0.282597386489,0.95923861325
1521800088207685947,0.0,0.0,-0.283188371272,0.959064307738
1521800088246459007,0.0,0.0,-0.285679620059,0.958325182119
1521800088287132978,0.0,0.0,-0.294473925512,0.955659514259
1521800088287511110,0.0,0.0,-0.294990182921,0.955500283611
1521800088326812028,0.0,0.0,-0.297834793521,0.954617429009
1521800088330216884,0.0,0.0,-0.299081668457,0.95422751773
1521800088370150089,0.0,0.0,-0.306203126857,0.951966199559
1521800088410162925,0.0,0.0,-0.308558790072,0.951205273886
1521800088410270929,0.0,0.0,-0.315014159959,0.949086971265
1521800088450707912,0.0,0.0,-0.324185539485,0.945993517942
1521800088455782890,0.0,0.0,-0.326892071429,0.94506167716
1521800088493953943,0.0,0.0,-0.333109206658,0.942888252361
1521800088534651041,0.0,0.0,-0.337298970228,0.941397580559
1521800088574800014,0.0,0.0,-0.340989385846,0.940067145868
1521800088574932098,0.0,0.0,-0.344415213452,0.938817426736
1521800088614161014,0.0,0.0,-0.34446462301,0.938799298836
1521800088614258050,0.0,0.0,-0.344470217718,0.938797246004
1521800088654757976,0.0,0.0,-0.344479175594,0.938793959068
1521800088669286012,0.0,0.0,-0.344476307828,0.938795011355
1521800088709882974,0.0,0.0,-0.344476173305,0.938795060716
1521800088749900102,0.0,0.0,-0.344467185167,0.938798358724
1521800088750005960,0.0,0.0,-0.344466189492,0.93879872406
1521800088790018081,0.0,0.0,-0.344465415848,0.938799007927
1521800088793807983,0.0,0.0,-0.344463646358,0.938799657189
1521800088830352067,0.0,0.0,-0.344463361385,0.938799761751
1521800088870033025,0.0,0.0,-0.344462579155,0.938800048766
1521800088870173931,0.0,0.0,-0.344461621915,0.938800399993
1521800088913975954,0.0,0.0,-0.344461394753,0.938800483343
1521800088916259050,0.0,0.0,-0.34446072533,0.938800728965
1521800088955573081,0.0,0.0,-0.344460509203,0.938800808265
1521800088993901968,0.0,0.0,-0.34445987168,0.938801042182
1521800088994003057,0.0,0.0,-0.344459040122,0.938801347293
1521800089035598993,0.0,0.0,-0.344458840892,0.938801420393
1521800089042876958,0.0,0.0,-0.344458050254,0.938801710488
1521800089082402944,0.0,0.0,-0.344457261194,0.938802000003
1521800089122178077,0.0,0.0,-0.344457064427,0.9388020722
1521800089122354984,0.0,0.0,-0.344456340352,0.938802337871
1521800089161886930,0.0,0.0,-0.344456168666,0.938802400864
1521800089172226905,0.0,0.0,-0.344455487096,0.938802650939
1521800089209969043,0.0,0.0,-0.344466162899,0.938798733818
1521800089250013113,0.0,0.0,-0.344482473102,0.93879274908
1521800089290136098,0.0,0.0,-0.344525059444,0.938777121268
1521800089290324926,0.0,0.0,-0.350658985328,0.936503217298
1521800089331098079,0.0,0.0,-0.352897823696,0.935661865222
1521800089331510066,0.0,0.0,-0.359786311485,0.933034731437
1521800089370188951,0.0,0.0,-0.36516257623,0.930943764639
1521800089371916055,0.0,0.0,-0.369267304089,0.929323225864
1521800089410654067,0.0,0.0,-0.370429972415,0.92886039615
1521800089450644016,0.0,0.0,-0.371040038479,0.928616869245
1521800089490119934,0.0,0.0,-0.371612963192,0.928387745281
1521800089490286111,0.0,0.0,-0.371627608706,0.928381882874
1521800089530091047,0.0,0.0,-0.371612150438,0.928388070608
1521800089530400037,0.0,0.0,-0.371595045986,0.928394916939
1521800089571491956,0.0,0.0,-0.371592891362,0.928395779336
1521800089584732055,0.0,0.0,-0.371588856177,0.92839739442
1521800089622004032,0.0,0.0,-0.371591845649,0.928396197885
1521800089622143983,0.0,0.0,-0.371598179485,0.928393662734
1521800089661873102,0.0,0.0,-0.372633451601,0.927978615458
1521800089673000097,0.0,0.0,-0.373152924273,0.92776985029
1521800089709781885,0.0,0.0,-0.373977786009,0.927437661286
1521800089751338958,0.0,0.0,-0.385700454591,0.922624061755
1521800089751852989,0.0,0.0,-0.388254891164,0.921552027553
1521800089789859056,0.0,0.0,-0.390446208669,0.920625742707
1521800089797250032,0.0,0.0,-0.392275398566,0.919847819848
1521800089833914995,0.0,0.0,-0.394248873887,0.919003713507
1521800089873936891,0.0,0.0,-0.396366178138,0.918092507773
1521800089914011955,0.0,0.0,-0.412088423037,0.911143858893
1521800089914141893,0.0,0.0,-0.418270099661,0.908322698015
1521800089954499959,0.0,0.0,-0.418325069639,0.908297383081
1521800089954641103,0.0,0.0,-0.418386524638,0.908269076872
1521800089994688987,0.0,0.0,-0.418511194673,0.908211638295
1521800090002114057,0.0,0.0,-0.418519470426,0.908207824716
1521800090045914888,0.0,0.0,-0.418520952786,0.908207141614
1521800090086157083,0.0,0.0,-0.41932356229,0.907836852143
1521800090086328983,0.0,0.0,-0.422284776096,0.906463219263
1521800090126784086,0.0,0.0,-0.423785233343,0.905762704024
1521800090133002042,0.0,0.0,-0.43220109288,0.901777253713
1521800090170033931,0.0,0.0,-0.434827841581,0.900513602444
1521800090209888935,0.0,0.0,-0.440480247495,0.897762302375
1521800090210041999,0.0,0.0,-0.449524526574,0.893267988908
1521800090251183032,0.0,0.0,-0.451336064844,0.892354053373
1521800090258052110,0.0,0.0,-0.457500482273,0.889209372825
1521800090297858953,0.0,0.0,-0.459794714685,0.888025236324
1521800090338376045,0.0,0.0,-0.467469002983,0.884009463326
1521800090338519096,0.0,0.0,-0.471691590337,0.88176359848
1521800090377959012,0.0,0.0,-0.47236921135,0.881400776133
1521800090379318952,0.0,0.0,-0.473007075369,0.881058628385
1521800090418955087,0.0,0.0,-0.473068826121,0.881025473952
1521800090457696914,0.0,0.0,-0.473096986424,0.881010352627
1521800090457784891,0.0,0.0,-0.473096527516,0.881010599058
1521800090499113082,0.0,0.0,-0.473093226185,0.881012371841
1521800090509798049,0.0,0.0,-0.473088303935,0.881015015014
1521800090546025037,0.0,0.0,-0.473087804009,0.881015283464
1521800090587598085,0.0,0.0,-0.473087620209,0.881015382161
1521800090627685070,0.0,0.0,-0.473087053504,0.881015686471
1521800090628319025,0.0,0.0,-0.47308692899,0.881015753332
1521800090665935039,0.0,0.0,-0.473087195493,0.881015610225
1521800090666028976,0.0,0.0,-0.473089254059,0.881014504815
1521800090706176042,0.0,0.0,-0.473089315216,0.881014471974
1521800090711246967,0.0,0.0,-0.473089384742,0.88101443464
1521800090751091003,0.0,0.0,-0.47308939127,0.881014431135
1521800090789853096,0.0,0.0,-0.47308938765,0.881014433079
1521800090830105066,0.0,0.0,-0.473089361328,0.881014447213
1521800090830293893,0.0,0.0,-0.473089333384,0.881014462219
1521800090871069908,0.0,0.0,-0.473089319973,0.88101446942
1521800090871305942,0.0,0.0,-0.473089313498,0.881014472897
1521800090910343885,0.0,0.0,-0.47308930648,0.881014476665
1521800090915721893,0.0,0.0,-0.473089291814,0.881014484541
1521800090954658985,0.0,0.0,-0.473089286499,0.881014487395
1521800090993942022,0.0,0.0,-0.473089169551,0.881014550194
1521800090994038105,0.0,0.0,-0.473156239937,0.880978531299
1521800091033955097,0.0,0.0,-0.473566389255,0.880758125122
1521800091038925886,0.0,0.0,-0.474419424995,0.88029893172
1521800091077990055,0.0,0.0,-0.47486964055,0.880056148484
1521800091119771003,0.0,0.0,-0.482603370404,0.875839018812
1521800091120570898,0.0,0.0,-0.486683125444,0.873578579985
1521800091158163070,0.0,0.0,-0.490332763232,0.871535301237
1521800091160928964,0.0,0.0,-0.492789692787,0.870148446348
1521800091198069095,0.0,0.0,-0.499644896463,0.866230325859
1521800091237837076,0.0,0.0,-0.501431663518,0.865197253129
1521800091278402090,0.0,0.0,-0.505120940739,0.863048570607
1521800091319395065,0.0,0.0,-0.514217327816,0.857659920816
1521800091319792985,0.0,0.0,-0.514875321796,0.857265071612
1521800091362340927,0.0,0.0,-0.518116598803,0.85530999646
1521800091362442970,0.0,0.0,-0.520795187427,0.853681657735
1521800091398679971,0.0,0.0,-0.525723541817,0.85065548701
1521800091399055004,0.0,0.0,-0.527570486384,0.849511260606
1521800091438004970,0.0,0.0,-0.533058770009,0.846078216075
1521800091438142061,0.0,0.0,-0.535729162832,0.844389876829
1521800091478084087,0.0,0.0,-0.542400457561,0.840120076916
1521800091491020917,0.0,0.0,-0.550172221147,0.835051212249
1521800091530570983,0.0,0.0,-0.551088477232,0.834446816917
1521800091570517063,0.0,0.0,-0.552764205396,0.833337706595
1521800091570689916,0.0,0.0,-0.553100253009,0.83311470406
1521800091611094951,0.0,0.0,-0.553173763638,0.833065896087
1521800091617974996,0.0,0.0,-0.553183812636,0.833059223247
1521800091659388065,0.0,0.0,-0.553187040132,0.833057080055
1521800091699265003,0.0,0.0,-0.55318146817,0.833060780059
1521800091699811935,0.0,0.0,-0.55317896955,0.833062439225
1521800091739379882,0.0,0.0,-0.553175304271,0.833064873071
1521800091747951030,0.0,0.0,-0.553173828558,0.833065852978
1521800091786124944,0.0,0.0,-0.553173633911,0.833065982228
1521800091826100111,0.0,0.0,-0.553173823744,0.833065856175
1521800091826225996,0.0,0.0,-0.553175583382,0.833064687734
1521800091865814924,0.0,0.0,-0.553175649374,0.833064643914
1521800091868071079,0.0,0.0,-0.553175731985,0.833064589058
1521800091906377077,0.0,0.0,-0.553175734642,0.833064587294
1521800091946007013,0.0,0.0,-0.55317572358,0.83306459464
1521800091986093997,0.0,0.0,-0.55317562465,0.833064660331
1521800091986198902,0.0,0.0,-0.553175588893,0.833064684075
1521800092025960922,0.0,0.0,-0.553175553136,0.833064707818
1521800092026086091,0.0,0.0,-0.553175518969,0.833064730507
1521800092067080020,0.0,0.0,-0.553175366305,0.833064831879
1521800092071850061,0.0,0.0,-0.553175328732,0.833064856829
1521800092109966993,0.0,0.0,-0.553175301242,0.833064875082
1521800092150417089,0.0,0.0,-0.553175292259,0.833064881047
1521800092150583028,0.0,0.0,-0.55317528319,0.833064887069
1521800092190259933,0.0,0.0,-0.55317509996,0.833065008738
1521800092199518918,0.0,0.0,-0.553175084128,0.833065019251
1521800092238990068,0.0,0.0,-0.553175077032,0.833065023963
1521800092283310890,0.0,0.0,-0.553174999718,0.833065075302
1521800092283797979,0.0,0.0,-0.553174964552,0.833065098652
1521800092326569080,0.0,0.0,-0.553174897186,0.833065143385
1521800092326653957,0.0,0.0,-0.553174862619,0.833065166338
1521800092366388082,0.0,0.0,-0.553174783071,0.83306521916
1521800092376004934,0.0,0.0,-0.553174776028,0.833065223837
1521800092414233922,0.0,0.0,-0.553174765647,0.83306523073
1521800092453926086,0.0,0.0,-0.553174733458,0.833065252104
1521800092454026937,0.0,0.0,-0.553174723026,0.833065259032
1521800092494023084,0.0,0.0,-0.553174694883,0.833065277719
1521800092508358955,0.0,0.0,-0.553174659551,0.833065301181
1521800092545964002,0.0,0.0,-0.553174650268,0.833065307344
1521800092586040019,0.0,0.0,-0.553174623761,0.833065324945
1521800092586131095,0.0,0.0,-0.553174592255,0.833065345867
1521800092627078056,0.0,0.0,-0.553174584445,0.833065351053
1521800092635545015,0.0,0.0,-0.553174557461,0.83306536897
1521800092674071073,0.0,0.0,-0.553174539501,0.833065380896
1521800092714024066,0.0,0.0,-0.55317451367,0.833065398048
1521800092714159011,0.0,0.0,-0.553174485754,0.833065416585
1521800092754606008,0.0,0.0,-0.553174408618,0.833065467805
1521800092754851102,0.0,0.0,-0.553174376076,0.833065489414
1521800092793906927,0.0,0.0,-0.553174297158,0.833065541817
1521800092810885906,0.0,0.0,-0.553174277299,0.833065555004
1521800092850704908,0.0,0.0,-0.553174269834,0.833065559961
1521800092889897108,0.0,0.0,-0.55317424767,0.833065574678
1521800092890002012,0.0,0.0,-0.553174215487,0.833065596049
1521800092930105924,0.0,0.0,-0.55317420771,0.833065601213
1521800092932997941,0.0,0.0,-0.553174180283,0.833065619425
1521800092969885110,0.0,0.0,-0.553174163924,0.833065630288
1521800093009880065,0.0,0.0,-0.553174147905,0.833065640925
1521800093049971103,0.0,0.0,-0.553174117121,0.833065661366
1521800093050085067,0.0,0.0,-0.553174109734,0.833065666271
1521800093090900897,0.0,0.0,-0.553174044332,0.8330657097
1521800093092389106,0.0,0.0,-0.553173959703,0.833065765895
1521800093130088090,0.0,0.0,-0.553173932006,0.833065784286
1521800093170563936,0.0,0.0,-0.553173911415,0.833065797959
1521800093170761108,0.0,0.0,-0.553173860795,0.833065831572
1521800093210933923,0.0,0.0,-0.553173784927,0.83306588195
1521800093211033105,0.0,0.0,-0.553173757791,0.833065899969
1521800093253643035,0.0,0.0,-0.553173705261,0.83306593485
1521800093262877941,0.0,0.0,-0.553173630579,0.833065984441
1521800093302320003,0.0,0.0,-0.553173605012,0.833066001418
1521800093341864109,0.0,0.0,-0.553173538097,0.83306604585
1521800093341970920,0.0,0.0,-0.553173529665,0.83306605145
1521800093382586956,0.0,0.0,-0.553173509479,0.833066064854
1521800093383631944,0.0,0.0,-0.553173461093,0.833066096983
1521800093423876047,0.0,0.0,-0.5531733928,0.833066142331
1521800093466033935,0.0,0.0,-0.553173363692,0.833066161659
1521800093466233015,0.0,0.0,-0.553173356621,0.833066166354
1521800093505913019,0.0,0.0,-0.553424449402,0.83289938096
1521800093507556915,0.0,0.0,-0.553718591679,0.832703861664
1521800093546056032,0.0,0.0,-0.55401266488,0.832508238489
1521800093587275981,0.0,0.0,-0.558112269618,0.829765445473
1521800093587359905,0.0,0.0,-0.559081580379,0.829112650055
1521800093627197027,0.0,0.0,-0.561158572762,0.827708315903
1521800093640474081,0.0,0.0,-0.561668179888,0.827362590224
1521800093679272890,0.0,0.0,-0.562017887156,0.827125077915
1521800093717950105,0.0,0.0,-0.566043917583,0.824375086576
1521800093718053102,0.0,0.0,-0.56742646205,0.823424076746
1521800093757837057,0.0,0.0,-0.572692662532,0.819770159424
1521800093758925914,0.0,0.0,-0.572811075534,0.819687423196
1521800093798093080,0.0,0.0,-0.57282890376,0.819674964249
1521800093838920116,0.0,0.0,-0.572817870938,0.819682674414
1521800093839390993,0.0,0.0,-0.572814999008,0.819684681394
1521800093878000974,0.0,0.0,-0.572813863675,0.81968547479
1521800093884681940,0.0,0.0,-0.57281275424,0.819686250086
1521800093921977996,0.0,0.0,-0.572878811675,0.819640083899
1521800093963279008,0.0,0.0,-0.573034584363,0.819531186181
1521800094002140045,0.0,0.0,-0.574804021258,0.818291107825
1521800094002194881,0.0,0.0,-0.582969656669,0.812493925764
1521800094043481111,0.0,0.0,-0.584705741659,0.811245459569
1521800094052690029,0.0,0.0,-0.58944833622,0.80780607755
1521800094090315103,0.0,0.0,-0.589690877687,0.807629041561
1521800094129904985,0.0,0.0,-0.589664058453,0.80764862296
1521800094130028963,0.0,0.0,-0.589658979384,0.807652331162
1521800094170798063,0.0,0.0,-0.589650702796,0.807658373753
1521800094171030998,0.0,0.0,-0.589649610742,0.807659171032
1521800094210009098,0.0,0.0,-0.589648518686,0.80765996831
1521800094213505029,0.0,0.0,-0.589648760943,0.807659791446
1521800094250323057,0.0,0.0,-0.589645800685,0.807661952635
1521800094289827108,0.0,0.0,-0.589645504451,0.807662168906
1521800094331624984,0.0,0.0,-0.589644188078,0.807663129941
1521800094332349061,0.0,0.0,-0.589643440814,0.80766367549
1521800094370615005,0.0,0.0,-0.589643221621,0.807663835514
1521800094370814085,0.0,0.0,-0.589643011212,0.807663989124
1521800094410029888,0.0,0.0,-0.589641774853,0.807664891739
1521800094412672996,0.0,0.0,-0.589641684145,0.807664957961
1521800094449940919,0.0,0.0,-0.589642126047,0.807664635348
1521800094491272926,0.0,0.0,-0.589644073676,0.807663213462
1521800094530143976,0.0,0.0,-0.589645401026,0.807662244412
1521800094530298948,0.0,0.0,-0.589645421984,0.807662229111
1521800094571515083,0.0,0.0,-0.589645434276,0.807662220138
1521800094572284936,0.0,0.0,-0.589645441741,0.807662214688
1521800094610234022,0.0,0.0,-0.58964544075,0.807662215411
1521800094649943113,0.0,0.0,-0.589645432424,0.807662221489
1521800094690082073,0.0,0.0,-0.589647916418,0.807660408008
1521800094690268039,0.0,0.0,-0.5898923146,0.807481923746
1521800094730453014,0.0,0.0,-0.59467176566,0.803968588396
1521800094730730056,0.0,0.0,-0.596066834443,0.80293482231
1521800094770076990,0.0,0.0,-0.602222152535,0.798328553289
1521800094770173072,0.0,0.0,-0.603954386289,0.797018882638
1521800094810240030,0.0,0.0,-0.605109718505,0.796142090692
1521800094827138900,0.0,0.0,-0.610571606504,0.791961055439
1521800094865787029,0.0,0.0,-0.610667038798,0.79188747163
1521800094905946969,0.0,0.0,-0.61150027234,0.791244220787
1521800094906079053,0.0,0.0,-0.613052599934,0.790042093634
1521800094946326971,0.0,0.0,-0.614878126171,0.788622146504
1521800094955135107,0.0,0.0,-0.616567390446,0.787302135802
1521800094994760036,0.0,0.0,-0.616552253586,0.78731398984
1521800095035650968,0.0,0.0,-0.616563236033,0.787305389269
1521800095036389112,0.0,0.0,-0.617840992512,0.786303063692
1521800095074985027,0.0,0.0,-0.61857654738,0.785724541447
1521800095077778100,0.0,0.0,-0.622993078689,0.782227347966
1521800095118874073,0.0,0.0,-0.624523133283,0.78100630983
1521800095158107042,0.0,0.0,-0.628502745677,0.777807366046
1521800095158222913,0.0,0.0,-0.628895890415,0.777489523414
1521800095198659896,0.0,0.0,-0.629347215837,0.777124238406
1521800095203419923,0.0,0.0,-0.629318828207,0.777147227019
1521800095242141962,0.0,0.0,-0.629302104579,0.777160769193
1521800095282493114,0.0,0.0,-0.629286263742,0.777173595966
1521800095282744884,0.0,0.0,-0.629284487886,0.777175033893
1521800095323232889,0.0,0.0,-0.629278599725,0.777179801544
1521800095326641082,0.0,0.0,-0.629275519686,0.777182295426
1521800095366751909,0.0,0.0,-0.629274032785,0.777183499351
1521800095406853914,0.0,0.0,-0.629273422908,0.777183993158
1521800095446034908,0.0,0.0,-0.629480062113,0.777016635216
1521800095446183919,0.0,0.0,-0.631920900324,0.775032886873
1521800095486025094,0.0,0.0,-0.632617262268,0.774464588914
1521800095486140012,0.0,0.0,-0.63369080884,0.773586426194
1521800095530061006,0.0,0.0,-0.633700044473,0.773578860644
1521800095530139923,0.0,0.0,-0.633688363271,0.773588429499
