%time;field.header.seq;field.header.stamp;field.header.frame_id;field.pose.pose.position.x;field.pose.pose.position.y;field.pose.pose.position.z;field.pose.pose.orientation.x;field.pose.pose.orientation.y;field.pose.pose.orientation.z;field.pose.pose.orientation.w;field.pose.covariance0;field.pose.covariance1;field.pose.covariance2;field.pose.covariance3;field.pose.covariance4;field.pose.covariance5;field.pose.covariance6;field.pose.covariance7;field.pose.covariance8;field.pose.covariance9;field.pose.covariance10;field.pose.covariance11;field.pose.covariance12;field.pose.covariance13;field.pose.covariance14;field.pose.covariance15;field.pose.covariance16;field.pose.covariance17;field.pose.covariance18;field.pose.covariance19;field.pose.covariance20;field.pose.covariance21;field.pose.covariance22;field.pose.covariance23;field.pose.covariance24;field.pose.covariance25;field.pose.covariance26;field.pose.covariance27;field.pose.covariance28;field.pose.covariance29;field.pose.covariance30;field.pose.covariance31;field.pose.covariance32;field.pose.covariance33;field.pose.covariance34;field.pose.covariance35
280712000000;108;280712000000;map;21.4722826704;-0.0734716346856;0.0;0.0;0.0;-0.00229267503857;0.999997371817;0.00190251937408;-0.000318896580868;0.00144484983782;0.0;0.0;0.0;0.0;0.0;0.000804629926207;0.0;0.0;0.0;0.0;0.0;0.0;0.0;0.0;0.0;0.0;0.0;0.0;0.0;0.0;0.0;0.0;0.0;0.0;0.0;0.0;0.0;0.0;0.0;0.0;0.0;0.0;0.0
281107000000;109;281107000000;map;21.6757324695;-0.0743502074981;0.0;0.0;0.0;-0.00283940662126;0.999995968877;0.00183502073241;-0.00030396481882;0.00157481365899;0.0;0.0;0.0;0.0;0.0;0.000882304519088;0.0;0.0;0.0;0.0;0.0;0.0;0.0;0.0;0.0;0.0;0.0;0.0;0.0;0.0;0.0;0.0;0.0;0.0;0.0;0.0;0.0;0.0;0.0;0.0;0.0;0.0;0.0
281505000000;110;281505000000;map;21.879081688;-0.0802645763346;0.0;0.0;0.0;-0.00353592389292;0.999993748602;0.00192127737336;-0.000282320962126;0.00199400576366;0.0;0.0;0.0;0.0;0.0;0.00106539594939;0.0;0.0;0.0;0.0;0.0;0.0;0.0;0.0;0.0;0.0;0.0;0.0;0.0;0.0;0.0;0.0;0.0;0.0;0.0;0.0;0.0;0.0;0.0;0.0;0.0;0.0;0.0
281919000000;111;281919000000;map;22.0824785459;-0.0806338871559;0.0;0.0;0.0;-0.00473050872594;0.999988811081;0.00178839511761;-0.000111518859095;0.00190528532905;0.0;0.0;0.0;0.0;0.0;0.00113593770762;0.0;0.0;0.0;0.0;0.0;0.0;0.0;0.0;0.0;0.0;0.0;0.0;0.0;0.0;0.0;0.0;0.0;0.0;0.0;0.0;0.0;0.0;0.0;0.0;0.0;0.0;0.0
282319000000;112;282319000000;map;22.2805790063;-0.0777104220046;0.0;0.0;0.0;-0.0035021505748;0.999993867452;0.0017612078542;-0.000128863963855;0.00183998552122;0.0;0.0;0.0;0.0;0.0;0.000983154548905;0.0;0.0;0.0;0.0;0.0;0.0;0.0;0.0;0.0;0.0;0.0;0.0;0.0;0.0;0.0;0.0;0.0;0.0;0.0;0.0;0.0;0.0;0.0;0.0;0.0;0.0;0.0
282719000000;113;282719000000;map;22.4804462389;-0.0753174960712;0.0;0.0;0.0;-0.00388733825839;0.999992444272;0.00184168053897;-2.30752851613e-05;0.00212548097341;0.0;0.0;0.0;0.0;0.0;0.00103914992422;0.0;0.0;0.0;0.0;0.0;0.0;0.0;0.0;0.0;0.0;0.0;0.0;0.0;0.0;0.0;0.0;0.0;0.0;0.0;0.0;0.0;0.0;0.0;0.0;0.0;0.0;0.0
283122000000;114;283122000000;map;22.6857304987;-0.0791035275167;0.0;0.0;0.0;-0.00532357977967;0.999985829649;0.00174009793011;-0.000110810352705;0.00239921348975;0.0;0.0;0.0;0.0;0.0;0.00109904703562;0.0;0.0;0.0;0.0;0.0;0.0;0.0;0.0;0.0;0.0;0.0;0.0;0.0;0.0;0.0;0.0;0.0;0.0;0.0;0.0;0.0;0.0;0.0;0.0;0.0;0.0;0.0
283517000000;115;283517000000;map;22.8844229982;-0.0762231595652;0.0;0.0;0.0;-0.00555258212319;0.999984584297;0.00181440363599;-2.37164431931e-05;0.00239102507288;0.0;0.0;0.0;0.0;0.0;0.000951907100393;0.0;0.0;0.0;0.0;0.0;0.0;0.0;0.0;0.0;0.0;0.0;0.0;0.0;0.0;0.0;0.0;0.0;0.0;0.0;0.0;0.0;0.0;0.0;0.0;0.0;0.0;0.0
283919000000;116;283919000000;map;23.0878352226;-0.0786487802621;0.0;0.0;0.0;-0.00481027239809;0.999988430573;0.00182577714031;-5.49379682835e-06;0.00265698126346;0.0;0.0;0.0;0.0;0.0;0.000931126926468;0.0;0.0;0.0;0.0;0.0;0.0;0.0;0.0;0.0;0.0;0.0;0.0;0.0;0.0;0.0;0.0;0.0;0.0;0.0;0.0;0.0;0.0;0.0;0.0;0.0;0.0;0.0
284325000000;117;284325000000;map;23.29883255;-0.0873753571336;0.0;0.0;0.0;-0.00546881947921;0.999985045895;0.00184469581563;5.34834396875e-05;0.00299194463194;0.0;0.0;0.0;0.0;0.0;0.000923724680543;0.0;0.0;0.0;0.0;0.0;0.0;0.0;0.0;0.0;0.0;0.0;0.0;0.0;0.0;0.0;0.0;0.0;0.0;0.0;0.0;0.0;0.0;0.0;0.0;0.0;0.0;0.0
284719000000;118;284719000000;map;23.50090816;-0.0848412502666;0.0;0.0;0.0;-0.00384662632032;0.999992601706;0.00207979920106;-9.03602280613e-05;0.0028774120664;0.0;0.0;0.0;0.0;0.0;0.00101884496806;0.0;0.0;0.0;0.0;0.0;0.0;0.0;0.0;0.0;0.0;0.0;0.0;0.0;0.0;0.0;0.0;0.0;0.0;0.0;0.0;0.0;0.0;0.0;0.0;0.0;0.0;0.0
285128208850;119;285128208850;map;23.7019241043;-0.0835935878465;0.0;0.0;0.0;-0.00366671221234;0.999993277588;0.00202471459863;-9.97400256009e-06;0.00252226128037;0.0;0.0;0.0;0.0;0.0;0.000957471110129;0.0;0.0;0.0;0.0;0.0;0.0;0.0;0.0;0.0;0.0;0.0;0.0;0.0;0.0;0.0;0.0;0.0;0.0;0.0;0.0;0.0;0.0;0.0;0.0;0.0;0.0;0.0
285620000000;120;285620000000;map;23.9037524923;-0.0889369403575;0.0;0.0;0.0;-0.00406483745781;0.999991738514;0.00216124393489;7.4713482956e-06;0.00253245907765;0.0;0.0;0.0;0.0;0.0;0.000929101098273;0.0;0.0;0.0;0.0;0.0;0.0;0.0;0.0;0.0;0.0;0.0;0.0;0.0;0.0;0.0;0.0;0.0;0.0;0.0;0.0;0.0;0.0;0.0;0.0;0.0;0.0;0.0
286020000000;121;286020000000;map;24.1089906436;-0.0874768420431;0.0;0.0;0.0;-0.00276880144784;0.999996166862;0.00211857503007;2.51926835739e-05;0.00238630775488;0.0;0.0;0.0;0.0;0.0;0.000860635069627;0.0;0.0;0.0;0.0;0.0;0.0;0.0;0.0;0.0;0.0;0.0;0.0;0.0;0.0;0.0;0.0;0.0;0.0;0.0;0.0;0.0;0.0;0.0;0.0;0.0;0.0;0.0
286426000000;122;286426000000;map;24.3216487995;-0.0880921830578;0.0;0.0;0.0;-0.00173375992983;0.999998497037;0.00199501442785;-7.33878574164e-05;0.00240263327889;0.0;0.0;0.0;0.0;0.0;0.000820385165296;0.0;0.0;0.0;0.0;0.0;0.0;0.0;0.0;0.0;0.0;0.0;0.0;0.0;0.0;0.0;0.0;0.0;0.0;0.0;0.0;0.0;0.0;0.0;0.0;0.0;0.0;0.0
286820000000;123;286820000000;map;24.5237151344;-0.085350022209;0.0;0.0;0.0;-0.000941286856584;0.999999556989;0.00208243661928;2.06782220697e-05;0.00224375598588;0.0;0.0;0.0;0.0;0.0;0.000886977951361;0.0;0.0;0.0;0.0;0.0;0.0;0.0;0.0;0.0;0.0;0.0;0.0;0.0;0.0;0.0;0.0;0.0;0.0;0.0;0.0;0.0;0.0;0.0;0.0;0.0;0.0;0.0
287227000000;124;287227000000;map;24.7258742145;-0.0852653226194;0.0;0.0;0.0;-0.00198261154609;0.999998034624;0.0020034132657;5.31310318026e-05;0.00231562386626;0.0;0.0;0.0;0.0;0.0;0.000969057877839;0.0;0.0;0.0;0.0;0.0;0.0;0.0;0.0;0.0;0.0;0.0;0.0;0.0;0.0;0.0;0.0;0.0;0.0;0.0;0.0;0.0;0.0;0.0;0.0;0.0;0.0;0.0
287617000000;125;287617000000;map;24.925034609;-0.0822899611506;0.0;0.0;0.0;-0.00141669586085;0.999998996486;0.00194619726585;0.000343936544687;0.00235196415716;0.0;0.0;0.0;0.0;0.0;0.000970010219575;0.0;0.0;0.0;0.0;0.0;0.0;0.0;0.0;0.0;0.0;0.0;0.0;0.0;0.0;0.0;0.0;0.0;0.0;0.0;0.0;0.0;0.0;0.0;0.0;0.0;0.0;0.0
288018000000;126;288018000000;map;25.1337937058;-0.082455192451;0.0;0.0;0.0;-0.000718508188754;0.999999741873;0.00190665697926;0.000400944486898;0.00199803262974;0.0;0.0;0.0;0.0;0.0;0.000898696364594;0.0;0.0;0.0;0.0;0.0;0.0;0.0;0.0;0.0;0.0;0.0;0.0;0.0;0.0;0.0;0.0;0.0;0.0;0.0;0.0;0.0;0.0;0.0;0.0;0.0;0.0;0.0
288417000000;127;288417000000;map;25.3363607525;-0.0856404249223;0.0;0.0;0.0;-0.00117432274396;0.999999310483;0.0018666427012;0.00037817057898;0.0019701968225;0.0;0.0;0.0;0.0;0.0;0.000891599458511;0.0;0.0;0.0;0.0;0.0;0.0;0.0;0.0;0.0;0.0;0.0;0.0;0.0;0.0;0.0;0.0;0.0;0.0;0.0;0.0;0.0;0.0;0.0;0.0;0.0;0.0;0.0
288819558029;128;288819558029;map;25.5473965144;-0.084843088427;0.0;0.0;0.0;-0.00138976770339;0.999999034272;0.00199669559083;0.000328621274386;0.00207511895437;0.0;0.0;0.0;0.0;0.0;0.000908188659839;0.0;0.0;0.0;0.0;0.0;0.0;0.0;0.0;0.0;0.0;0.0;0.0;0.0;0.0;0.0;0.0;0.0;0.0;0.0;0.0;0.0;0.0;0.0;0.0;0.0;0.0;0.0
289223000000;129;289223000000;map;25.7477162346;-0.0844035630256;0.0;0.0;0.0;-0.00168906533263;0.999998573528;0.00201554416799;0.000525432150736;0.00211071198989;0.0;0.0;0.0;0.0;0.0;0.000969586735178;0.0;0.0;0.0;0.0;0.0;0.0;0.0;0.0;0.0;0.0;0.0;0.0;0.0;0.0;0.0;0.0;0.0;0.0;0.0;0.0;0.0;0.0;0.0;0.0;0.0;0.0;0.0
289615000000;130;289615000000;map;25.9491262375;-0.0855016927793;0.0;0.0;0.0;-0.00218122296481;0.99999762113;0.00209344235111;0.000558413313126;0.00220788149894;0.0;0.0;0.0;0.0;0.0;0.000948410954587;0.0;0.0;0.0;0.0;0.0;0.0;0.0;0.0;0.0;0.0;0.0;0.0;0.0;0.0;0.0;0.0;0.0;0.0;0.0;0.0;0.0;0.0;0.0;0.0;0.0;0.0;0.0
290126000000;131;290126000000;map;26.1560276739;-0.0874861049281;0.0;0.0;0.0;-0.00184867498752;0.999998291199;0.00216288021875;0.000280996942545;0.00213805250551;0.0;0.0;0.0;0.0;0.0;0.000910177844971;0.0;0.0;0.0;0.0;0.0;0.0;0.0;0.0;0.0;0.0;0.0;0.0;0.0;0.0;0.0;0.0;0.0;0.0;0.0;0.0;0.0;0.0;0.0;0.0;0.0;0.0;0.0
290445000000;132;290445000000;map;26.3549040339;-0.0891935311511;0.0;0.0;0.0;-0.00148002445479;0.999998904763;0.00212007318044;7.88671402141e-05;0.00201101705647;0.0;0.0;0.0;0.0;0.0;0.000932381186386;0.0;0.0;0.0;0.0;0.0;0.0;0.0;0.0;0.0;0.0;0.0;0.0;0.0;0.0;0.0;0.0;0.0;0.0;0.0;0.0;0.0;0.0;0.0;0.0;0.0;0.0;0.0
290953000000;133;290953000000;map;26.5645398791;-0.0889694850606;0.0;0.0;0.0;-0.00118463100155;0.999999298324;0.00203878455488;0.00012636652597;0.00223400093548;0.0;0.0;0.0;0.0;0.0;0.00085461097932;0.0;0.0;0.0;0.0;0.0;0.0;0.0;0.0;0.0;0.0;0.0;0.0;0.0;0.0;0.0;0.0;0.0;0.0;0.0;0.0;0.0;0.0;0.0;0.0;0.0;0.0;0.0
291356000000;134;291356000000;map;26.7730185933;-0.0872256938954;0.0;0.0;0.0;-0.00189656009642;0.999998201528;0.00213049398826;0.000257818337636;0.00255297190956;0.0;0.0;0.0;0.0;0.0;0.00088684264242;0.0;0.0;0.0;0.0;0.0;0.0;0.0;0.0;0.0;0.0;0.0;0.0;0.0;0.0;0.0;0.0;0.0;0.0;0.0;0.0;0.0;0.0;0.0;0.0;0.0;0.0;0.0
291750000000;135;291750000000;map;26.9759531554;-0.0813491734134;0.0;0.0;0.0;-0.00169849460237;0.999998557557;0.00224304665983;0.000278298000111;0.00230463437884;0.0;0.0;0.0;0.0;0.0;0.000861071688794;0.0;0.0;0.0;0.0;0.0;0.0;0.0;0.0;0.0;0.0;0.0;0.0;0.0;0.0;0.0;0.0;0.0;0.0;0.0;0.0;0.0;0.0;0.0;0.0;0.0;0.0;0.0
292151000000;136;292151000000;map;27.1773443161;-0.0853190624175;0.0;0.0;0.0;-0.00249900580631;0.99999687748;0.00198444835371;0.000319226680628;0.00222671410439;0.0;0.0;0.0;0.0;0.0;0.000800611777194;0.0;0.0;0.0;0.0;0.0;0.0;0.0;0.0;0.0;0.0;0.0;0.0;0.0;0.0;0.0;0.0;0.0;0.0;0.0;0.0;0.0;0.0;0.0;0.0;0.0;0.0;0.0
292548000000;137;292548000000;map;27.3802221122;-0.0853071451584;0.0;0.0;0.0;-0.00313840014255;0.99999507521;0.00174542278444;0.000512486602496;0.00237049426747;0.0;0.0;0.0;0.0;0.0;0.000763578636636;0.0;0.0;0.0;0.0;0.0;0.0;0.0;0.0;0.0;0.0;0.0;0.0;0.0;0.0;0.0;0.0;0.0;0.0;0.0;0.0;0.0;0.0;0.0;0.0;0.0;0.0;0.0
292945000000;138;292945000000;map;27.5827122961;-0.0874773929279;0.0;0.0;0.0;-0.00325663834427;0.999994697139;0.00176481634821;0.000493904335382;0.00244861151513;0.0;0.0;0.0;0.0;0.0;0.000737069425539;0.0;0.0;0.0;0.0;0.0;0.0;0.0;0.0;0.0;0.0;0.0;0.0;0.0;0.0;0.0;0.0;0.0;0.0;0.0;0.0;0.0;0.0;0.0;0.0;0.0;0.0;0.0
293347000000;139;293347000000;map;27.790978801;-0.0892954357948;0.0;0.0;0.0;-0.00217029610295;0.999997644905;0.00164500962512;0.000499849853421;0.00238582614687;0.0;0.0;0.0;0.0;0.0;0.000809882615368;0.0;0.0;0.0;0.0;0.0;0.0;0.0;0.0;0.0;0.0;0.0;0.0;0.0;0.0;0.0;0.0;0.0;0.0;0.0;0.0;0.0;0.0;0.0;0.0;0.0;0.0;0.0
293741000000;140;293741000000;map;28.002255686;-0.0885208982741;0.0;0.0;0.0;-0.00185748098666;0.999998274881;0.00175671385023;0.000706058360588;0.00270753739973;0.0;0.0;0.0;0.0;0.0;0.000909022258584;0.0;0.0;0.0;0.0;0.0;0.0;0.0;0.0;0.0;0.0;0.0;0.0;0.0;0.0;0.0;0.0;0.0;0.0;0.0;0.0;0.0;0.0;0.0;0.0;0.0;0.0;0.0
294153000000;141;294153000000;map;28.2031338492;-0.0902957220277;0.0;0.0;0.0;-0.00234649822103;0.999997246969;0.00186744852056;0.000508089295614;0.00259309487035;0.0;0.0;0.0;0.0;0.0;0.000892520793826;0.0;0.0;0.0;0.0;0.0;0.0;0.0;0.0;0.0;0.0;0.0;0.0;0.0;0.0;0.0;0.0;0.0;0.0;0.0;0.0;0.0;0.0;0.0;0.0;0.0;0.0;0.0
294543000000;142;294543000000;map;28.3962290122;-0.0945920048639;0.0;0.0;0.0;-0.00334395983264;0.999994408951;0.00170959369404;0.000363065645713;0.00253617556093;0.0;0.0;0.0;0.0;0.0;0.000778018412058;0.0;0.0;0.0;0.0;0.0;0.0;0.0;0.0;0.0;0.0;0.0;0.0;0.0;0.0;0.0;0.0;0.0;0.0;0.0;0.0;0.0;0.0;0.0;0.0;0.0;0.0;0.0
294947000000;143;294947000000;map;28.6091971204;-0.0941696587472;0.0;0.0;0.0;-0.00341296841071;0.999994175806;0.00162359691535;0.000469068215485;0.00238625978068;0.0;0.0;0.0;0.0;0.0;0.000743975239906;0.0;0.0;0.0;0.0;0.0;0.0;0.0;0.0;0.0;0.0;0.0;0.0;0.0;0.0;0.0;0.0;0.0;0.0;0.0;0.0;0.0;0.0;0.0;0.0;0.0;0.0;0.0
295460000000;144;295460000000;map;28.8208169776;-0.0923766514009;0.0;0.0;0.0;-0.0028763440119;0.999995863314;0.00161664246457;0.000392591915635;0.00255668305617;0.0;0.0;0.0;0.0;0.0;0.000720579527157;0.0;0.0;0.0;0.0;0.0;0.0;0.0;0.0;0.0;0.0;0.0;0.0;0.0;0.0;0.0;0.0;0.0;0.0;0.0;0.0;0.0;0.0;0.0;0.0;0.0;0.0;0.0
295744000000;145;295744000000;map;29.0189431541;-0.0957275412043;0.0;0.0;0.0;-0.00306395213374;0.999995306088;0.00168097397784;0.000248277100074;0.00247611863046;0.0;0.0;0.0;0.0;0.0;0.000662174405633;0.0;0.0;0.0;0.0;0.0;0.0;0.0;0.0;0.0;0.0;0.0;0.0;0.0;0.0;0.0;0.0;0.0;0.0;0.0;0.0;0.0;0.0;0.0;0.0;0.0;0.0;0.0
296145000000;146;296145000000;map;29.2221095176;-0.095259938129;0.0;0.0;0.0;-0.00311326888452;0.999995153767;0.00160905925429;0.000397372753857;0.002307063451;0.0;0.0;0.0;0.0;0.0;0.0007582998527;0.0;0.0;0.0;0.0;0.0;0.0;0.0;0.0;0.0;0.0;0.0;0.0;0.0;0.0;0.0;0.0;0.0;0.0;0.0;0.0;0.0;0.0;0.0;0.0;0.0;0.0;0.0
296545000000;147;296545000000;map;29.4244556863;-0.0994666922973;0.0;0.0;0.0;-0.00168813616754;0.999998575097;0.00151363081011;0.00029073345744;0.00202066907768;0.0;0.0;0.0;0.0;0.0;0.000897233484546;0.0;0.0;0.0;0.0;0.0;0.0;0.0;0.0;0.0;0.0;0.0;0.0;0.0;0.0;0.0;0.0;0.0;0.0;0.0;0.0;0.0;0.0;0.0;0.0;0.0;0.0;0.0
297036000000;148;297036000000;map;29.6279477751;-0.104655191373;0.0;0.0;0.0;-0.00288957627111;0.999995825166;0.00165571608625;0.000130936410224;0.00246704362183;0.0;0.0;0.0;0.0;0.0;0.000768585390005;0.0;0.0;0.0;0.0;0.0;0.0;0.0;0.0;0.0;0.0;0.0;0.0;0.0;0.0;0.0;0.0;0.0;0.0;0.0;0.0;0.0;0.0;0.0;0.0;0.0;0.0;0.0
297441000000;149;297441000000;map;29.8244313984;-0.0983567330152;0.0;0.0;0.0;-0.00181486258095;0.999998353136;0.00184973012767;0.000107401065771;0.00238749922343;0.0;0.0;0.0;0.0;0.0;0.000958237465813;0.0;0.0;0.0;0.0;0.0;0.0;0.0;0.0;0.0;0.0;0.0;0.0;0.0;0.0;0.0;0.0;0.0;0.0;0.0;0.0;0.0;0.0;0.0;0.0;0.0;0.0;0.0
297837000000;150;297837000000;map;30.0252808741;-0.0980884753467;0.0;0.0;0.0;-0.00263541748577;0.999996527281;0.00212372139026;8.91590719654e-05;0.00249303804328;0.0;0.0;0.0;0.0;0.0;0.000840361730997;0.0;0.0;0.0;0.0;0.0;0.0;0.0;0.0;0.0;0.0;0.0;0.0;0.0;0.0;0.0;0.0;0.0;0.0;0.0;0.0;0.0;0.0;0.0;0.0;0.0;0.0;0.0
298250000000;151;298250000000;map;30.2275844585;-0.0981801642938;0.0;0.0;0.0;-0.00209230069084;0.999997811137;0.00234616763021;-4.05642942569e-06;0.00272836635022;0.0;0.0;0.0;0.0;0.0;0.000922586109557;0.0;0.0;0.0;0.0;0.0;0.0;0.0;0.0;0.0;0.0;0.0;0.0;0.0;0.0;0.0;0.0;0.0;0.0;0.0;0.0;0.0;0.0;0.0;0.0;0.0;0.0;0.0
298640000000;152;298640000000;map;30.4313859823;-0.0971991082942;0.0;0.0;0.0;-0.00213412492398;0.999997722753;0.00239338685981;-0.000112044085836;0.00322012604758;0.0;0.0;0.0;0.0;0.0;0.000981933035392;0.0;0.0;0.0;0.0;0.0;0.0;0.0;0.0;0.0;0.0;0.0;0.0;0.0;0.0;0.0;0.0;0.0;0.0;0.0;0.0;0.0;0.0;0.0;0.0;0.0;0.0;0.0
299046000000;153;299046000000;map;30.6309305765;-0.100784156052;0.0;0.0;0.0;-0.00195985126081;0.99999807949;0.00301407780353;-0.000106878538536;0.0025314056063;0.0;0.0;0.0;0.0;0.0;0.000910847637214;0.0;0.0;0.0;0.0;0.0;0.0;0.0;0.0;0.0;0.0;0.0;0.0;0.0;0.0;0.0;0.0;0.0;0.0;0.0;0.0;0.0;0.0;0.0;0.0;0.0;0.0;0.0
299439000000;154;299439000000;map;30.8689298953;-0.103489558669;0.0;0.0;0.0;-0.00321026982227;0.999994847071;0.00327096331023;0.000288615915867;0.00223010098053;0.0;0.0;0.0;0.0;0.0;0.00104938867768;0.0;0.0;0.0;0.0;0.0;0.0;0.0;0.0;0.0;0.0;0.0;0.0;0.0;0.0;0.0;0.0;0.0;0.0;0.0;0.0;0.0;0.0;0.0;0.0;0.0;0.0;0.0
299845000000;155;299845000000;map;31.0733109917;-0.102275849072;0.0;0.0;0.0;-0.00131607175364;0.999999133977;0.00276070771622;0.000328283717918;0.00226169054783;0.0;0.0;0.0;0.0;0.0;0.00105425813347;0.0;0.0;0.0;0.0;0.0;0.0;0.0;0.0;0.0;0.0;0.0;0.0;0.0;0.0;0.0;0.0;0.0;0.0;0.0;0.0;0.0;0.0;0.0;0.0;0.0;0.0;0.0
300350000000;156;300350000000;map;31.2791505191;-0.106456129497;0.0;0.0;0.0;-0.00416438663962;0.999991328904;0.00246692636767;0.000323654439082;0.00252848731448;0.0;0.0;0.0;0.0;0.0;0.00108507615333;0.0;0.0;0.0;0.0;0.0;0.0;0.0;0.0;0.0;0.0;0.0;0.0;0.0;0.0;0.0;0.0;0.0;0.0;0.0;0.0;0.0;0.0;0.0;0.0;0.0;0.0;0.0
300739000000;157;300739000000;map;31.4813576985;-0.106347742738;0.0;0.0;0.0;-0.00363006525989;0.999993411291;0.00231405410705;0.000282808042747;0.00257153005073;0.0;0.0;0.0;0.0;0.0;0.000887268523352;0.0;0.0;0.0;0.0;0.0;0.0;0.0;0.0;0.0;0.0;0.0;0.0;0.0;0.0;0.0;0.0;0.0;0.0;0.0;0.0;0.0;0.0;0.0;0.0;0.0;0.0;0.0
301149000000;158;301149000000;map;31.6774665375;-0.101782947793;0.0;0.0;0.0;-0.00220415108218;0.999997570856;0.00205617075289;0.000383676816911;0.00207881666764;0.0;0.0;0.0;0.0;0.0;0.000794857432422;0.0;0.0;0.0;0.0;0.0;0.0;0.0;0.0;0.0;0.0;0.0;0.0;0.0;0.0;0.0;0.0;0.0;0.0;0.0;0.0;0.0;0.0;0.0;0.0;0.0;0.0;0.0
301539000000;159;301539000000;map;31.8814665246;-0.105550228182;0.0;0.0;0.0;-0.00211850559694;0.999997755965;0.00195641432708;0.000130768291876;0.0020250316031;0.0;0.0;0.0;0.0;0.0;0.000718498131427;0.0;0.0;0.0;0.0;0.0;0.0;0.0;0.0;0.0;0.0;0.0;0.0;0.0;0.0;0.0;0.0;0.0;0.0;0.0;0.0;0.0;0.0;0.0;0.0;0.0;0.0;0.0
301937000000;160;301937000000;map;32.0805198287;-0.106591006055;0.0;0.0;0.0;-0.00358710617366;0.999993566314;0.00216184702413;0.000289167124434;0.00201987270416;0.0;0.0;0.0;0.0;0.0;0.000924497508873;0.0;0.0;0.0;0.0;0.0;0.0;0.0;0.0;0.0;0.0;0.0;0.0;0.0;0.0;0.0;0.0;0.0;0.0;0.0;0.0;0.0;0.0;0.0;0.0;0.0;0.0;0.0
302341000000;161;302341000000;map;32.2876033374;-0.106185169926;0.0;0.0;0.0;-0.00127099509326;0.999999192285;0.0021654481111;0.000168844207779;0.00203959928204;0.0;0.0;0.0;0.0;0.0;0.000776866194981;0.0;0.0;0.0;0.0;0.0;0.0;0.0;0.0;0.0;0.0;0.0;0.0;0.0;0.0;0.0;0.0;0.0;0.0;0.0;0.0;0.0;0.0;0.0;0.0;0.0;0.0;0.0
302738000000;162;302738000000;map;32.4901534144;-0.104427911063;0.0;0.0;0.0;-0.00195083086042;0.999998097128;0.00216559336036;0.000437773290344;0.0019237621779;0.0;0.0;0.0;0.0;0.0;0.00070913860702;0.0;0.0;0.0;0.0;0.0;0.0;0.0;0.0;0.0;0.0;0.0;0.0;0.0;0.0;0.0;0.0;0.0;0.0;0.0;0.0;0.0;0.0;0.0;0.0;0.0;0.0;0.0
303143511925;163;303143511925;map;32.6928024971;-0.0961905114849;0.0;0.0;0.0;-4.79922757698e-05;0.999999998848;0.00209658883045;0.000374928160695;0.00152376202036;0.0;0.0;0.0;0.0;0.0;0.000534080163102;0.0;0.0;0.0;0.0;0.0;0.0;0.0;0.0;0.0;0.0;0.0;0.0;0.0;0.0;0.0;0.0;0.0;0.0;0.0;0.0;0.0;0.0;0.0;0.0;0.0;0.0;0.0
303535000000;164;303535000000;map;32.8941545673;-0.0984880240906;0.0;0.0;0.0;-0.00158757370162;0.999998739804;0.00240284071606;0.000327031829382;0.00160889387978;0.0;0.0;0.0;0.0;0.0;0.00062087632245;0.0;0.0;0.0;0.0;0.0;0.0;0.0;0.0;0.0;0.0;0.0;0.0;0.0;0.0;0.0;0.0;0.0;0.0;0.0;0.0;0.0;0.0;0.0;0.0;0.0;0.0;0.0
303935000000;165;303935000000;map;33.0899172683;-0.0989469393501;0.0;0.0;0.0;-0.00117580252493;0.999999308744;0.00228380136082;0.000392928434402;0.00177546510174;0.0;0.0;0.0;0.0;0.0;0.000634319029159;0.0;0.0;0.0;0.0;0.0;0.0;0.0;0.0;0.0;0.0;0.0;0.0;0.0;0.0;0.0;0.0;0.0;0.0;0.0;0.0;0.0;0.0;0.0;0.0;0.0;0.0;0.0
304347000000;166;304347000000;map;33.2858588983;-0.100622762948;0.0;0.0;0.0;-0.00175245259075;0.999998464454;0.00226329965221;0.000150112285441;0.00118167810385;0.0;0.0;0.0;0.0;0.0;0.000668303955876;0.0;0.0;0.0;0.0;0.0;0.0;0.0;0.0;0.0;0.0;0.0;0.0;0.0;0.0;0.0;0.0;0.0;0.0;0.0;0.0;0.0;0.0;0.0;0.0;0.0;0.0;0.0
304735000000;167;304735000000;map;33.4854611585;-0.106275748255;0.0;0.0;0.0;-0.00303794370328;0.999995385438;0.00207623439246;2.02637366513e-05;0.00123396588634;0.0;0.0;0.0;0.0;0.0;0.000591078383663;0.0;0.0;0.0;0.0;0.0;0.0;0.0;0.0;0.0;0.0;0.0;0.0;0.0;0.0;0.0;0.0;0.0;0.0;0.0;0.0;0.0;0.0;0.0;0.0;0.0;0.0;0.0
305141000000;168;305141000000;map;33.6913371134;-0.108665285288;0.0;0.0;0.0;-0.0032665609564;0.999994664776;0.00238611859027;6.14779559127e-05;0.00123617394806;0.0;0.0;0.0;0.0;0.0;0.000537480860356;0.0;0.0;0.0;0.0;0.0;0.0;0.0;0.0;0.0;0.0;0.0;0.0;0.0;0.0;0.0;0.0;0.0;0.0;0.0;0.0;0.0;0.0;0.0;0.0;0.0;0.0;0.0
305536000000;169;305536000000;map;33.8918179649;-0.111612105505;0.0;0.0;0.0;-0.00391122364466;0.999992351136;0.00252447771231;-0.000191432412826;0.0014535085491;0.0;0.0;0.0;0.0;0.0;0.000390002872574;0.0;0.0;0.0;0.0;0.0;0.0;0.0;0.0;0.0;0.0;0.0;0.0;0.0;0.0;0.0;0.0;0.0;0.0;0.0;0.0;0.0;0.0;0.0;0.0;0.0;0.0;0.0
305943735550;170;305943735550;map;34.0945153966;-0.112441168142;0.0;0.0;0.0;-0.00182308423161;0.999998338181;0.00245288029487;-0.00015184026497;0.00172556369172;0.0;0.0;0.0;0.0;0.0;0.000507665520293;0.0;0.0;0.0;0.0;0.0;0.0;0.0;0.0;0.0;0.0;0.0;0.0;0.0;0.0;0.0;0.0;0.0;0.0;0.0;0.0;0.0;0.0;0.0;0.0;0.0;0.0;0.0
306349755063;171;306349755063;map;34.2997737169;-0.113389960657;0.0;0.0;0.0;-0.00405545482456;0.999991776609;0.00223466739703;-0.000266529721833;0.00167445028483;0.0;0.0;0.0;0.0;0.0;0.000468018748603;0.0;0.0;0.0;0.0;0.0;0.0;0.0;0.0;0.0;0.0;0.0;0.0;0.0;0.0;0.0;0.0;0.0;0.0;0.0;0.0;0.0;0.0;0.0;0.0;0.0;0.0;0.0
306844776687;172;306844776687;map;34.5129620413;-0.113295794408;0.0;0.0;0.0;-0.00381933570184;0.999992706311;0.00186078975162;-0.000102635823175;0.00182381853877;0.0;0.0;0.0;0.0;0.0;0.000656932829322;0.0;0.0;0.0;0.0;0.0;0.0;0.0;0.0;0.0;0.0;0.0;0.0;0.0;0.0;0.0;0.0;0.0;0.0;0.0;0.0;0.0;0.0;0.0;0.0;0.0;0.0;0.0
307250000000;173;307250000000;map;34.7179299254;-0.109341449373;0.0;0.0;0.0;-0.00273707145028;0.999996254213;0.00156558027243;-8.1515387901e-05;0.00204991552914;0.0;0.0;0.0;0.0;0.0;0.000626491924347;0.0;0.0;0.0;0.0;0.0;0.0;0.0;0.0;0.0;0.0;0.0;0.0;0.0;0.0;0.0;0.0;0.0;0.0;0.0;0.0;0.0;0.0;0.0;0.0;0.0;0.0;0.0
307642000000;174;307642000000;map;34.9239906493;-0.108440636359;0.0;0.0;0.0;-0.00272889857369;0.999996276549;0.00169416735434;-0.000328502856482;0.00214924409573;0.0;0.0;0.0;0.0;0.0;0.000713814010681;0.0;0.0;0.0;0.0;0.0;0.0;0.0;0.0;0.0;0.0;0.0;0.0;0.0;0.0;0.0;0.0;0.0;0.0;0.0;0.0;0.0;0.0;0.0;0.0;0.0;0.0;0.0
308044000000;175;308044000000;map;35.1263174645;-0.109748186782;0.0;0.0;0.0;-0.00361940872346;0.999993449919;0.00136173351552;-0.000200263888613;0.00235515618247;0.0;0.0;0.0;0.0;0.0;0.000762918026239;0.0;0.0;0.0;0.0;0.0;0.0;0.0;0.0;0.0;0.0;0.0;0.0;0.0;0.0;0.0;0.0;0.0;0.0;0.0;0.0;0.0;0.0;0.0;0.0;0.0;0.0;0.0
308444000000;176;308444000000;map;35.3416476689;-0.11660422374;0.0;0.0;0.0;-0.00479135202773;0.999988521407;0.000760129182936;0.000284743196701;0.00263255992581;0.0;0.0;0.0;0.0;0.0;0.00131181300287;0.0;0.0;0.0;0.0;0.0;0.0;0.0;0.0;0.0;0.0;0.0;0.0;0.0;0.0;0.0;0.0;0.0;0.0;0.0;0.0;0.0;0.0;0.0;0.0;0.0;0.0;0.0
308839000000;177;308839000000;map;35.5438906284;-0.1169666794;0.0;0.0;0.0;-0.00481768131365;0.999988394906;0.000454229681964;0.000274475155478;0.0020835088523;0.0;0.0;0.0;0.0;0.0;0.00112387040384;0.0;0.0;0.0;0.0;0.0;0.0;0.0;0.0;0.0;0.0;0.0;0.0;0.0;0.0;0.0;0.0;0.0;0.0;0.0;0.0;0.0;0.0;0.0;0.0;0.0;0.0;0.0
310342000000;178;310342000000;map;35.7379473853;-0.113869212984;0.0;0.0;0.0;0.120067520575;0.992765727905;0.000336717131859;0.000279156768266;0.00228536032249;0.0;0.0;0.0;0.0;0.0;0.0013644993778;0.0;0.0;0.0;0.0;0.0;0.0;0.0;0.0;0.0;0.0;0.0;0.0;0.0;0.0;0.0;0.0;0.0;0.0;0.0;0.0;0.0;0.0;0.0;0.0;0.0;0.0;0.0
311447000000;179;311447000000;map;35.7364957316;-0.116674846417;0.0;0.0;0.0;0.245311930252;0.969444199981;0.000272846770486;0.000194336539217;0.00240742139511;0.0;0.0;0.0;0.0;0.0;0.00140458243329;0.0;0.0;0.0;0.0;0.0;0.0;0.0;0.0;0.0;0.0;0.0;0.0;0.0;0.0;0.0;0.0;0.0;0.0;0.0;0.0;0.0;0.0;0.0;0.0;0.0;0.0;0.0
312544866790;180;312544866790;map;35.7355896076;-0.108146521363;0.0;0.0;0.0;0.366938614574;0.930245157544;0.000311354525593;0.000194692722815;0.00143980051755;0.0;0.0;0.0;0.0;0.0;0.00112604299698;0.0;0.0;0.0;0.0;0.0;0.0;0.0;0.0;0.0;0.0;0.0;0.0;0.0;0.0;0.0;0.0;0.0;0.0;0.0;0.0;0.0;0.0;0.0;0.0;0.0;0.0;0.0
313646211537;181;313646211537;map;35.7345671881;-0.108565497739;0.0;0.0;0.0;0.480832644903;0.876812390193;0.000328410624888;0.000191016011005;0.00165589745575;0.0;0.0;0.0;0.0;0.0;0.00133500754571;0.0;0.0;0.0;0.0;0.0;0.0;0.0;0.0;0.0;0.0;0.0;0.0;0.0;0.0;0.0;0.0;0.0;0.0;0.0;0.0;0.0;0.0;0.0;0.0;0.0;0.0;0.0
314748000000;182;314748000000;map;35.7337958988;-0.105748816381;0.0;0.0;0.0;0.588846202295;0.808245105177;0.00033857780204;0.000224577626522;0.00142476832535;0.0;0.0;0.0;0.0;0.0;0.00115391253073;0.0;0.0;0.0;0.0;0.0;0.0;0.0;0.0;0.0;0.0;0.0;0.0;0.0;0.0;0.0;0.0;0.0;0.0;0.0;0.0;0.0;0.0;0.0;0.0;0.0;0.0;0.0
315844000000;183;315844000000;map;35.7324425231;-0.10639453398;0.0;0.0;0.0;0.685064336075;0.728482570442;0.000248043766078;0.000155445317441;0.00137480307974;0.0;0.0;0.0;0.0;0.0;0.00128639696025;0.0;0.0;0.0;0.0;0.0;0.0;0.0;0.0;0.0;0.0;0.0;0.0;0.0;0.0;0.0;0.0;0.0;0.0;0.0;0.0;0.0;0.0;0.0;0.0;0.0;0.0;0.0
317148000000;184;317148000000;map;35.7167976513;0.105414195381;0.0;0.0;0.0;0.734548590938;0.678556090203;0.000306314899035;0.000123923684761;0.00104194355107;0.0;0.0;0.0;0.0;0.0;0.00116860211191;0.0;0.0;0.0;0.0;0.0;0.0;0.0;0.0;0.0;0.0;0.0;0.0;0.0;0.0;0.0;0.0;0.0;0.0;0.0;0.0;0.0;0.0;0.0;0.0;0.0;0.0;0.0
317551000000;185;317551000000;map;35.7022425654;0.306216597968;0.0;0.0;0.0;0.735213401344;0.677835713491;0.000419362514322;0.000125790538155;0.000849118915633;0.0;0.0;0.0;0.0;0.0;0.000839154112877;0.0;0.0;0.0;0.0;0.0;0.0;0.0;0.0;0.0;0.0;0.0;0.0;0.0;0.0;0.0;0.0;0.0;0.0;0.0;0.0;0.0;0.0;0.0;0.0;0.0;0.0;0.0
317945401902;186;317945401902;map;35.6890343574;0.506483311645;0.0;0.0;0.0;0.73387996037;0.679279179548;0.000444538125976;6.74036255397e-05;0.000816589119998;0.0;0.0;0.0;0.0;0.0;0.000713630800884;0.0;0.0;0.0;0.0;0.0;0.0;0.0;0.0;0.0;0.0;0.0;0.0;0.0;0.0;0.0;0.0;0.0;0.0;0.0;0.0;0.0;0.0;0.0;0.0;0.0;0.0;0.0
318346000000;187;318346000000;map;35.6747770325;0.707186099882;0.0;0.0;0.0;0.732344604436;0.680934196786;0.000490364586085;1.70016591277e-05;0.000948004937868;0.0;0.0;0.0;0.0;0.0;0.000644653869629;0.0;0.0;0.0;0.0;0.0;0.0;0.0;0.0;0.0;0.0;0.0;0.0;0.0;0.0;0.0;0.0;0.0;0.0;0.0;0.0;0.0;0.0;0.0;0.0;0.0;0.0;0.0
318748000000;188;318748000000;map;35.6622572258;0.913341450275;0.0;0.0;0.0;0.731699140637;0.681627733878;0.00066663074017;0.000121429594223;0.000767127606445;0.0;0.0;0.0;0.0;0.0;0.000622525442676;0.0;0.0;0.0;0.0;0.0;0.0;0.0;0.0;0.0;0.0;0.0;0.0;0.0;0.0;0.0;0.0;0.0;0.0;0.0;0.0;0.0;0.0;0.0;0.0;0.0;0.0;0.0
319242000000;189;319242000000;map;35.6503444645;1.11933458145;0.0;0.0;0.0;0.730380470104;0.683040532393;0.000722748618728;-2.35972882479e-05;0.000774452008961;0.0;0.0;0.0;0.0;0.0;0.00065554827711;0.0;0.0;0.0;0.0;0.0;0.0;0.0;0.0;0.0;0.0;0.0;0.0;0.0;0.0;0.0;0.0;0.0;0.0;0.0;0.0;0.0;0.0;0.0;0.0;0.0;0.0;0.0
319645000000;190;319645000000;map;35.6349888985;1.32067520631;0.0;0.0;0.0;0.730205506439;0.68322757436;0.000866046299961;4.64008180359e-05;0.000979685446991;0.0;0.0;0.0;0.0;0.0;0.000588404750676;0.0;0.0;0.0;0.0;0.0;0.0;0.0;0.0;0.0;0.0;0.0;0.0;0.0;0.0;0.0;0.0;0.0;0.0;0.0;0.0;0.0;0.0;0.0;0.0;0.0;0.0;0.0
319942000000;191;319942000000;map;35.6236045992;1.52451252938;0.0;0.0;0.0;0.730068122693;0.683374374869;0.00103584412409;0.000102822769861;0.00103585060894;0.0;0.0;0.0;0.0;0.0;0.000600048443626;0.0;0.0;0.0;0.0;0.0;0.0;0.0;0.0;0.0;0.0;0.0;0.0;0.0;0.0;0.0;0.0;0.0;0.0;0.0;0.0;0.0;0.0;0.0;0.0;0.0;0.0;0.0
320444000000;192;320444000000;map;35.6089780995;1.73329212942;0.0;0.0;0.0;0.729533837968;0.683944719447;0.00128126642085;0.000106572239631;0.000791148391066;0.0;0.0;0.0;0.0;0.0;0.000643133953858;0.0;0.0;0.0;0.0;0.0;0.0;0.0;0.0;0.0;0.0;0.0;0.0;0.0;0.0;0.0;0.0;0.0;0.0;0.0;0.0;0.0;0.0;0.0;0.0;0.0;0.0;0.0
320842000000;193;320842000000;map;35.5990673564;1.92901147313;0.0;0.0;0.0;0.729007163158;0.684506067223;0.00138967115413;0.000307735176619;0.000828651697928;0.0;0.0;0.0;0.0;0.0;0.000613837085874;0.0;0.0;0.0;0.0;0.0;0.0;0.0;0.0;0.0;0.0;0.0;0.0;0.0;0.0;0.0;0.0;0.0;0.0;0.0;0.0;0.0;0.0;0.0;0.0;0.0;0.0;0.0
322650000000;194;322650000000;map;35.5937986178;2.13554496022;0.0;0.0;0.0;0.697327351226;0.716752792274;0.0015698145578;0.000412513066792;0.000668253661748;0.0;0.0;0.0;0.0;0.0;0.000665820760356;0.0;0.0;0.0;0.0;0.0;0.0;0.0;0.0;0.0;0.0;0.0;0.0;0.0;0.0;0.0;0.0;0.0;0.0;0.0;0.0;0.0;0.0;0.0;0.0;0.0;0.0;0.0
323047000000;195;323047000000;map;35.5962908894;2.33744672463;0.0;0.0;0.0;0.698221649949;0.715881643529;0.00185244311638;0.000181522724731;0.000614170728408;0.0;0.0;0.0;0.0;0.0;0.000762214606427;0.0;0.0;0.0;0.0;0.0;0.0;0.0;0.0;0.0;0.0;0.0;0.0;0.0;0.0;0.0;0.0;0.0;0.0;0.0;0.0;0.0;0.0;0.0;0.0;0.0;0.0;0.0
323451000000;196;323451000000;map;35.6051042317;2.54027640313;0.0;0.0;0.0;0.697540998177;0.716544873586;0.00187862435473;0.000211027408184;0.000603743494981;0.0;0.0;0.0;0.0;0.0;0.000771318975877;0.0;0.0;0.0;0.0;0.0;0.0;0.0;0.0;0.0;0.0;0.0;0.0;0.0;0.0;0.0;0.0;0.0;0.0;0.0;0.0;0.0;0.0;0.0;0.0;0.0;0.0;0.0
323855000000;197;323855000000;map;35.611725848;2.74391943911;0.0;0.0;0.0;0.698815279367;0.715302177631;0.00208756154939;0.000227473455581;0.000498324052176;0.0;0.0;0.0;0.0;0.0;0.000645737467571;0.0;0.0;0.0;0.0;0.0;0.0;0.0;0.0;0.0;0.0;0.0;0.0;0.0;0.0;0.0;0.0;0.0;0.0;0.0;0.0;0.0;0.0;0.0;0.0;0.0;0.0;0.0
324253000000;198;324253000000;map;35.617543722;2.94497686257;0.0;0.0;0.0;0.698340206266;0.715765992705;0.00210865034978;0.000230378348689;0.000519715476848;0.0;0.0;0.0;0.0;0.0;0.000731059934254;0.0;0.0;0.0;0.0;0.0;0.0;0.0;0.0;0.0;0.0;0.0;0.0;0.0;0.0;0.0;0.0;0.0;0.0;0.0;0.0;0.0;0.0;0.0;0.0;0.0;0.0;0.0
324750000000;199;324750000000;map;35.6229180526;3.15358549536;0.0;0.0;0.0;0.697702227683;0.716387884798;0.00204544610028;0.000202176805345;0.000579182432968;0.0;0.0;0.0;0.0;0.0;0.000783435843198;0.0;0.0;0.0;0.0;0.0;0.0;0.0;0.0;0.0;0.0;0.0;0.0;0.0;0.0;0.0;0.0;0.0;0.0;0.0;0.0;0.0;0.0;0.0;0.0;0.0;0.0;0.0
325152000000;200;325152000000;map;35.6294710731;3.35588567847;0.0;0.0;0.0;0.698800638564;0.715316480687;0.00159248447562;6.48837517474e-05;0.000563807661528;0.0;0.0;0.0;0.0;0.0;0.000698600415638;0.0;0.0;0.0;0.0;0.0;0.0;0.0;0.0;0.0;0.0;0.0;0.0;0.0;0.0;0.0;0.0;0.0;0.0;0.0;0.0;0.0;0.0;0.0;0.0;0.0;0.0;0.0
325548000000;201;325548000000;map;35.6348942655;3.55556472099;0.0;0.0;0.0;0.699038199829;0.715084327321;0.00176700419524;8.70599522784e-05;0.000619760755756;0.0;0.0;0.0;0.0;0.0;0.000642078191261;0.0;0.0;0.0;0.0;0.0;0.0;0.0;0.0;0.0;0.0;0.0;0.0;0.0;0.0;0.0;0.0;0.0;0.0;0.0;0.0;0.0;0.0;0.0;0.0;0.0;0.0;0.0
325952000000;202;325952000000;map;35.634561514;3.75725264595;0.0;0.0;0.0;0.699577604938;0.714556628035;0.00193282246937;-1.11632766959e-05;0.000538318791675;0.0;0.0;0.0;0.0;0.0;0.000582355539898;0.0;0.0;0.0;0.0;0.0;0.0;0.0;0.0;0.0;0.0;0.0;0.0;0.0;0.0;0.0;0.0;0.0;0.0;0.0;0.0;0.0;0.0;0.0;0.0;0.0;0.0;0.0
326345000000;203;326345000000;map;35.6405782408;3.95605883275;0.0;0.0;0.0;0.699447030516;0.714684441906;0.00188937059352;-4.17529815593e-05;0.000586153715492;0.0;0.0;0.0;0.0;0.0;0.000578747552055;0.0;0.0;0.0;0.0;0.0;0.0;0.0;0.0;0.0;0.0;0.0;0.0;0.0;0.0;0.0;0.0;0.0;0.0;0.0;0.0;0.0;0.0;0.0;0.0;0.0;0.0;0.0
326751000000;204;326751000000;map;35.6412873441;4.15657365418;0.0;0.0;0.0;0.700352660129;0.713796995966;0.00119345486473;2.01494778196e-05;0.000407538023584;0.0;0.0;0.0;0.0;0.0;0.000620519518578;0.0;0.0;0.0;0.0;0.0;0.0;0.0;0.0;0.0;0.0;0.0;0.0;0.0;0.0;0.0;0.0;0.0;0.0;0.0;0.0;0.0;0.0;0.0;0.0;0.0;0.0;0.0
327145000000;205;327145000000;map;35.6486164052;4.35460736547;0.0;0.0;0.0;0.701268767069;0.712896988585;0.00135157503291;6.83231693017e-05;0.000511957621452;0.0;0.0;0.0;0.0;0.0;0.000532147248635;0.0;0.0;0.0;0.0;0.0;0.0;0.0;0.0;0.0;0.0;0.0;0.0;0.0;0.0;0.0;0.0;0.0;0.0;0.0;0.0;0.0;0.0;0.0;0.0;0.0;0.0;0.0
327546000000;206;327546000000;map;35.6553496764;4.55550237231;0.0;0.0;0.0;0.700618452382;0.713536112739;0.00167085148837;9.35733071117e-05;0.000449337986399;0.0;0.0;0.0;0.0;0.0;0.000648300983677;0.0;0.0;0.0;0.0;0.0;0.0;0.0;0.0;0.0;0.0;0.0;0.0;0.0;0.0;0.0;0.0;0.0;0.0;0.0;0.0;0.0;0.0;0.0;0.0;0.0;0.0;0.0
327947000000;207;327947000000;map;35.6663913607;4.75594741503;0.0;0.0;0.0;0.699716106986;0.714421003068;0.00215131541836;0.000150575574025;0.000336710676518;0.0;0.0;0.0;0.0;0.0;0.000752290396577;0.0;0.0;0.0;0.0;0.0;0.0;0.0;0.0;0.0;0.0;0.0;0.0;0.0;0.0;0.0;0.0;0.0;0.0;0.0;0.0;0.0;0.0;0.0;0.0;0.0;0.0;0.0
328345000000;208;328345000000;map;35.6747626589;4.95776957995;0.0;0.0;0.0;0.700111463385;0.714033569825;0.00242535003736;0.000171079115688;0.000253952989038;0.0;0.0;0.0;0.0;0.0;0.00079765952606;0.0;0.0;0.0;0.0;0.0;0.0;0.0;0.0;0.0;0.0;0.0;0.0;0.0;0.0;0.0;0.0;0.0;0.0;0.0;0.0;0.0;0.0;0.0;0.0;0.0;0.0;0.0
328749000000;209;328749000000;map;35.6753560416;5.15719341588;0.0;0.0;0.0;0.70073761751;0.713419085395;0.00239488322291;0.000172159022156;0.000125188921114;0.0;0.0;0.0;0.0;0.0;0.000707029856025;0.0;0.0;0.0;0.0;0.0;0.0;0.0;0.0;0.0;0.0;0.0;0.0;0.0;0.0;0.0;0.0;0.0;0.0;0.0;0.0;0.0;0.0;0.0;0.0;0.0;0.0;0.0
329146000000;210;329146000000;map;35.6801696837;5.36061344825;0.0;0.0;0.0;0.701685854412;0.712486464235;0.00234722258028;0.000191692971782;0.000138254562255;0.0;0.0;0.0;0.0;0.0;0.000520915392242;0.0;0.0;0.0;0.0;0.0;0.0;0.0;0.0;0.0;0.0;0.0;0.0;0.0;0.0;0.0;0.0;0.0;0.0;0.0;0.0;0.0;0.0;0.0;0.0;0.0;0.0;0.0
329543000000;211;329543000000;map;35.6823786549;5.55932124432;0.0;0.0;0.0;0.702677874843;0.711508119565;0.00235901820201;0.00021790978127;0.000167493306527;0.0;0.0;0.0;0.0;0.0;0.000605518360026;0.0;0.0;0.0;0.0;0.0;0.0;0.0;0.0;0.0;0.0;0.0;0.0;0.0;0.0;0.0;0.0;0.0;0.0;0.0;0.0;0.0;0.0;0.0;0.0;0.0;0.0;0.0
329947000000;212;329947000000;map;35.6962052142;5.76149211112;0.0;0.0;0.0;0.701187328021;0.712977090111;0.0022472596504;0.000160218714058;0.000127698927258;0.0;0.0;0.0;0.0;0.0;0.000480474223706;0.0;0.0;0.0;0.0;0.0;0.0;0.0;0.0;0.0;0.0;0.0;0.0;0.0;0.0;0.0;0.0;0.0;0.0;0.0;0.0;0.0;0.0;0.0;0.0;0.0;0.0;0.0
330343819937;213;330343819937;map;35.6928689129;5.96427896804;0.0;0.0;0.0;0.702020106238;0.712157124824;0.00209844977303;0.000135879014863;0.000140116178656;0.0;0.0;0.0;0.0;0.0;0.00056362686124;0.0;0.0;0.0;0.0;0.0;0.0;0.0;0.0;0.0;0.0;0.0;0.0;0.0;0.0;0.0;0.0;0.0;0.0;0.0;0.0;0.0;0.0;0.0;0.0;0.0;0.0;0.0
330747000000;214;330747000000;map;35.7063332865;6.17442890624;0.0;0.0;0.0;0.700381250863;0.713768942613;0.00187596206933;6.55035663897e-05;0.000100530808133;0.0;0.0;0.0;0.0;0.0;0.000406699671996;0.0;0.0;0.0;0.0;0.0;0.0;0.0;0.0;0.0;0.0;0.0;0.0;0.0;0.0;0.0;0.0;0.0;0.0;0.0;0.0;0.0;0.0;0.0;0.0;0.0;0.0;0.0
331144400544;215;331144400544;map;35.709152404;6.37488716882;0.0;0.0;0.0;0.700924538605;0.713235438815;0.0018061566534;0.000124391721386;9.15268775685e-05;0.0;0.0;0.0;0.0;0.0;0.000641075043137;0.0;0.0;0.0;0.0;0.0;0.0;0.0;0.0;0.0;0.0;0.0;0.0;0.0;0.0;0.0;0.0;0.0;0.0;0.0;0.0;0.0;0.0;0.0;0.0;0.0;0.0;0.0
331549000000;216;331549000000;map;35.7122459149;6.57582215997;0.0;0.0;0.0;0.700712136963;0.713444112116;0.00240766666434;0.000168924830945;0.000101628946496;0.0;0.0;0.0;0.0;0.0;0.000379163519836;0.0;0.0;0.0;0.0;0.0;0.0;0.0;0.0;0.0;0.0;0.0;0.0;0.0;0.0;0.0;0.0;0.0;0.0;0.0;0.0;0.0;0.0;0.0;0.0;0.0;0.0;0.0
331946000000;217;331946000000;map;35.7129690562;6.786966599;0.0;0.0;0.0;0.701402929396;0.712764989765;0.00203833102023;0.000198547813454;0.000110714467361;0.0;0.0;0.0;0.0;0.0;0.00041340631138;0.0;0.0;0.0;0.0;0.0;0.0;0.0;0.0;0.0;0.0;0.0;0.0;0.0;0.0;0.0;0.0;0.0;0.0;0.0;0.0;0.0;0.0;0.0;0.0;0.0;0.0;0.0
332347000000;218;332347000000;map;35.7192865673;6.99626332395;0.0;0.0;0.0;0.699932099504;0.714209392324;0.00198754254438;0.000201191293627;0.000106619632746;0.0;0.0;0.0;0.0;0.0;0.000391414357089;0.0;0.0;0.0;0.0;0.0;0.0;0.0;0.0;0.0;0.0;0.0;0.0;0.0;0.0;0.0;0.0;0.0;0.0;0.0;0.0;0.0;0.0;0.0;0.0;0.0;0.0;0.0
332753000000;219;332753000000;map;35.7235009636;7.19825209939;0.0;0.0;0.0;0.69801683692;0.716081346898;0.00156759150036;7.3646810165e-05;9.02009668096e-05;0.0;0.0;0.0;0.0;0.0;0.000372630571993;0.0;0.0;0.0;0.0;0.0;0.0;0.0;0.0;0.0;0.0;0.0;0.0;0.0;0.0;0.0;0.0;0.0;0.0;0.0;0.0;0.0;0.0;0.0;0.0;0.0;0.0;0.0
333163000000;220;333163000000;map;35.7301832928;7.398944066;0.0;0.0;0.0;0.69769279324;0.716397073041;0.00139941618636;7.94125460288e-05;9.55256030082e-05;0.0;0.0;0.0;0.0;0.0;0.000308126761232;0.0;0.0;0.0;0.0;0.0;0.0;0.0;0.0;0.0;0.0;0.0;0.0;0.0;0.0;0.0;0.0;0.0;0.0;0.0;0.0;0.0;0.0;0.0;0.0;0.0;0.0;0.0
333662000000;221;333662000000;map;35.7398026742;7.60444927295;0.0;0.0;0.0;0.698759682561;0.715356488771;0.00127578442084;3.85259283462e-05;8.32808598403e-05;0.0;0.0;0.0;0.0;0.0;0.000438410823673;0.0;0.0;0.0;0.0;0.0;0.0;0.0;0.0;0.0;0.0;0.0;0.0;0.0;0.0;0.0;0.0;0.0;0.0;0.0;0.0;0.0;0.0;0.0;0.0;0.0;0.0;0.0
334060000000;222;334060000000;map;35.746933494;7.81543330756;0.0;0.0;0.0;0.698386975126;0.71572035948;0.0015909412582;4.88566507215e-05;8.70541023019e-05;0.0;0.0;0.0;0.0;0.0;0.000413242217125;0.0;0.0;0.0;0.0;0.0;0.0;0.0;0.0;0.0;0.0;0.0;0.0;0.0;0.0;0.0;0.0;0.0;0.0;0.0;0.0;0.0;0.0;0.0;0.0;0.0;0.0;0.0
334461000000;223;334461000000;map;35.7510140213;8.01611380406;0.0;0.0;0.0;0.697819848603;0.716273312986;0.00145265567608;4.63353319446e-05;9.23189371065e-05;0.0;0.0;0.0;0.0;0.0;0.000334898400759;0.0;0.0;0.0;0.0;0.0;0.0;0.0;0.0;0.0;0.0;0.0;0.0;0.0;0.0;0.0;0.0;0.0;0.0;0.0;0.0;0.0;0.0;0.0;0.0;0.0;0.0;0.0
334863000000;224;334863000000;map;35.7594420438;8.21940497661;0.0;0.0;0.0;0.697965298298;0.716131581744;0.00162763815229;6.78538521015e-05;9.16123607908e-05;0.0;0.0;0.0;0.0;0.0;0.000313461815986;0.0;0.0;0.0;0.0;0.0;0.0;0.0;0.0;0.0;0.0;0.0;0.0;0.0;0.0;0.0;0.0;0.0;0.0;0.0;0.0;0.0;0.0;0.0;0.0;0.0;0.0;0.0
335260000000;225;335260000000;map;35.7631936313;8.41997649325;0.0;0.0;0.0;0.69657189742;0.717486997599;0.00155683757771;7.32040613798e-05;0.000102346807154;0.0;0.0;0.0;0.0;0.0;0.000404680285349;0.0;0.0;0.0;0.0;0.0;0.0;0.0;0.0;0.0;0.0;0.0;0.0;0.0;0.0;0.0;0.0;0.0;0.0;0.0;0.0;0.0;0.0;0.0;0.0;0.0;0.0;0.0
335662000000;226;335662000000;map;35.7691370463;8.62337180226;0.0;0.0;0.0;0.696406584321;0.717647454754;0.0015540200834;7.10478330461e-05;0.000112220930873;0.0;0.0;0.0;0.0;0.0;0.000474863932061;0.0;0.0;0.0;0.0;0.0;0.0;0.0;0.0;0.0;0.0;0.0;0.0;0.0;0.0;0.0;0.0;0.0;0.0;0.0;0.0;0.0;0.0;0.0;0.0;0.0;0.0;0.0
336061537297;227;336061537297;map;35.7706855997;8.82232312178;0.0;0.0;0.0;0.695667488934;0.718363936205;0.0013679911001;2.4615940788e-05;0.000116952133467;0.0;0.0;0.0;0.0;0.0;0.000433546527088;0.0;0.0;0.0;0.0;0.0;0.0;0.0;0.0;0.0;0.0;0.0;0.0;0.0;0.0;0.0;0.0;0.0;0.0;0.0;0.0;0.0;0.0;0.0;0.0;0.0;0.0;0.0
336462000000;228;336462000000;map;35.7719745489;9.02405053316;0.0;0.0;0.0;0.695370073606;0.718651835546;0.00125805171751;1.65700492971e-05;0.000108127514252;0.0;0.0;0.0;0.0;0.0;0.000429787407407;0.0;0.0;0.0;0.0;0.0;0.0;0.0;0.0;0.0;0.0;0.0;0.0;0.0;0.0;0.0;0.0;0.0;0.0;0.0;0.0;0.0;0.0;0.0;0.0;0.0;0.0;0.0
336862000000;229;336862000000;map;35.7795278166;9.22447543795;0.0;0.0;0.0;0.696475569005;0.717580505434;0.00125379018687;-7.47041889326e-06;9.34329957403e-05;0.0;0.0;0.0;0.0;0.0;0.000298773899032;0.0;0.0;0.0;0.0;0.0;0.0;0.0;0.0;0.0;0.0;0.0;0.0;0.0;0.0;0.0;0.0;0.0;0.0;0.0;0.0;0.0;0.0;0.0;0.0;0.0;0.0;0.0
337261000000;230;337261000000;map;35.783634888;9.43301399815;0.0;0.0;0.0;0.697409903744;0.71667246784;0.00135591543449;-2.40168857886e-05;9.76318859642e-05;0.0;0.0;0.0;0.0;0.0;0.000276542259203;0.0;0.0;0.0;0.0;0.0;0.0;0.0;0.0;0.0;0.0;0.0;0.0;0.0;0.0;0.0;0.0;0.0;0.0;0.0;0.0;0.0;0.0;0.0;0.0;0.0;0.0;0.0
337661000000;231;337661000000;map;35.7787773442;9.63366345571;0.0;0.0;0.0;0.697767900753;0.716323918824;0.00135156575789;-3.3474565555e-05;0.000110824480487;0.0;0.0;0.0;0.0;0.0;0.00039284715758;0.0;0.0;0.0;0.0;0.0;0.0;0.0;0.0;0.0;0.0;0.0;0.0;0.0;0.0;0.0;0.0;0.0;0.0;0.0;0.0;0.0;0.0;0.0;0.0;0.0;0.0;0.0
338060000000;232;338060000000;map;35.7895996479;9.84409996076;0.0;0.0;0.0;0.698719158392;0.715396070507;0.00148996578741;-8.26749217708e-05;9.54018472896e-05;0.0;0.0;0.0;0.0;0.0;0.000473944582395;0.0;0.0;0.0;0.0;0.0;0.0;0.0;0.0;0.0;0.0;0.0;0.0;0.0;0.0;0.0;0.0;0.0;0.0;0.0;0.0;0.0;0.0;0.0;0.0;0.0;0.0;0.0
338461000000;233;338461000000;map;35.7997152003;10.044527193;0.0;0.0;0.0;0.69832717678;0.715778704748;0.00145526235428;-9.22963408243e-05;8.90984440645e-05;0.0;0.0;0.0;0.0;0.0;0.000427971697967;0.0;0.0;0.0;0.0;0.0;0.0;0.0;0.0;0.0;0.0;0.0;0.0;0.0;0.0;0.0;0.0;0.0;0.0;0.0;0.0;0.0;0.0;0.0;0.0;0.0;0.0;0.0
338863000000;234;338863000000;map;35.8032999166;10.2446877262;0.0;0.0;0.0;0.698503360991;0.715606773783;0.00146534975352;-0.000117555115025;0.000104987950095;0.0;0.0;0.0;0.0;0.0;0.000443259521932;0.0;0.0;0.0;0.0;0.0;0.0;0.0;0.0;0.0;0.0;0.0;0.0;0.0;0.0;0.0;0.0;0.0;0.0;0.0;0.0;0.0;0.0;0.0;0.0;0.0;0.0;0.0
339262000000;235;339262000000;map;35.8076714657;10.4470858881;0.0;0.0;0.0;0.699153233359;0.714971856987;0.00153135310416;-9.01536574247e-05;0.00011186564906;0.0;0.0;0.0;0.0;0.0;0.000427928122151;0.0;0.0;0.0;0.0;0.0;0.0;0.0;0.0;0.0;0.0;0.0;0.0;0.0;0.0;0.0;0.0;0.0;0.0;0.0;0.0;0.0;0.0;0.0;0.0;0.0;0.0;0.0
339659000000;236;339659000000;map;35.8031228548;10.6486681363;0.0;0.0;0.0;0.698939695211;0.715180608279;0.00149506064008;-0.000115504763983;8.76295060976e-05;0.0;0.0;0.0;0.0;0.0;0.000523851725241;0.0;0.0;0.0;0.0;0.0;0.0;0.0;0.0;0.0;0.0;0.0;0.0;0.0;0.0;0.0;0.0;0.0;0.0;0.0;0.0;0.0;0.0;0.0;0.0;0.0;0.0;0.0
340061000000;237;340061000000;map;35.8048795183;10.8538885637;0.0;0.0;0.0;0.699758769708;0.714379215975;0.00153952257369;-0.000185067926168;0.000107179334293;0.0;0.0;0.0;0.0;0.0;0.000511088010074;0.0;0.0;0.0;0.0;0.0;0.0;0.0;0.0;0.0;0.0;0.0;0.0;0.0;0.0;0.0;0.0;0.0;0.0;0.0;0.0;0.0;0.0;0.0;0.0;0.0;0.0;0.0
340463000000;238;340463000000;map;35.8114623984;11.053516747;0.0;0.0;0.0;0.699695902241;0.714440791379;0.00161782613282;-0.000160094361775;0.000102490284846;0.0;0.0;0.0;0.0;0.0;0.000514427362048;0.0;0.0;0.0;0.0;0.0;0.0;0.0;0.0;0.0;0.0;0.0;0.0;0.0;0.0;0.0;0.0;0.0;0.0;0.0;0.0;0.0;0.0;0.0;0.0;0.0;0.0;0.0
340862319987;239;340862319987;map;35.8165389441;11.2565705088;0.0;0.0;0.0;0.699878729191;0.714261691837;0.00162558364991;-0.000193961199898;0.000111801720593;0.0;0.0;0.0;0.0;0.0;0.000457653854893;0.0;0.0;0.0;0.0;0.0;0.0;0.0;0.0;0.0;0.0;0.0;0.0;0.0;0.0;0.0;0.0;0.0;0.0;0.0;0.0;0.0;0.0;0.0;0.0;0.0;0.0;0.0
341262000000;240;341262000000;map;35.8234206064;11.4589118614;0.0;0.0;0.0;0.700642761596;0.713512242799;0.00166837018696;-0.000181998609378;0.000135775975025;0.0;0.0;0.0;0.0;0.0;0.000600557893334;0.0;0.0;0.0;0.0;0.0;0.0;0.0;0.0;0.0;0.0;0.0;0.0;0.0;0.0;0.0;0.0;0.0;0.0;0.0;0.0;0.0;0.0;0.0;0.0;0.0;0.0;0.0
341660683541;241;341660683541;map;35.8274654626;11.6615817701;0.0;0.0;0.0;0.700664334793;0.713491058072;0.00175614293994;-0.000141984533457;0.000138269522296;0.0;0.0;0.0;0.0;0.0;0.00061482653091;0.0;0.0;0.0;0.0;0.0;0.0;0.0;0.0;0.0;0.0;0.0;0.0;0.0;0.0;0.0;0.0;0.0;0.0;0.0;0.0;0.0;0.0;0.0;0.0;0.0;0.0;0.0
342063000000;242;342063000000;map;35.8277157867;11.8657239879;0.0;0.0;0.0;0.701476394471;0.712692688331;0.00163757263499;-9.31637579811e-05;0.000144713900909;0.0;0.0;0.0;0.0;0.0;0.000566763696546;0.0;0.0;0.0;0.0;0.0;0.0;0.0;0.0;0.0;0.0;0.0;0.0;0.0;0.0;0.0;0.0;0.0;0.0;0.0;0.0;0.0;0.0;0.0;0.0;0.0;0.0;0.0
342562000000;243;342562000000;map;35.8218506632;12.07662008;0.0;0.0;0.0;0.701706918159;0.712465719181;0.0019602141831;5.74422537056e-05;8.9560231828e-05;0.0;0.0;0.0;0.0;0.0;0.000618463005268;0.0;0.0;0.0;0.0;0.0;0.0;0.0;0.0;0.0;0.0;0.0;0.0;0.0;0.0;0.0;0.0;0.0;0.0;0.0;0.0;0.0;0.0;0.0;0.0;0.0;0.0;0.0
342968000000;244;342968000000;map;35.8299156762;12.2786449454;0.0;0.0;0.0;0.700803972874;0.713353903476;0.00174188690335;7.66686795828e-05;7.5132701312e-05;0.0;0.0;0.0;0.0;0.0;0.000476459473452;0.0;0.0;0.0;0.0;0.0;0.0;0.0;0.0;0.0;0.0;0.0;0.0;0.0;0.0;0.0;0.0;0.0;0.0;0.0;0.0;0.0;0.0;0.0;0.0;0.0;0.0;0.0
343369000000;245;343369000000;map;35.8349099074;12.480002508;0.0;0.0;0.0;0.699999613813;0.714143221393;0.00199482907715;7.68882192119e-05;7.06470108867e-05;0.0;0.0;0.0;0.0;0.0;0.000613663750233;0.0;0.0;0.0;0.0;0.0;0.0;0.0;0.0;0.0;0.0;0.0;0.0;0.0;0.0;0.0;0.0;0.0;0.0;0.0;0.0;0.0;0.0;0.0;0.0;0.0;0.0;0.0
343769000000;246;343769000000;map;35.8357959454;12.6808523693;0.0;0.0;0.0;0.699455295608;0.714676352936;0.00237293094028;0.000153460568583;8.73530315459e-05;0.0;0.0;0.0;0.0;0.0;0.000513776680214;0.0;0.0;0.0;0.0;0.0;0.0;0.0;0.0;0.0;0.0;0.0;0.0;0.0;0.0;0.0;0.0;0.0;0.0;0.0;0.0;0.0;0.0;0.0;0.0;0.0;0.0;0.0
344170000000;247;344170000000;map;35.8266430055;12.8884194064;0.0;0.0;0.0;0.701631398837;0.712540090217;0.00248661373757;0.00012135070682;6.9659363902e-05;0.0;0.0;0.0;0.0;0.0;0.000402990464128;0.0;0.0;0.0;0.0;0.0;0.0;0.0;0.0;0.0;0.0;0.0;0.0;0.0;0.0;0.0;0.0;0.0;0.0;0.0;0.0;0.0;0.0;0.0;0.0;0.0;0.0;0.0
346091000000;248;346091000000;map;35.8281403156;12.975004546;0.0;0.0;0.0;0.784940162489;0.619571578844;0.00247570396596;0.000145377929414;8.77309256566e-05;0.0;0.0;0.0;0.0;0.0;0.000490060689661;0.0;0.0;0.0;0.0;0.0;0.0;0.0;0.0;0.0;0.0;0.0;0.0;0.0;0.0;0.0;0.0;0.0;0.0;0.0;0.0;0.0;0.0;0.0;0.0;0.0;0.0;0.0
347373000000;249;347373000000;map;35.8323196932;12.9752746638;0.0;0.0;0.0;0.856139740839;0.516744370222;0.00248737247011;0.000153211681607;9.51601539612e-05;0.0;0.0;0.0;0.0;0.0;0.000578037094332;0.0;0.0;0.0;0.0;0.0;0.0;0.0;0.0;0.0;0.0;0.0;0.0;0.0;0.0;0.0;0.0;0.0;0.0;0.0;0.0;0.0;0.0;0.0;0.0;0.0;0.0;0.0
348281000000;250;348281000000;map;35.830988232;12.9770508089;0.0;0.0;0.0;0.913953057135;0.405819922323;0.00295111222135;0.000151307966746;9.10859154999e-05;0.0;0.0;0.0;0.0;0.0;0.000588849071848;0.0;0.0;0.0;0.0;0.0;0.0;0.0;0.0;0.0;0.0;0.0;0.0;0.0;0.0;0.0;0.0;0.0;0.0;0.0;0.0;0.0;0.0;0.0;0.0;0.0;0.0;0.0
349484000000;251;349484000000;map;35.8333999831;12.9773324857;0.0;0.0;0.0;0.957296464082;0.289108076428;0.00296687298692;0.000120039662761;0.000102933722872;0.0;0.0;0.0;0.0;0.0;0.000698689346343;0.0;0.0;0.0;0.0;0.0;0.0;0.0;0.0;0.0;0.0;0.0;0.0;0.0;0.0;0.0;0.0;0.0;0.0;0.0;0.0;0.0;0.0;0.0;0.0;0.0;0.0;0.0
350599000000;252;350599000000;map;35.8480678781;12.9790393669;0.0;0.0;0.0;0.985735150991;0.168303927763;0.00348931003191;-6.4603605324e-05;0.000100442342756;0.0;0.0;0.0;0.0;0.0;0.000826657998628;0.0;0.0;0.0;0.0;0.0;0.0;0.0;0.0;0.0;0.0;0.0;0.0;0.0;0.0;0.0;0.0;0.0;0.0;0.0;0.0;0.0;0.0;0.0;0.0;0.0;0.0;0.0
351581000000;253;351581000000;map;35.8495379371;12.9796561606;0.0;0.0;0.0;0.999059037418;0.0433709551882;0.00339735140392;-0.00012554654154;9.7035781863e-05;0.0;0.0;0.0;0.0;0.0;0.000965451327349;0.0;0.0;0.0;0.0;0.0;0.0;0.0;0.0;0.0;0.0;0.0;0.0;0.0;0.0;0.0;0.0;0.0;0.0;0.0;0.0;0.0;0.0;0.0;0.0;0.0;0.0;0.0
351875000000;254;351875000000;map;35.8518912874;12.9795675545;0.0;0.0;0.0;0.999941707367;0.0107973083794;0.00369951452944;-0.000133079814077;0.000107906423551;0.0;0.0;0.0;0.0;0.0;0.000720291958375;0.0;0.0;0.0;0.0;0.0;0.0;0.0;0.0;0.0;0.0;0.0;0.0;0.0;0.0;0.0;0.0;0.0;0.0;0.0;0.0;0.0;0.0;0.0;0.0;0.0;0.0;0.0
353382000000;255;353382000000;map;35.6513728482;12.9733524881;0.0;0.0;0.0;-0.999880439378;0.0154630834425;0.00370941804226;-4.45379796474e-05;0.000137282801091;0.0;0.0;0.0;0.0;0.0;0.00102459186387;0.0;0.0;0.0;0.0;0.0;0.0;0.0;0.0;0.0;0.0;0.0;0.0;0.0;0.0;0.0;0.0;0.0;0.0;0.0;0.0;0.0;0.0;0.0;0.0;0.0;0.0;0.0
353787000000;256;353787000000;map;35.4473501538;12.9700667123;0.0;0.0;0.0;-0.999913157984;0.0131786376562;0.00338392039475;-5.06303337033e-06;0.000163022180686;0.0;0.0;0.0;0.0;0.0;0.000864564869882;0.0;0.0;0.0;0.0;0.0;0.0;0.0;0.0;0.0;0.0;0.0;0.0;0.0;0.0;0.0;0.0;0.0;0.0;0.0;0.0;0.0;0.0;0.0;0.0;0.0;0.0;0.0
354191000000;257;354191000000;map;35.243028331;12.9673717976;0.0;0.0;0.0;-0.999954703931;0.00951788245761;0.00339295648155;0.000153712670851;0.000242661429581;0.0;0.0;0.0;0.0;0.0;0.000895291353433;0.0;0.0;0.0;0.0;0.0;0.0;0.0;0.0;0.0;0.0;0.0;0.0;0.0;0.0;0.0;0.0;0.0;0.0;0.0;0.0;0.0;0.0;0.0;0.0;0.0;0.0;0.0
354586000000;258;354586000000;map;35.0426766715;12.9640199896;0.0;0.0;0.0;-0.999947611046;0.0102359740035;0.00331358004746;0.000172078485775;0.000326098291481;0.0;0.0;0.0;0.0;0.0;0.000922987221712;0.0;0.0;0.0;0.0;0.0;0.0;0.0;0.0;0.0;0.0;0.0;0.0;0.0;0.0;0.0;0.0;0.0;0.0;0.0;0.0;0.0;0.0;0.0;0.0;0.0;0.0;0.0
354986000000;259;354986000000;map;34.8331542423;12.9590014217;0.0;0.0;0.0;-0.999928082637;0.0119928959474;0.00337194598387;0.000188075540734;0.000502109599722;0.0;0.0;0.0;0.0;0.0;0.00099344371088;0.0;0.0;0.0;0.0;0.0;0.0;0.0;0.0;0.0;0.0;0.0;0.0;0.0;0.0;0.0;0.0;0.0;0.0;0.0;0.0;0.0;0.0;0.0;0.0;0.0;0.0;0.0
355386263400;260;355386263400;map;34.6324318671;12.9528846551;0.0;0.0;0.0;-0.999907909273;0.0135710343248;0.00313595693547;0.000155386968061;0.000620654231483;0.0;0.0;0.0;0.0;0.0;0.000966059496689;0.0;0.0;0.0;0.0;0.0;0.0;0.0;0.0;0.0;0.0;0.0;0.0;0.0;0.0;0.0;0.0;0.0;0.0;0.0;0.0;0.0;0.0;0.0;0.0;0.0;0.0;0.0
355785000000;261;355785000000;map;34.4354875525;12.9497885656;0.0;0.0;0.0;-0.999917870633;0.0128160832339;0.00323446534185;0.000165381653005;0.000748100619347;0.0;0.0;0.0;0.0;0.0;0.000960229536436;0.0;0.0;0.0;0.0;0.0;0.0;0.0;0.0;0.0;0.0;0.0;0.0;0.0;0.0;0.0;0.0;0.0;0.0;0.0;0.0;0.0;0.0;0.0;0.0;0.0;0.0;0.0
356194000000;262;356194000000;map;34.2386794657;12.9443059979;0.0;0.0;0.0;-0.99990086538;0.014080462083;0.00360966782796;2.34755135011e-05;0.000728440589512;0.0;0.0;0.0;0.0;0.0;0.000876721645478;0.0;0.0;0.0;0.0;0.0;0.0;0.0;0.0;0.0;0.0;0.0;0.0;0.0;0.0;0.0;0.0;0.0;0.0;0.0;0.0;0.0;0.0;0.0;0.0;0.0;0.0;0.0
356684000000;263;356684000000;map;34.0424445393;12.9409470507;0.0;0.0;0.0;-0.999903191759;0.0139142772023;0.00328237124972;7.14085579716e-05;0.00104171441396;0.0;0.0;0.0;0.0;0.0;0.000959600723753;0.0;0.0;0.0;0.0;0.0;0.0;0.0;0.0;0.0;0.0;0.0;0.0;0.0;0.0;0.0;0.0;0.0;0.0;0.0;0.0;0.0;0.0;0.0;0.0;0.0;0.0;0.0
357092000000;264;357092000000;map;33.8456561984;12.931098912;0.0;0.0;0.0;-0.999853056736;0.0171424892047;0.00283300795923;0.000132686299082;0.00131596143262;0.0;0.0;0.0;0.0;0.0;0.000936699028461;0.0;0.0;0.0;0.0;0.0;0.0;0.0;0.0;0.0;0.0;0.0;0.0;0.0;0.0;0.0;0.0;0.0;0.0;0.0;0.0;0.0;0.0;0.0;0.0;0.0;0.0;0.0
357684000000;265;357684000000;map;33.6842948301;12.9316114869;0.0;0.0;0.0;0.999897608477;0.0143098763688;0.0028943518812;0.000251846741833;0.00134243883204;0.0;0.0;0.0;0.0;0.0;0.00087815177659;0.0;0.0;0.0;0.0;0.0;0.0;0.0;0.0;0.0;0.0;0.0;0.0;0.0;0.0;0.0;0.0;0.0;0.0;0.0;0.0;0.0;0.0;0.0;0.0;0.0;0.0;0.0
358388000000;266;358388000000;map;33.4751461572;12.9404998983;0.0;0.0;0.0;0.999702359699;0.0243965574004;0.00270482511246;1.89924565461e-05;0.00110703171299;0.0;0.0;0.0;0.0;0.0;0.000667854983925;0.0;0.0;0.0;0.0;0.0;0.0;0.0;0.0;0.0;0.0;0.0;0.0;0.0;0.0;0.0;0.0;0.0;0.0;0.0;0.0;0.0;0.0;0.0;0.0;0.0;0.0;0.0
358796000000;267;358796000000;map;33.2785897973;12.9498075773;0.0;0.0;0.0;0.999696705881;0.0246271445822;0.00315854445444;-8.51694309176e-05;0.000963718080641;0.0;0.0;0.0;0.0;0.0;0.000705620729255;0.0;0.0;0.0;0.0;0.0;0.0;0.0;0.0;0.0;0.0;0.0;0.0;0.0;0.0;0.0;0.0;0.0;0.0;0.0;0.0;0.0;0.0;0.0;0.0;0.0;0.0;0.0
359192000000;268;359192000000;map;33.0737136507;12.9580294845;0.0;0.0;0.0;0.999720189782;0.0236546431592;0.00312011176266;-1.02981451846e-05;0.00117622768505;0.0;0.0;0.0;0.0;0.0;0.000757199923597;0.0;0.0;0.0;0.0;0.0;0.0;0.0;0.0;0.0;0.0;0.0;0.0;0.0;0.0;0.0;0.0;0.0;0.0;0.0;0.0;0.0;0.0;0.0;0.0;0.0;0.0;0.0
359599000000;269;359599000000;map;32.8718694497;12.9658929669;0.0;0.0;0.0;0.999777774969;0.0210808130172;0.00373754816587;0.000240450060517;0.00106174840147;0.0;0.0;0.0;0.0;0.0;0.000619957530289;0.0;0.0;0.0;0.0;0.0;0.0;0.0;0.0;0.0;0.0;0.0;0.0;0.0;0.0;0.0;0.0;0.0;0.0;0.0;0.0;0.0;0.0;0.0;0.0;0.0;0.0;0.0
360094000000;270;360094000000;map;32.6671909489;12.9781862018;0.0;0.0;0.0;0.999809585139;0.0195139300168;0.00376904964241;0.000217183013547;0.00133834149975;0.0;0.0;0.0;0.0;0.0;0.000582213384347;0.0;0.0;0.0;0.0;0.0;0.0;0.0;0.0;0.0;0.0;0.0;0.0;0.0;0.0;0.0;0.0;0.0;0.0;0.0;0.0;0.0;0.0;0.0;0.0;0.0;0.0;0.0
360492000000;271;360492000000;map;32.4524157498;12.9862103857;0.0;0.0;0.0;0.999811771145;0.0194016050754;0.00405565394408;0.000131662033311;0.00132909334872;0.0;0.0;0.0;0.0;0.0;0.000596379560457;0.0;0.0;0.0;0.0;0.0;0.0;0.0;0.0;0.0;0.0;0.0;0.0;0.0;0.0;0.0;0.0;0.0;0.0;0.0;0.0;0.0;0.0;0.0;0.0;0.0;0.0;0.0
360898803745;272;360898803745;map;32.254787995;12.9937845233;0.0;0.0;0.0;0.999802583409;0.0198694289912;0.0034011418802;0.000373882823965;0.0012597935538;0.0;0.0;0.0;0.0;0.0;0.000530384680542;0.0;0.0;0.0;0.0;0.0;0.0;0.0;0.0;0.0;0.0;0.0;0.0;0.0;0.0;0.0;0.0;0.0;0.0;0.0;0.0;0.0;0.0;0.0;0.0;0.0;0.0;0.0
361290000000;273;361290000000;map;32.0532368935;13.0062247228;0.0;0.0;0.0;0.999792536021;0.0203687239631;0.00358746086476;9.55379915695e-05;0.00144465632215;0.0;0.0;0.0;0.0;0.0;0.000582398110503;0.0;0.0;0.0;0.0;0.0;0.0;0.0;0.0;0.0;0.0;0.0;0.0;0.0;0.0;0.0;0.0;0.0;0.0;0.0;0.0;0.0;0.0;0.0;0.0;0.0;0.0;0.0
361699638290;274;361699638290;map;31.851963512;13.0128362396;0.0;0.0;0.0;0.999806934674;0.0196492589387;0.00363855129808;0.000442048866717;0.00144558827864;0.0;0.0;0.0;0.0;0.0;0.000557782537939;0.0;0.0;0.0;0.0;0.0;0.0;0.0;0.0;0.0;0.0;0.0;0.0;0.0;0.0;0.0;0.0;0.0;0.0;0.0;0.0;0.0;0.0;0.0;0.0;0.0;0.0;0.0
362095000000;275;362095000000;map;31.6638696503;13.0286982312;0.0;0.0;0.0;0.999814972156;0.019235941703;0.00391011962711;0.000375944853886;0.00152340137544;0.0;0.0;0.0;0.0;0.0;0.000646000459028;0.0;0.0;0.0;0.0;0.0;0.0;0.0;0.0;0.0;0.0;0.0;0.0;0.0;0.0;0.0;0.0;0.0;0.0;0.0;0.0;0.0;0.0;0.0;0.0;0.0;0.0;0.0
362497000000;276;362497000000;map;31.4576846269;13.037727531;0.0;0.0;0.0;0.999816983244;0.0191311269256;0.00387328611521;0.000575500516675;0.00172484133154;0.0;0.0;0.0;0.0;0.0;0.000686474789959;0.0;0.0;0.0;0.0;0.0;0.0;0.0;0.0;0.0;0.0;0.0;0.0;0.0;0.0;0.0;0.0;0.0;0.0;0.0;0.0;0.0;0.0;0.0;0.0;0.0;0.0;0.0
362909000000;277;362909000000;map;31.2607386281;13.0394799419;0.0;0.0;0.0;0.999857147983;0.0169021781957;0.00408663380904;0.000176394634821;0.00167313248147;0.0;0.0;0.0;0.0;0.0;0.000768196413035;0.0;0.0;0.0;0.0;0.0;0.0;0.0;0.0;0.0;0.0;0.0;0.0;0.0;0.0;0.0;0.0;0.0;0.0;0.0;0.0;0.0;0.0;0.0;0.0;0.0;0.0;0.0
363297000000;278;363297000000;map;31.062315119;13.0491778845;0.0;0.0;0.0;0.999860788159;0.0166854518021;0.00412925933597;-6.64690473968e-05;0.00148027612818;0.0;0.0;0.0;0.0;0.0;0.00072171935232;0.0;0.0;0.0;0.0;0.0;0.0;0.0;0.0;0.0;0.0;0.0;0.0;0.0;0.0;0.0;0.0;0.0;0.0;0.0;0.0;0.0;0.0;0.0;0.0;0.0;0.0;0.0
363708000000;279;363708000000;map;30.8643342405;13.0559077625;0.0;0.0;0.0;0.999852073591;0.0171997364793;0.00398650476836;-0.000163780966716;0.00155453588332;0.0;0.0;0.0;0.0;0.0;0.000748212754515;0.0;0.0;0.0;0.0;0.0;0.0;0.0;0.0;0.0;0.0;0.0;0.0;0.0;0.0;0.0;0.0;0.0;0.0;0.0;0.0;0.0;0.0;0.0;0.0;0.0;0.0;0.0
364195000000;280;364195000000;map;30.663871264;13.0628726353;0.0;0.0;0.0;0.999861214237;0.0166598998738;0.00414501929663;-0.000373420016786;0.00214562730741;0.0;0.0;0.0;0.0;0.0;0.000728551864225;0.0;0.0;0.0;0.0;0.0;0.0;0.0;0.0;0.0;0.0;0.0;0.0;0.0;0.0;0.0;0.0;0.0;0.0;0.0;0.0;0.0;0.0;0.0;0.0;0.0;0.0;0.0
364594000000;281;364594000000;map;30.463677765;13.0736498835;0.0;0.0;0.0;0.999849832065;0.0173295504468;0.00418283352246;-0.000542404309101;0.00192297041875;0.0;0.0;0.0;0.0;0.0;0.000634252225715;0.0;0.0;0.0;0.0;0.0;0.0;0.0;0.0;0.0;0.0;0.0;0.0;0.0;0.0;0.0;0.0;0.0;0.0;0.0;0.0;0.0;0.0;0.0;0.0;0.0;0.0;0.0
364999000000;282;364999000000;map;30.2584049948;13.0893019611;0.0;0.0;0.0;0.999838894397;0.0179495195436;0.00450644458067;-0.00101597799267;0.00188004610675;0.0;0.0;0.0;0.0;0.0;0.00057919032472;0.0;0.0;0.0;0.0;0.0;0.0;0.0;0.0;0.0;0.0;0.0;0.0;0.0;0.0;0.0;0.0;0.0;0.0;0.0;0.0;0.0;0.0;0.0;0.0;0.0;0.0;0.0
365294000000;283;365294000000;map;30.0587143926;13.0986598074;0.0;0.0;0.0;0.999840772188;0.0178446146146;0.00447440000198;-0.00130081431712;0.0018954203303;0.0;0.0;0.0;0.0;0.0;0.000511477417579;0.0;0.0;0.0;0.0;0.0;0.0;0.0;0.0;0.0;0.0;0.0;0.0;0.0;0.0;0.0;0.0;0.0;0.0;0.0;0.0;0.0;0.0;0.0;0.0;0.0;0.0;0.0
365798720080;284;365798720080;map;29.8545563965;13.1110634753;0.0;0.0;0.0;0.999825656134;0.0186723682541;0.00443403376437;-0.00139748096694;0.0020737752277;0.0;0.0;0.0;0.0;0.0;0.000612700856964;0.0;0.0;0.0;0.0;0.0;0.0;0.0;0.0;0.0;0.0;0.0;0.0;0.0;0.0;0.0;0.0;0.0;0.0;0.0;0.0;0.0;0.0;0.0;0.0;0.0;0.0;0.0
366194661204;285;366194661204;map;29.6556018838;13.117091602;0.0;0.0;0.0;0.999819017643;0.0190245094285;0.0048051561788;-0.00154671826795;0.00183651293412;0.0;0.0;0.0;0.0;0.0;0.000547151294615;0.0;0.0;0.0;0.0;0.0;0.0;0.0;0.0;0.0;0.0;0.0;0.0;0.0;0.0;0.0;0.0;0.0;0.0;0.0;0.0;0.0;0.0;0.0;0.0;0.0;0.0;0.0
366586000000;286;366586000000;map;29.463073462;13.1247180243;0.0;0.0;0.0;0.999809022538;0.0195427339919;0.00458305518532;-0.00145164775415;0.0018480354596;0.0;0.0;0.0;0.0;0.0;0.000629089177687;0.0;0.0;0.0;0.0;0.0;0.0;0.0;0.0;0.0;0.0;0.0;0.0;0.0;0.0;0.0;0.0;0.0;0.0;0.0;0.0;0.0;0.0;0.0;0.0;0.0;0.0;0.0
366993000000;287;366993000000;map;29.250507152;13.1248180867;0.0;0.0;0.0;0.999856875;0.0169183189421;0.00548102270466;-0.00140808167509;0.00161068375041;0.0;0.0;0.0;0.0;0.0;0.000603025940169;0.0;0.0;0.0;0.0;0.0;0.0;0.0;0.0;0.0;0.0;0.0;0.0;0.0;0.0;0.0;0.0;0.0;0.0;0.0;0.0;0.0;0.0;0.0;0.0;0.0;0.0;0.0
367389000000;288;367389000000;map;29.0468232106;13.1309378657;0.0;0.0;0.0;0.999889975621;0.0148336324994;0.00541727626228;-0.00108586273308;0.00145930018613;0.0;0.0;0.0;0.0;0.0;0.000668324597635;0.0;0.0;0.0;0.0;0.0;0.0;0.0;0.0;0.0;0.0;0.0;0.0;0.0;0.0;0.0;0.0;0.0;0.0;0.0;0.0;0.0;0.0;0.0;0.0;0.0;0.0;0.0
367794497852;289;367794497852;map;28.853211867;13.1393794776;0.0;0.0;0.0;0.999892287612;0.0146769606799;0.00548157164792;-0.00109718980622;0.00133681248397;0.0;0.0;0.0;0.0;0.0;0.000560166678144;0.0;0.0;0.0;0.0;0.0;0.0;0.0;0.0;0.0;0.0;0.0;0.0;0.0;0.0;0.0;0.0;0.0;0.0;0.0;0.0;0.0;0.0;0.0;0.0;0.0;0.0;0.0
368190000000;290;368190000000;map;28.6478706431;13.1543525308;0.0;0.0;0.0;0.999873801687;0.0158864942839;0.00570221426437;-0.000991401436863;0.001386520566;0.0;0.0;0.0;0.0;0.0;0.000583609985009;0.0;0.0;0.0;0.0;0.0;0.0;0.0;0.0;0.0;0.0;0.0;0.0;0.0;0.0;0.0;0.0;0.0;0.0;0.0;0.0;0.0;0.0;0.0;0.0;0.0;0.0;0.0
368586000000;291;368586000000;map;28.453869726;13.1618283119;0.0;0.0;0.0;0.999856001123;0.0169698856387;0.00533482576259;-0.000854156860498;0.00137826576662;0.0;0.0;0.0;0.0;0.0;0.00045078434428;0.0;0.0;0.0;0.0;0.0;0.0;0.0;0.0;0.0;0.0;0.0;0.0;0.0;0.0;0.0;0.0;0.0;0.0;0.0;0.0;0.0;0.0;0.0;0.0;0.0;0.0;0.0
368994000000;292;368994000000;map;28.2594330609;13.168853662;0.0;0.0;0.0;0.9998659454;0.0163734916634;0.00496775354804;-0.000785561018972;0.00161765024095;0.0;0.0;0.0;0.0;0.0;0.000432617530919;0.0;0.0;0.0;0.0;0.0;0.0;0.0;0.0;0.0;0.0;0.0;0.0;0.0;0.0;0.0;0.0;0.0;0.0;0.0;0.0;0.0;0.0;0.0;0.0;0.0;0.0;0.0
369384000000;293;369384000000;map;28.0542634795;13.1820980435;0.0;0.0;0.0;0.99986419615;0.0164799653587;0.00526187579919;-0.000778387180105;0.00160778102563;0.0;0.0;0.0;0.0;0.0;0.000343415663806;0.0;0.0;0.0;0.0;0.0;0.0;0.0;0.0;0.0;0.0;0.0;0.0;0.0;0.0;0.0;0.0;0.0;0.0;0.0;0.0;0.0;0.0;0.0;0.0;0.0;0.0;0.0
369789000000;294;369789000000;map;27.8491867547;13.1835538523;0.0;0.0;0.0;0.999866481169;0.0163407415843;0.0051627215887;-0.000806506734534;0.00137212540787;0.0;0.0;0.0;0.0;0.0;0.000520074660967;0.0;0.0;0.0;0.0;0.0;0.0;0.0;0.0;0.0;0.0;0.0;0.0;0.0;0.0;0.0;0.0;0.0;0.0;0.0;0.0;0.0;0.0;0.0;0.0;0.0;0.0;0.0
370189000000;295;370189000000;map;27.6427212552;13.1927128317;0.0;0.0;0.0;0.999864776107;0.0164447408249;0.0052561094011;-0.0010016006575;0.00135069654237;0.0;0.0;0.0;0.0;0.0;0.000492097896853;0.0;0.0;0.0;0.0;0.0;0.0;0.0;0.0;0.0;0.0;0.0;0.0;0.0;0.0;0.0;0.0;0.0;0.0;0.0;0.0;0.0;0.0;0.0;0.0;0.0;0.0;0.0
370588000000;296;370588000000;map;27.441669814;13.1982166869;0.0;0.0;0.0;0.999890858085;0.0147740284653;0.00514751423964;-0.000948022624186;0.00137300840169;0.0;0.0;0.0;0.0;0.0;0.000482919360768;0.0;0.0;0.0;0.0;0.0;0.0;0.0;0.0;0.0;0.0;0.0;0.0;0.0;0.0;0.0;0.0;0.0;0.0;0.0;0.0;0.0;0.0;0.0;0.0;0.0;0.0;0.0
370989000000;297;370989000000;map;27.2336206319;13.2030057423;0.0;0.0;0.0;0.999909858307;0.0134266622709;0.00530853012162;-0.00114889632164;0.00143515787005;0.0;0.0;0.0;0.0;0.0;0.000594331289999;0.0;0.0;0.0;0.0;0.0;0.0;0.0;0.0;0.0;0.0;0.0;0.0;0.0;0.0;0.0;0.0;0.0;0.0;0.0;0.0;0.0;0.0;0.0;0.0;0.0;0.0;0.0
371387968205;298;371387968205;map;27.0354277477;13.2116236555;0.0;0.0;0.0;0.999899724361;0.014161257785;0.00525845464472;-0.00124204462162;0.00117974312556;0.0;0.0;0.0;0.0;0.0;0.000567130316037;0.0;0.0;0.0;0.0;0.0;0.0;0.0;0.0;0.0;0.0;0.0;0.0;0.0;0.0;0.0;0.0;0.0;0.0;0.0;0.0;0.0;0.0;0.0;0.0;0.0;0.0;0.0
371891000000;299;371891000000;map;26.8242035055;13.2208247197;0.0;0.0;0.0;0.999906625982;0.0136652595322;0.0052138035968;-0.00117573555752;0.00115571412215;0.0;0.0;0.0;0.0;0.0;0.00066022219542;0.0;0.0;0.0;0.0;0.0;0.0;0.0;0.0;0.0;0.0;0.0;0.0;0.0;0.0;0.0;0.0;0.0;0.0;0.0;0.0;0.0;0.0;0.0;0.0;0.0;0.0;0.0
372286000000;300;372286000000;map;26.611079556;13.2291083859;0.0;0.0;0.0;0.999905798921;0.0137256433343;0.00575848724156;-0.00125232401854;0.00118894922403;0.0;0.0;0.0;0.0;0.0;0.000629142591727;0.0;0.0;0.0;0.0;0.0;0.0;0.0;0.0;0.0;0.0;0.0;0.0;0.0;0.0;0.0;0.0;0.0;0.0;0.0;0.0;0.0;0.0;0.0;0.0;0.0;0.0;0.0
