%time;field.header.seq;field.header.stamp;field.header.frame_id;field.pose.pose.position.x;field.pose.pose.position.y;field.pose.pose.position.z;field.pose.pose.orientation.x;field.pose.pose.orientation.y;field.pose.pose.orientation.z;field.pose.pose.orientation.w;field.pose.covariance0;field.pose.covariance1;field.pose.covariance2;field.pose.covariance3;field.pose.covariance4;field.pose.covariance5;field.pose.covariance6;field.pose.covariance7;field.pose.covariance8;field.pose.covariance9;field.pose.covariance10;field.pose.covariance11;field.pose.covariance12;field.pose.covariance13;field.pose.covariance14;field.pose.covariance15;field.pose.covariance16;field.pose.covariance17;field.pose.covariance18;field.pose.covariance19;field.pose.covariance20;field.pose.covariance21;field.pose.covariance22;field.pose.covariance23;field.pose.covariance24;field.pose.covariance25;field.pose.covariance26;field.pose.covariance27;field.pose.covariance28;field.pose.covariance29;field.pose.covariance30;field.pose.covariance31;field.pose.covariance32;field.pose.covariance33;field.pose.covariance34;field.pose.covariance35
241630000000;13;241630000000;map;2.97823457094;-0.0383761863382;0.0;0.0;0.0;-0.000349387479528;0.999999938964;8.87064859689;1.28857230124;0.0;0.0;0.0;0.0;1.28857230124;1.41802761072;0.0;0.0;0.0;0.0;0.0;0.0;0.0;0.0;0.0;0.0;0.0;0.0;0.0;0.0;0.0;0.0;0.0;0.0;0.0;0.0;0.0;0.0;0.0;0.0;0.0;0.0;0.0;0.0825996815567
242132000000;14;242132000000;map;3.23128256542;-0.0377447344309;0.0;0.0;0.0;-0.000444191080681;0.999999901347;4.76967046097;0.418897188565;0.0;0.0;0.0;0.0;0.418897188565;0.821610020792;0.0;0.0;0.0;0.0;0.0;0.0;0.0;0.0;0.0;0.0;0.0;0.0;0.0;0.0;0.0;0.0;0.0;0.0;0.0;0.0;0.0;0.0;0.0;0.0;0.0;0.0;0.0;0.0620326776859
242635000000;15;242635000000;map;3.48450585156;-0.0377327514987;0.0;0.0;0.0;-0.000685432537596;0.999999765091;2.6058766084;0.164599394902;0.0;0.0;0.0;0.0;0.164599394902;0.562433488187;0.0;0.0;0.0;0.0;0.0;0.0;0.0;0.0;0.0;0.0;0.0;0.0;0.0;0.0;0.0;0.0;0.0;0.0;0.0;0.0;0.0;0.0;0.0;0.0;0.0;0.0;0.0;0.0380849984518
243144000000;16;243144000000;map;3.74065964433;-0.0377779452055;0.0;0.0;0.0;-0.000776202784986;0.999999698755;1.73697294676;0.341285461731;0.0;0.0;0.0;0.0;0.341285461731;0.612185414486;0.0;0.0;0.0;0.0;0.0;0.0;0.0;0.0;0.0;0.0;0.0;0.0;0.0;0.0;0.0;0.0;0.0;0.0;0.0;0.0;0.0;0.0;0.0;0.0;0.0;0.0;0.0;0.0278896311384
243647000000;17;243647000000;map;3.99274084082;-0.0375701809111;0.0;0.0;0.0;-0.000686869800418;0.999999764105;1.0730014713;0.125811046934;0.0;0.0;0.0;0.0;0.125811046934;0.279023779034;0.0;0.0;0.0;0.0;0.0;0.0;0.0;0.0;0.0;0.0;0.0;0.0;0.0;0.0;0.0;0.0;0.0;0.0;0.0;0.0;0.0;0.0;0.0;0.0;0.0;0.0;0.0;0.0190942027876
244154000000;18;244154000000;map;4.24798377289;-0.0371126599954;0.0;0.0;0.0;-0.000850599197061;0.99999963824;0.644173028436;0.0456846900164;0.0;0.0;0.0;0.0;0.0456846900164;0.155257389585;0.0;0.0;0.0;0.0;0.0;0.0;0.0;0.0;0.0;0.0;0.0;0.0;0.0;0.0;0.0;0.0;0.0;0.0;0.0;0.0;0.0;0.0;0.0;0.0;0.0;0.0;0.0;0.0151000593041
244659000000;19;244659000000;map;4.5033305965;-0.0363892419799;0.0;0.0;0.0;-0.000560042241581;0.999999843176;0.734359721649;0.101932066447;0.0;0.0;0.0;0.0;0.101932066447;0.17292813469;0.0;0.0;0.0;0.0;0.0;0.0;0.0;0.0;0.0;0.0;0.0;0.0;0.0;0.0;0.0;0.0;0.0;0.0;0.0;0.0;0.0;0.0;0.0;0.0;0.0;0.0;0.0;0.0158415149238
245180000000;20;245180000000;map;4.76520683885;-0.0362269440695;0.0;0.0;0.0;-0.000739029765628;0.999999726917;0.252298828552;0.062238689235;0.0;0.0;0.0;0.0;0.062238689235;0.122683074517;0.0;0.0;0.0;0.0;0.0;0.0;0.0;0.0;0.0;0.0;0.0;0.0;0.0;0.0;0.0;0.0;0.0;0.0;0.0;0.0;0.0;0.0;0.0;0.0;0.0;0.0;0.0;0.00613989000835
245684000000;21;245684000000;map;5.01847088645;-0.0359312231463;0.0;0.0;0.0;-0.000609581445751;0.999999814205;0.233199475539;0.042468952178;0.0;0.0;0.0;0.0;0.042468952178;0.0824297560871;0.0;0.0;0.0;0.0;0.0;0.0;0.0;0.0;0.0;0.0;0.0;0.0;0.0;0.0;0.0;0.0;0.0;0.0;0.0;0.0;0.0;0.0;0.0;0.0;0.0;0.0;0.0;0.00540121006617
246187000000;22;246187000000;map;5.27178991381;-0.0358991597451;0.0;0.0;0.0;-0.0012054096709;0.999999273493;0.118298963869;0.0172025092395;0.0;0.0;0.0;0.0;0.0172025092395;0.0742355429428;0.0;0.0;0.0;0.0;0.0;0.0;0.0;0.0;0.0;0.0;0.0;0.0;0.0;0.0;0.0;0.0;0.0;0.0;0.0;0.0;0.0;0.0;0.0;0.0;0.0;0.0;0.0;0.00506568867289
246706000000;23;246706000000;map;5.53424796802;-0.0346914551669;0.0;0.0;0.0;-0.000821553007729;0.999999662525;0.050664082964;-0.0301005312929;0.0;0.0;0.0;0.0;-0.0301005312929;0.0523920912385;0.0;0.0;0.0;0.0;0.0;0.0;0.0;0.0;0.0;0.0;0.0;0.0;0.0;0.0;0.0;0.0;0.0;0.0;0.0;0.0;0.0;0.0;0.0;0.0;0.0;0.0;0.0;0.00443943084869
247211000000;24;247211000000;map;5.78910846486;-0.0348291235707;0.0;0.0;0.0;-0.000808523908949;0.999999673144;0.0347768955129;-0.0267980883272;0.0;0.0;0.0;0.0;-0.0267980883272;0.0524821153815;0.0;0.0;0.0;0.0;0.0;0.0;0.0;0.0;0.0;0.0;0.0;0.0;0.0;0.0;0.0;0.0;0.0;0.0;0.0;0.0;0.0;0.0;0.0;0.0;0.0;0.0;0.0;0.00451350257615
247712000000;25;247712000000;map;6.0428088096;-0.0347908406052;0.0;0.0;0.0;-0.00114633466871;0.999999342958;0.0305574234507;-0.047068127723;0.0;0.0;0.0;0.0;-0.047068127723;0.102826401224;0.0;0.0;0.0;0.0;0.0;0.0;0.0;0.0;0.0;0.0;0.0;0.0;0.0;0.0;0.0;0.0;0.0;0.0;0.0;0.0;0.0;0.0;0.0;0.0;0.0;0.0;0.0;0.00784167860139
248219000000;26;248219000000;map;6.29902502428;-0.0358589810884;0.0;0.0;0.0;-0.00145047718321;0.999998948057;0.0159625735384;-0.0282687776236;0.0;0.0;0.0;0.0;-0.0282687776236;0.0727214015003;0.0;0.0;0.0;0.0;0.0;0.0;0.0;0.0;0.0;0.0;0.0;0.0;0.0;0.0;0.0;0.0;0.0;0.0;0.0;0.0;0.0;0.0;0.0;0.0;0.0;0.0;0.0;0.00589141858352
248722000000;27;248722000000;map;6.55444118541;-0.0364119738469;0.0;0.0;0.0;-0.00139512434475;0.999999026814;0.00955771305384;-0.0136123814934;0.0;0.0;0.0;0.0;-0.0136123814934;0.0428326959065;0.0;0.0;0.0;0.0;0.0;0.0;0.0;0.0;0.0;0.0;0.0;0.0;0.0;0.0;0.0;0.0;0.0;0.0;0.0;0.0;0.0;0.0;0.0;0.0;0.0;0.0;0.0;0.00391469637302
249241000000;28;249241000000;map;6.81648967978;-0.03545827898;0.0;0.0;0.0;-0.00145631052934;0.999998939579;0.00663250109916;-0.00543731056109;0.0;0.0;0.0;0.0;-0.00543731056109;0.0228535648279;0.0;0.0;0.0;0.0;0.0;0.0;0.0;0.0;0.0;0.0;0.0;0.0;0.0;0.0;0.0;0.0;0.0;0.0;0.0;0.0;0.0;0.0;0.0;0.0;0.0;0.0;0.0;0.00257636869419
249750000000;29;249750000000;map;7.07760345815;-0.0353559147341;0.0;0.0;0.0;-0.00111718265033;0.999999375951;0.00549132818257;-7.50801186414e-05;0.0;0.0;0.0;0.0;-7.50801186413e-05;0.00263855339342;0.0;0.0;0.0;0.0;0.0;0.0;0.0;0.0;0.0;0.0;0.0;0.0;0.0;0.0;0.0;0.0;0.0;0.0;0.0;0.0;0.0;0.0;0.0;0.0;0.0;0.0;0.0;0.00118540087902
250254000000;30;250254000000;map;7.33327662704;-0.0347279966009;0.0;0.0;0.0;-0.000794945391586;0.999999684031;0.00580372346712;-0.000102095337362;0.0;0.0;0.0;0.0;-0.000102095337362;0.00257130020179;0.0;0.0;0.0;0.0;0.0;0.0;0.0;0.0;0.0;0.0;0.0;0.0;0.0;0.0;0.0;0.0;0.0;0.0;0.0;0.0;0.0;0.0;0.0;0.0;0.0;0.0;0.0;0.0011537739109
250771000000;31;250771000000;map;7.59635306966;-0.0349722546197;0.0;0.0;0.0;-0.000420729727842;0.999999911493;0.00606836186294;-0.000107812247282;0.0;0.0;0.0;0.0;-0.000107812247282;0.00260477718709;0.0;0.0;0.0;0.0;0.0;0.0;0.0;0.0;0.0;0.0;0.0;0.0;0.0;0.0;0.0;0.0;0.0;0.0;0.0;0.0;0.0;0.0;0.0;0.0;0.0;0.0;0.0;0.00111870648305
251272000000;32;251272000000;map;7.85048785845;-0.0350215388709;0.0;0.0;0.0;-9.17362266199e-05;0.999999995792;0.00613028118568;-0.000115177966096;0.0;0.0;0.0;0.0;-0.000115177966096;0.00264955717034;0.0;0.0;0.0;0.0;0.0;0.0;0.0;0.0;0.0;0.0;0.0;0.0;0.0;0.0;0.0;0.0;0.0;0.0;0.0;0.0;0.0;0.0;0.0;0.0;0.0;0.0;0.0;0.00106303769292
251772000000;33;251772000000;map;8.10495608245;-0.0346089885367;0.0;0.0;0.0;-0.000423742170889;0.999999910221;0.00637243489069;-0.000107613764784;0.0;0.0;0.0;0.0;-0.000107613764784;0.00265376921808;0.0;0.0;0.0;0.0;0.0;0.0;0.0;0.0;0.0;0.0;0.0;0.0;0.0;0.0;0.0;0.0;0.0;0.0;0.0;0.0;0.0;0.0;0.0;0.0;0.0;0.0;0.0;0.00100864322446
252291000000;34;252291000000;map;8.3698215819;-0.0350971719644;0.0;0.0;0.0;-0.000741124571865;0.999999725367;0.00672163389956;-0.000222345846738;0.0;0.0;0.0;0.0;-0.000222345846738;0.00255508759872;0.0;0.0;0.0;0.0;0.0;0.0;0.0;0.0;0.0;0.0;0.0;0.0;0.0;0.0;0.0;0.0;0.0;0.0;0.0;0.0;0.0;0.0;0.0;0.0;0.0;0.0;0.0;0.00104714101032
252796000000;35;252796000000;map;8.62512554418;-0.0350533151248;0.0;0.0;0.0;-0.00105124800423;0.999999447439;0.00703895556411;-0.000204033713021;0.0;0.0;0.0;0.0;-0.000204033713021;0.00252972198569;0.0;0.0;0.0;0.0;0.0;0.0;0.0;0.0;0.0;0.0;0.0;0.0;0.0;0.0;0.0;0.0;0.0;0.0;0.0;0.0;0.0;0.0;0.0;0.0;0.0;0.0;0.0;0.00103064127425
253297000000;36;253297000000;map;8.880429075;-0.034952485757;0.0;0.0;0.0;-0.000995051986291;0.999999504936;0.00731368149943;-0.000209608513548;0.0;0.0;0.0;0.0;-0.000209608513548;0.00250656915145;0.0;0.0;0.0;0.0;0.0;0.0;0.0;0.0;0.0;0.0;0.0;0.0;0.0;0.0;0.0;0.0;0.0;0.0;0.0;0.0;0.0;0.0;0.0;0.0;0.0;0.0;0.0;0.000912470739681
253800000000;37;253800000000;map;9.13733420259;-0.0358571349736;0.0;0.0;0.0;-0.000689501866671;0.999999762294;0.00771878996052;-0.000190337992662;0.0;0.0;0.0;0.0;-0.000190337992662;0.0024228254017;0.0;0.0;0.0;0.0;0.0;0.0;0.0;0.0;0.0;0.0;0.0;0.0;0.0;0.0;0.0;0.0;0.0;0.0;0.0;0.0;0.0;0.0;0.0;0.0;0.0;0.0;0.0;0.000902059543485
254303000000;38;254303000000;map;9.39297505316;-0.0347713002798;0.0;0.0;0.0;-0.000578205761678;0.999999832839;0.00789298471308;-0.000206773291066;0.0;0.0;0.0;0.0;-0.000206773291066;0.00244586439776;0.0;0.0;0.0;0.0;0.0;0.0;0.0;0.0;0.0;0.0;0.0;0.0;0.0;0.0;0.0;0.0;0.0;0.0;0.0;0.0;0.0;0.0;0.0;0.0;0.0;0.0;0.0;0.000897951126248
254824000000;39;254824000000;map;9.66084227236;-0.0353576015876;0.0;0.0;0.0;-0.000705999636112;0.999999750782;0.00789535487861;-0.000223452045933;0.0;0.0;0.0;0.0;-0.000223452045933;0.00234834586065;0.0;0.0;0.0;0.0;0.0;0.0;0.0;0.0;0.0;0.0;0.0;0.0;0.0;0.0;0.0;0.0;0.0;0.0;0.0;0.0;0.0;0.0;0.0;0.0;0.0;0.0;0.0;0.000924067910744
255330000000;40;255330000000;map;9.91918002557;-0.0358018638516;0.0;0.0;0.0;-0.000258384908331;0.999999966619;0.00780994213056;-0.000187324949688;0.0;0.0;0.0;0.0;-0.000187324949688;0.00246448369207;0.0;0.0;0.0;0.0;0.0;0.0;0.0;0.0;0.0;0.0;0.0;0.0;0.0;0.0;0.0;0.0;0.0;0.0;0.0;0.0;0.0;0.0;0.0;0.0;0.0;0.0;0.0;0.000914906483656
255834000000;41;255834000000;map;10.1760008035;-0.0366019502915;0.0;0.0;0.0;-0.000434449734762;0.999999905627;0.00788981830759;-0.000198856378413;0.0;0.0;0.0;0.0;-0.000198856378413;0.00250562240442;0.0;0.0;0.0;0.0;0.0;0.0;0.0;0.0;0.0;0.0;0.0;0.0;0.0;0.0;0.0;0.0;0.0;0.0;0.0;0.0;0.0;0.0;0.0;0.0;0.0;0.0;0.0;0.000899417716779
256343000000;42;256343000000;map;10.4349559865;-0.0371746408418;0.0;0.0;0.0;-0.00018585548196;0.999999982729;0.00795709549482;-0.00020375202954;0.0;0.0;0.0;0.0;-0.00020375202954;0.00255936951968;0.0;0.0;0.0;0.0;0.0;0.0;0.0;0.0;0.0;0.0;0.0;0.0;0.0;0.0;0.0;0.0;0.0;0.0;0.0;0.0;0.0;0.0;0.0;0.0;0.0;0.0;0.0;0.000962925224264
256862000000;43;256862000000;map;10.6980100426;-0.0368304626224;0.0;0.0;0.0;-0.000290563214942;0.999999957787;0.00787289101639;-0.000197105037699;0.0;0.0;0.0;0.0;-0.000197105037699;0.00259630004415;0.0;0.0;0.0;0.0;0.0;0.0;0.0;0.0;0.0;0.0;0.0;0.0;0.0;0.0;0.0;0.0;0.0;0.0;0.0;0.0;0.0;0.0;0.0;0.0;0.0;0.0;0.0;0.00102295156155
257368000000;44;257368000000;map;10.954773049;-0.0372215416817;0.0;0.0;0.0;-0.000372851621353;0.999999930491;0.00813501850308;-0.000180369588931;0.0;0.0;0.0;0.0;-0.000180369588931;0.00255810611328;0.0;0.0;0.0;0.0;0.0;0.0;0.0;0.0;0.0;0.0;0.0;0.0;0.0;0.0;0.0;0.0;0.0;0.0;0.0;0.0;0.0;0.0;0.0;0.0;0.0;0.0;0.0;0.00101994044258
257876000000;45;257876000000;map;11.2144668823;-0.0377557313224;0.0;0.0;0.0;4.50073428738e-05;0.999999998987;0.008323808195;-0.000243362016231;0.0;0.0;0.0;0.0;-0.000243362016231;0.00258679092178;0.0;0.0;0.0;0.0;0.0;0.0;0.0;0.0;0.0;0.0;0.0;0.0;0.0;0.0;0.0;0.0;0.0;0.0;0.0;0.0;0.0;0.0;0.0;0.0;0.0;0.0;0.0;0.00105894578906
258376000000;46;258376000000;map;11.4702636228;-0.0380243494028;0.0;0.0;0.0;0.000124263668915;0.999999992279;0.00829564881093;-0.000224829305555;0.0;0.0;0.0;0.0;-0.000224829305555;0.00270348091206;0.0;0.0;0.0;0.0;0.0;0.0;0.0;0.0;0.0;0.0;0.0;0.0;0.0;0.0;0.0;0.0;0.0;0.0;0.0;0.0;0.0;0.0;0.0;0.0;0.0;0.0;0.0;0.0011107822455
258880000000;47;258880000000;map;11.7276199228;-0.0395421512486;0.0;0.0;0.0;-0.000236881574736;0.999999971944;0.00827111988167;-0.000211667432777;0.0;0.0;0.0;0.0;-0.000211667432777;0.00277646521498;0.0;0.0;0.0;0.0;0.0;0.0;0.0;0.0;0.0;0.0;0.0;0.0;0.0;0.0;0.0;0.0;0.0;0.0;0.0;0.0;0.0;0.0;0.0;0.0;0.0;0.0;0.0;0.00108735129035
259388000000;48;259388000000;map;11.9864444443;-0.0394586107727;0.0;0.0;0.0;-0.000445353872162;0.99999990083;0.00805237023246;-0.000173507352341;0.0;0.0;0.0;0.0;-0.000173507352341;0.00271169401923;0.0;0.0;0.0;0.0;0.0;0.0;0.0;0.0;0.0;0.0;0.0;0.0;0.0;0.0;0.0;0.0;0.0;0.0;0.0;0.0;0.0;0.0;0.0;0.0;0.0;0.0;0.0;0.00114954245001
259890000000;49;259890000000;map;12.2426063444;-0.0397446423599;0.0;0.0;0.0;-0.00053543104749;0.999999856657;0.00789446233443;-0.000192680533544;0.0;0.0;0.0;0.0;-0.000192680533544;0.0026549598306;0.0;0.0;0.0;0.0;0.0;0.0;0.0;0.0;0.0;0.0;0.0;0.0;0.0;0.0;0.0;0.0;0.0;0.0;0.0;0.0;0.0;0.0;0.0;0.0;0.0;0.0;0.0;0.00114359934247
260391000000;50;260391000000;map;12.497175009;-0.0403021952621;0.0;0.0;0.0;-0.000805190883883;0.999999675834;0.00813116792159;-0.000184070919828;0.0;0.0;0.0;0.0;-0.000184070919828;0.00254075249312;0.0;0.0;0.0;0.0;0.0;0.0;0.0;0.0;0.0;0.0;0.0;0.0;0.0;0.0;0.0;0.0;0.0;0.0;0.0;0.0;0.0;0.0;0.0;0.0;0.0;0.0;0.0;0.00110562523911
260897000000;51;260897000000;map;12.7546313466;-0.0419865058544;0.0;0.0;0.0;-0.000665890154424;0.999999778295;0.00806479705099;-0.000259261915064;0.0;0.0;0.0;0.0;-0.000259261915064;0.00255956205329;0.0;0.0;0.0;0.0;0.0;0.0;0.0;0.0;0.0;0.0;0.0;0.0;0.0;0.0;0.0;0.0;0.0;0.0;0.0;0.0;0.0;0.0;0.0;0.0;0.0;0.0;0.0;0.00115452807993
261403000000;52;261403000000;map;13.0129976866;-0.042453291646;0.0;0.0;0.0;-0.000580514326608;0.999999831502;0.0080527550337;-0.000142622893337;0.0;0.0;0.0;0.0;-0.000142622893336;0.00257579044424;0.0;0.0;0.0;0.0;0.0;0.0;0.0;0.0;0.0;0.0;0.0;0.0;0.0;0.0;0.0;0.0;0.0;0.0;0.0;0.0;0.0;0.0;0.0;0.0;0.0;0.0;0.0;0.00122170754911
261904000000;53;261904000000;map;13.2688241483;-0.0416762430507;0.0;0.0;0.0;-0.000246111858095;0.999999969714;0.00802149282532;-0.000143504095408;0.0;0.0;0.0;0.0;-0.000143504095408;0.00270735972774;0.0;0.0;0.0;0.0;0.0;0.0;0.0;0.0;0.0;0.0;0.0;0.0;0.0;0.0;0.0;0.0;0.0;0.0;0.0;0.0;0.0;0.0;0.0;0.0;0.0;0.0;0.0;0.00127124902447
262410000000;54;262410000000;map;13.5280652433;-0.0412825046402;0.0;0.0;0.0;-0.000126876235127;0.999999991951;0.00784041192193;-9.09570416476e-05;0.0;0.0;0.0;0.0;-9.09570416476e-05;0.00275978844699;0.0;0.0;0.0;0.0;0.0;0.0;0.0;0.0;0.0;0.0;0.0;0.0;0.0;0.0;0.0;0.0;0.0;0.0;0.0;0.0;0.0;0.0;0.0;0.0;0.0;0.0;0.0;0.00128931237733
262911000000;55;262911000000;map;13.78144197;-0.0416212410949;0.0;0.0;0.0;0.000154757773632;0.999999988025;0.0077173185588;-9.0991522195e-05;0.0;0.0;0.0;0.0;-9.0991522195e-05;0.00284033934791;0.0;0.0;0.0;0.0;0.0;0.0;0.0;0.0;0.0;0.0;0.0;0.0;0.0;0.0;0.0;0.0;0.0;0.0;0.0;0.0;0.0;0.0;0.0;0.0;0.0;0.0;0.0;0.00128363797708
263413000000;56;263413000000;map;14.0387078864;-0.0415886182231;0.0;0.0;0.0;0.000293358075038;0.999999956971;0.0074235118345;-0.000131062523842;0.0;0.0;0.0;0.0;-0.000131062523842;0.00291826895129;0.0;0.0;0.0;0.0;0.0;0.0;0.0;0.0;0.0;0.0;0.0;0.0;0.0;0.0;0.0;0.0;0.0;0.0;0.0;0.0;0.0;0.0;0.0;0.0;0.0;0.0;0.0;0.00129967439294
263915000000;57;263915000000;map;14.2935328388;-0.0418784576312;0.0;0.0;0.0;0.000259959977917;0.99999996621;0.00707284274168;-3.06370837684e-05;0.0;0.0;0.0;0.0;-3.06370837684e-05;0.00293740540857;0.0;0.0;0.0;0.0;0.0;0.0;0.0;0.0;0.0;0.0;0.0;0.0;0.0;0.0;0.0;0.0;0.0;0.0;0.0;0.0;0.0;0.0;0.0;0.0;0.0;0.0;0.0;0.00128479893759
264419000000;58;264419000000;map;14.5495586713;-0.0416535588056;0.0;0.0;0.0;0.000190960482529;0.999999981767;0.00726496816588;-6.86642854097e-05;0.0;0.0;0.0;0.0;-6.86642854097e-05;0.00306422473439;0.0;0.0;0.0;0.0;0.0;0.0;0.0;0.0;0.0;0.0;0.0;0.0;0.0;0.0;0.0;0.0;0.0;0.0;0.0;0.0;0.0;0.0;0.0;0.0;0.0;0.0;0.0;0.0012966553304
264940000000;59;264940000000;map;14.8157681287;-0.0426873795154;0.0;0.0;0.0;0.000147185051464;0.999999989168;0.00706203720276;-0.000173956640479;0.0;0.0;0.0;0.0;-0.000173956640479;0.00315003885347;0.0;0.0;0.0;0.0;0.0;0.0;0.0;0.0;0.0;0.0;0.0;0.0;0.0;0.0;0.0;0.0;0.0;0.0;0.0;0.0;0.0;0.0;0.0;0.0;0.0;0.0;0.0;0.00132397082158
265455000000;60;265455000000;map;15.0767819728;-0.0440985614705;0.0;0.0;0.0;-4.8408862015e-06;0.999999999988;0.00701284520122;-0.000280052952898;0.0;0.0;0.0;0.0;-0.000280052952898;0.00318545813747;0.0;0.0;0.0;0.0;0.0;0.0;0.0;0.0;0.0;0.0;0.0;0.0;0.0;0.0;0.0;0.0;0.0;0.0;0.0;0.0;0.0;0.0;0.0;0.0;0.0;0.0;0.0;0.00135921860163
265957000000;61;265957000000;map;15.3319010705;-0.0452124707392;0.0;0.0;0.0;8.59669244328e-05;0.999999996305;0.00693549590309;-0.000362880973087;0.0;0.0;0.0;0.0;-0.000362880973087;0.00327929740348;0.0;0.0;0.0;0.0;0.0;0.0;0.0;0.0;0.0;0.0;0.0;0.0;0.0;0.0;0.0;0.0;0.0;0.0;0.0;0.0;0.0;0.0;0.0;0.0;0.0;0.0;0.0;0.0013029984734
266465000000;62;266465000000;map;15.5921924096;-0.0465153355054;0.0;0.0;0.0;-7.32362363625e-06;0.999999999973;0.00688151613514;-0.000500517789457;0.0;0.0;0.0;0.0;-0.000500517789457;0.00348011995795;0.0;0.0;0.0;0.0;0.0;0.0;0.0;0.0;0.0;0.0;0.0;0.0;0.0;0.0;0.0;0.0;0.0;0.0;0.0;0.0;0.0;0.0;0.0;0.0;0.0;0.0;0.0;0.00135813843181
266966000000;63;266966000000;map;15.8485028461;-0.0477549220451;0.0;0.0;0.0;-0.000126094218316;0.99999999205;0.00666947819619;-0.000556674740936;0.0;0.0;0.0;0.0;-0.000556674740936;0.00352204060513;0.0;0.0;0.0;0.0;0.0;0.0;0.0;0.0;0.0;0.0;0.0;0.0;0.0;0.0;0.0;0.0;0.0;0.0;0.0;0.0;0.0;0.0;0.0;0.0;0.0;0.0;0.0;0.00133636655392
267471000000;64;267471000000;map;16.1050000673;-0.0480673956319;0.0;0.0;0.0;0.000324832510436;0.999999947242;0.00644553455953;-0.000421625379785;0.0;0.0;0.0;0.0;-0.000421625379785;0.00356945917575;0.0;0.0;0.0;0.0;0.0;0.0;0.0;0.0;0.0;0.0;0.0;0.0;0.0;0.0;0.0;0.0;0.0;0.0;0.0;0.0;0.0;0.0;0.0;0.0;0.0;0.0;0.0;0.00131362157642
267972000000;65;267972000000;map;16.3601044085;-0.047971715928;0.0;0.0;0.0;0.000679659463553;0.999999769031;0.006557031412;-0.000479269203181;0.0;0.0;0.0;0.0;-0.000479269203181;0.00366998102362;0.0;0.0;0.0;0.0;0.0;0.0;0.0;0.0;0.0;0.0;0.0;0.0;0.0;0.0;0.0;0.0;0.0;0.0;0.0;0.0;0.0;0.0;0.0;0.0;0.0;0.0;0.0;0.00125588010266
268473000000;66;268473000000;map;16.6143817014;-0.0488273251219;0.0;0.0;0.0;0.000853316298022;0.999999635926;0.00642437595985;-0.000419196913044;0.0;0.0;0.0;0.0;-0.000419196913044;0.00392637612188;0.0;0.0;0.0;0.0;0.0;0.0;0.0;0.0;0.0;0.0;0.0;0.0;0.0;0.0;0.0;0.0;0.0;0.0;0.0;0.0;0.0;0.0;0.0;0.0;0.0;0.0;0.0;0.00125655361328
268981000000;67;268981000000;map;16.8739958537;-0.0488758313164;0.0;0.0;0.0;0.000407999481122;0.999999916768;0.00627040982386;-0.000432251013048;0.0;0.0;0.0;0.0;-0.000432251013048;0.0040494461781;0.0;0.0;0.0;0.0;0.0;0.0;0.0;0.0;0.0;0.0;0.0;0.0;0.0;0.0;0.0;0.0;0.0;0.0;0.0;0.0;0.0;0.0;0.0;0.0;0.0;0.0;0.0;0.00126006550845
269494000000;68;269494000000;map;17.1370190078;-0.0503641849778;0.0;0.0;0.0;-0.000130611407615;0.99999999147;0.00599859087458;-0.00042101902601;0.0;0.0;0.0;0.0;-0.00042101902601;0.00410698790069;0.0;0.0;0.0;0.0;0.0;0.0;0.0;0.0;0.0;0.0;0.0;0.0;0.0;0.0;0.0;0.0;0.0;0.0;0.0;0.0;0.0;0.0;0.0;0.0;0.0;0.0;0.0;0.00128486832194
269996000000;69;269996000000;map;17.3929943434;-0.0518857622069;0.0;0.0;0.0;-0.000306776545067;0.999999952944;0.00593724506888;-0.000466690197575;0.0;0.0;0.0;0.0;-0.000466690197575;0.00415821350101;0.0;0.0;0.0;0.0;0.0;0.0;0.0;0.0;0.0;0.0;0.0;0.0;0.0;0.0;0.0;0.0;0.0;0.0;0.0;0.0;0.0;0.0;0.0;0.0;0.0;0.0;0.0;0.00117907185734
270496000000;70;270496000000;map;17.6478843031;-0.0533245179286;0.0;0.0;0.0;-0.000366496831766;0.99999993284;0.0056049810197;-0.000382831893396;0.0;0.0;0.0;0.0;-0.000382831893396;0.00419616175091;0.0;0.0;0.0;0.0;0.0;0.0;0.0;0.0;0.0;0.0;0.0;0.0;0.0;0.0;0.0;0.0;0.0;0.0;0.0;0.0;0.0;0.0;0.0;0.0;0.0;0.0;0.0;0.00108519921443
271011000000;71;271011000000;map;17.9076857919;-0.0566827580808;0.0;0.0;0.0;-0.000826680013981;0.9999996583;0.00547870117845;-0.000227581928743;0.0;0.0;0.0;0.0;-0.000227581928743;0.00420192713051;0.0;0.0;0.0;0.0;0.0;0.0;0.0;0.0;0.0;0.0;0.0;0.0;0.0;0.0;0.0;0.0;0.0;0.0;0.0;0.0;0.0;0.0;0.0;0.0;0.0;0.0;0.0;0.00107169579716
271532000000;72;271532000000;map;18.1702402555;-0.0589269200713;0.0;0.0;0.0;-0.000697324686519;0.999999756869;0.00535343876498;-0.000156982619976;0.0;0.0;0.0;0.0;-0.000156982619976;0.00412553340608;0.0;0.0;0.0;0.0;0.0;0.0;0.0;0.0;0.0;0.0;0.0;0.0;0.0;0.0;0.0;0.0;0.0;0.0;0.0;0.0;0.0;0.0;0.0;0.0;0.0;0.0;0.0;0.00101163911313
272037000000;73;272037000000;map;18.4256576521;-0.0607743912415;0.0;0.0;0.0;-0.000250711421348;0.999999968572;0.00521673776979;-0.000138423727016;0.0;0.0;0.0;0.0;-0.000138423727016;0.00407196027895;0.0;0.0;0.0;0.0;0.0;0.0;0.0;0.0;0.0;0.0;0.0;0.0;0.0;0.0;0.0;0.0;0.0;0.0;0.0;0.0;0.0;0.0;0.0;0.0;0.0;0.0;0.0;0.00100697741584
272542000000;74;272542000000;map;18.6781852712;-0.0640025750738;0.0;0.0;0.0;-0.00077009526294;0.999999703477;0.00528529000798;-0.000212186196062;0.0;0.0;0.0;0.0;-0.000212186196062;0.00400657825197;0.0;0.0;0.0;0.0;0.0;0.0;0.0;0.0;0.0;0.0;0.0;0.0;0.0;0.0;0.0;0.0;0.0;0.0;0.0;0.0;0.0;0.0;0.0;0.0;0.0;0.0;0.0;0.00102115451493
273048000000;75;273048000000;map;18.9302670796;-0.0666393752006;0.0;0.0;0.0;-0.00143792859041;0.99999896618;0.00526778344789;-0.000280641636917;0.0;0.0;0.0;0.0;-0.000280641636917;0.00389749522529;0.0;0.0;0.0;0.0;0.0;0.0;0.0;0.0;0.0;0.0;0.0;0.0;0.0;0.0;0.0;0.0;0.0;0.0;0.0;0.0;0.0;0.0;0.0;0.0;0.0;0.0;0.0;0.000997570996489
273550000000;76;273550000000;map;19.1834345599;-0.0687694778588;0.0;0.0;0.0;-0.00143023996613;0.999998977206;0.0055210663179;-0.000226694789579;0.0;0.0;0.0;0.0;-0.000226694789579;0.00382064977864;0.0;0.0;0.0;0.0;0.0;0.0;0.0;0.0;0.0;0.0;0.0;0.0;0.0;0.0;0.0;0.0;0.0;0.0;0.0;0.0;0.0;0.0;0.0;0.0;0.0;0.0;0.0;0.000994285021995
274070000000;77;274070000000;map;19.4422721058;-0.0719999134661;0.0;0.0;0.0;-0.00163375210853;0.999998665426;0.00571138555802;-0.000219010346239;0.0;0.0;0.0;0.0;-0.000219010346239;0.00379388181346;0.0;0.0;0.0;0.0;0.0;0.0;0.0;0.0;0.0;0.0;0.0;0.0;0.0;0.0;0.0;0.0;0.0;0.0;0.0;0.0;0.0;0.0;0.0;0.0;0.0;0.0;0.0;0.00106680024125
274579000000;78;274579000000;map;19.6973048765;-0.0735786981738;0.0;0.0;0.0;-0.00195540876164;0.999998088186;0.00554481090757;-0.00013418311776;0.0;0.0;0.0;0.0;-0.00013418311776;0.00367624286666;0.0;0.0;0.0;0.0;0.0;0.0;0.0;0.0;0.0;0.0;0.0;0.0;0.0;0.0;0.0;0.0;0.0;0.0;0.0;0.0;0.0;0.0;0.0;0.0;0.0;0.0;0.0;0.00111001659029
275087000000;79;275087000000;map;19.9531644631;-0.0772457100766;0.0;0.0;0.0;-0.00202837961453;0.999997942836;0.0054670876342;-6.8477712154e-05;0.0;0.0;0.0;0.0;-6.8477712154e-05;0.00355455115075;0.0;0.0;0.0;0.0;0.0;0.0;0.0;0.0;0.0;0.0;0.0;0.0;0.0;0.0;0.0;0.0;0.0;0.0;0.0;0.0;0.0;0.0;0.0;0.0;0.0;0.0;0.0;0.00116813172266
275605000000;80;275605000000;map;20.2130932839;-0.0803312101292;0.0;0.0;0.0;-0.00192131608969;0.999998154271;0.00548545277564;-5.76027989698e-05;0.0;0.0;0.0;0.0;-5.76027989698e-05;0.00370013661075;0.0;0.0;0.0;0.0;0.0;0.0;0.0;0.0;0.0;0.0;0.0;0.0;0.0;0.0;0.0;0.0;0.0;0.0;0.0;0.0;0.0;0.0;0.0;0.0;0.0;0.0;0.0;0.00125991142098
276109000000;81;276109000000;map;20.4646611221;-0.0839811938744;0.0;0.0;0.0;-0.00271329531558;0.999996319007;0.00541218645833;7.18626291782e-05;0.0;0.0;0.0;0.0;7.18626291782e-05;0.00357799895188;0.0;0.0;0.0;0.0;0.0;0.0;0.0;0.0;0.0;0.0;0.0;0.0;0.0;0.0;0.0;0.0;0.0;0.0;0.0;0.0;0.0;0.0;0.0;0.0;0.0;0.0;0.0;0.00129215853724
276617000000;82;276617000000;map;20.718570646;-0.0878938044941;0.0;0.0;0.0;-0.0033146942327;0.999994506386;0.00553455075112;0.000132183235036;0.0;0.0;0.0;0.0;0.000132183235036;0.00367599134595;0.0;0.0;0.0;0.0;0.0;0.0;0.0;0.0;0.0;0.0;0.0;0.0;0.0;0.0;0.0;0.0;0.0;0.0;0.0;0.0;0.0;0.0;0.0;0.0;0.0;0.0;0.0;0.00134087772782
277120000000;83;277120000000;map;20.9696180223;-0.0916245322934;0.0;0.0;0.0;-0.00383637775783;0.999992641076;0.00579087219666;9.51306797792e-05;0.0;0.0;0.0;0.0;9.5130679779e-05;0.00359621873923;0.0;0.0;0.0;0.0;0.0;0.0;0.0;0.0;0.0;0.0;0.0;0.0;0.0;0.0;0.0;0.0;0.0;0.0;0.0;0.0;0.0;0.0;0.0;0.0;0.0;0.0;0.0;0.0013150567781
277640000000;84;277640000000;map;21.228855936;-0.0956487472489;0.0;0.0;0.0;-0.00458337744499;0.99998949627;0.00602178539361;0.000139147258774;0.0;0.0;0.0;0.0;0.000139147258774;0.00356958188145;0.0;0.0;0.0;0.0;0.0;0.0;0.0;0.0;0.0;0.0;0.0;0.0;0.0;0.0;0.0;0.0;0.0;0.0;0.0;0.0;0.0;0.0;0.0;0.0;0.0;0.0;0.0;0.0013145877034
278165000000;85;278165000000;map;21.4935567951;-0.0993349643193;0.0;0.0;0.0;-0.00505259675275;0.999987235552;0.00604959405229;0.000240203657752;0.0;0.0;0.0;0.0;0.000240203657752;0.00332350985146;0.0;0.0;0.0;0.0;0.0;0.0;0.0;0.0;0.0;0.0;0.0;0.0;0.0;0.0;0.0;0.0;0.0;0.0;0.0;0.0;0.0;0.0;0.0;0.0;0.0;0.0;0.0;0.00125361903604
278667000000;86;278667000000;map;21.7428071793;-0.102287970784;0.0;0.0;0.0;-0.00537844086733;0.999985536082;0.00617470390654;0.000269600660055;0.0;0.0;0.0;0.0;0.000269600660055;0.00341956473323;0.0;0.0;0.0;0.0;0.0;0.0;0.0;0.0;0.0;0.0;0.0;0.0;0.0;0.0;0.0;0.0;0.0;0.0;0.0;0.0;0.0;0.0;0.0;0.0;0.0;0.0;0.0;0.00132939583631
279175000000;87;279175000000;map;21.9969957515;-0.104966430402;0.0;0.0;0.0;-0.00531946621241;0.99998585154;0.00629444168493;0.000268514087266;0.0;0.0;0.0;0.0;0.000268514087267;0.00351673465832;0.0;0.0;0.0;0.0;0.0;0.0;0.0;0.0;0.0;0.0;0.0;0.0;0.0;0.0;0.0;0.0;0.0;0.0;0.0;0.0;0.0;0.0;0.0;0.0;0.0;0.0;0.0;0.00130210034597
279679000000;88;279679000000;map;22.2494197344;-0.108270076916;0.0;0.0;0.0;-0.00546516587268;0.999985065869;0.00635323584453;0.000308335890555;0.0;0.0;0.0;0.0;0.000308335890555;0.00345100681905;0.0;0.0;0.0;0.0;0.0;0.0;0.0;0.0;0.0;0.0;0.0;0.0;0.0;0.0;0.0;0.0;0.0;0.0;0.0;0.0;0.0;0.0;0.0;0.0;0.0;0.0;0.0;0.00132441328862
280185000000;89;280185000000;map;22.5013807939;-0.11311646066;0.0;0.0;0.0;-0.00611516712362;0.999981302191;0.00635729337262;0.000261303800143;0.0;0.0;0.0;0.0;0.000261303800144;0.00361231961376;0.0;0.0;0.0;0.0;0.0;0.0;0.0;0.0;0.0;0.0;0.0;0.0;0.0;0.0;0.0;0.0;0.0;0.0;0.0;0.0;0.0;0.0;0.0;0.0;0.0;0.0;0.0;0.00140134578232
280690000000;90;280690000000;map;22.7539475966;-0.117409384075;0.0;0.0;0.0;-0.00634193096791;0.999979889754;0.00634134255392;0.000228277189739;0.0;0.0;0.0;0.0;0.000228277189739;0.00367585490127;0.0;0.0;0.0;0.0;0.0;0.0;0.0;0.0;0.0;0.0;0.0;0.0;0.0;0.0;0.0;0.0;0.0;0.0;0.0;0.0;0.0;0.0;0.0;0.0;0.0;0.0;0.0;0.00138323141677
281193000000;91;281193000000;map;23.0045363011;-0.120431837765;0.0;0.0;0.0;-0.00600045427166;0.999981997112;0.00648531996364;0.000189739510178;0.0;0.0;0.0;0.0;0.000189739510177;0.00363559360201;0.0;0.0;0.0;0.0;0.0;0.0;0.0;0.0;0.0;0.0;0.0;0.0;0.0;0.0;0.0;0.0;0.0;0.0;0.0;0.0;0.0;0.0;0.0;0.0;0.0;0.0;0.0;0.00132812997659
281700000000;92;281700000000;map;23.2585791939;-0.123734372107;0.0;0.0;0.0;-0.00575909181188;0.999983416293;0.00650784035827;0.000133763841665;0.0;0.0;0.0;0.0;0.000133763841665;0.00356788364661;0.0;0.0;0.0;0.0;0.0;0.0;0.0;0.0;0.0;0.0;0.0;0.0;0.0;0.0;0.0;0.0;0.0;0.0;0.0;0.0;0.0;0.0;0.0;0.0;0.0;0.0;0.0;0.00126638990589
282204000000;93;282204000000;map;23.5094957491;-0.126311556382;0.0;0.0;0.0;-0.00576038638116;0.999983408837;0.00652372860213;0.000251239713981;0.0;0.0;0.0;0.0;0.00025123971398;0.00356611386316;0.0;0.0;0.0;0.0;0.0;0.0;0.0;0.0;0.0;0.0;0.0;0.0;0.0;0.0;0.0;0.0;0.0;0.0;0.0;0.0;0.0;0.0;0.0;0.0;0.0;0.0;0.0;0.00122729854892
282708000000;94;282708000000;map;23.7603578107;-0.129853087788;0.0;0.0;0.0;-0.00551373581529;0.999984799243;0.00651529567574;0.000330582124284;0.0;0.0;0.0;0.0;0.000330582124285;0.00353277986984;0.0;0.0;0.0;0.0;0.0;0.0;0.0;0.0;0.0;0.0;0.0;0.0;0.0;0.0;0.0;0.0;0.0;0.0;0.0;0.0;0.0;0.0;0.0;0.0;0.0;0.0;0.0;0.00119671573742
283216000000;95;283216000000;map;24.0144953448;-0.132461692312;0.0;0.0;0.0;-0.00493540798386;0.9999878208;0.00650843109872;0.000370770500342;0.0;0.0;0.0;0.0;0.000370770500342;0.00356510658091;0.0;0.0;0.0;0.0;0.0;0.0;0.0;0.0;0.0;0.0;0.0;0.0;0.0;0.0;0.0;0.0;0.0;0.0;0.0;0.0;0.0;0.0;0.0;0.0;0.0;0.0;0.0;0.00120055409056
283718000000;96;283718000000;map;24.265450887;-0.133387574727;0.0;0.0;0.0;-0.00486518667445;0.999988164909;0.00655037786112;0.000409234557215;0.0;0.0;0.0;0.0;0.000409234557215;0.0034251385744;0.0;0.0;0.0;0.0;0.0;0.0;0.0;0.0;0.0;0.0;0.0;0.0;0.0;0.0;0.0;0.0;0.0;0.0;0.0;0.0;0.0;0.0;0.0;0.0;0.0;0.0;0.0;0.00114368274761
284238000000;97;284238000000;map;24.5257676914;-0.135083771163;0.0;0.0;0.0;-0.00487908428286;0.999988097197;0.00648938440747;0.000478926655531;0.0;0.0;0.0;0.0;0.000478926655531;0.00331379876693;0.0;0.0;0.0;0.0;0.0;0.0;0.0;0.0;0.0;0.0;0.0;0.0;0.0;0.0;0.0;0.0;0.0;0.0;0.0;0.0;0.0;0.0;0.0;0.0;0.0;0.0;0.0;0.00116227999388
284742000000;98;284742000000;map;24.7795488436;-0.135829081243;0.0;0.0;0.0;-0.00449641240254;0.999989891087;0.00664126756612;0.00044127862053;0.0;0.0;0.0;0.0;0.00044127862053;0.00341386458503;0.0;0.0;0.0;0.0;0.0;0.0;0.0;0.0;0.0;0.0;0.0;0.0;0.0;0.0;0.0;0.0;0.0;0.0;0.0;0.0;0.0;0.0;0.0;0.0;0.0;0.0;0.0;0.00120641573124
285261000000;99;285261000000;map;25.0390173383;-0.136729457208;0.0;0.0;0.0;-0.00408388447516;0.999991660909;0.00653920217303;0.000470833400647;0.0;0.0;0.0;0.0;0.000470833400647;0.00326673146084;0.0;0.0;0.0;0.0;0.0;0.0;0.0;0.0;0.0;0.0;0.0;0.0;0.0;0.0;0.0;0.0;0.0;0.0;0.0;0.0;0.0;0.0;0.0;0.0;0.0;0.0;0.0;0.00113148825457
285770000000;100;285770000000;map;25.29447855;-0.137320728265;0.0;0.0;0.0;-0.00405393799949;0.99999178276;0.00657497327359;0.000540078400603;0.0;0.0;0.0;0.0;0.000540078400603;0.00317905619611;0.0;0.0;0.0;0.0;0.0;0.0;0.0;0.0;0.0;0.0;0.0;0.0;0.0;0.0;0.0;0.0;0.0;0.0;0.0;0.0;0.0;0.0;0.0;0.0;0.0;0.0;0.0;0.00109493717347
286274000000;101;286274000000;map;25.5476806024;-0.13903373587;0.0;0.0;0.0;-0.00433473872183;0.999990604976;0.00639534628112;0.000389708491913;0.0;0.0;0.0;0.0;0.000389708491913;0.00308954346128;0.0;0.0;0.0;0.0;0.0;0.0;0.0;0.0;0.0;0.0;0.0;0.0;0.0;0.0;0.0;0.0;0.0;0.0;0.0;0.0;0.0;0.0;0.0;0.0;0.0;0.0;0.0;0.00107901116349
286779000000;102;286779000000;map;25.8024423604;-0.138342986451;0.0;0.0;0.0;-0.00398337113405;0.999992066346;0.00653937498896;0.000376572820607;0.0;0.0;0.0;0.0;0.000376572820607;0.00291237619861;0.0;0.0;0.0;0.0;0.0;0.0;0.0;0.0;0.0;0.0;0.0;0.0;0.0;0.0;0.0;0.0;0.0;0.0;0.0;0.0;0.0;0.0;0.0;0.0;0.0;0.0;0.0;0.00112918843785
287282000000;103;287282000000;map;26.0549120955;-0.138967740839;0.0;0.0;0.0;-0.00357603579864;0.999993605964;0.00653848375032;0.000327852688684;0.0;0.0;0.0;0.0;0.000327852688684;0.00272603646622;0.0;0.0;0.0;0.0;0.0;0.0;0.0;0.0;0.0;0.0;0.0;0.0;0.0;0.0;0.0;0.0;0.0;0.0;0.0;0.0;0.0;0.0;0.0;0.0;0.0;0.0;0.0;0.00106310465396
287785000000;104;287785000000;map;26.3064669515;-0.139983672068;0.0;0.0;0.0;-0.00333865714113;0.999994426669;0.00664063449642;0.000360601381202;0.0;0.0;0.0;0.0;0.000360601381202;0.00282455255413;0.0;0.0;0.0;0.0;0.0;0.0;0.0;0.0;0.0;0.0;0.0;0.0;0.0;0.0;0.0;0.0;0.0;0.0;0.0;0.0;0.0;0.0;0.0;0.0;0.0;0.0;0.0;0.00103744521385
288287000000;105;288287000000;map;26.5585063646;-0.140322765914;0.0;0.0;0.0;-0.00281038924832;0.999996050848;0.00682353287993;0.000449363554088;0.0;0.0;0.0;0.0;0.000449363554087;0.0027695871629;0.0;0.0;0.0;0.0;0.0;0.0;0.0;0.0;0.0;0.0;0.0;0.0;0.0;0.0;0.0;0.0;0.0;0.0;0.0;0.0;0.0;0.0;0.0;0.0;0.0;0.0;0.0;0.00100226897656
288808000000;106;288808000000;map;26.8186733854;-0.141652909;0.0;0.0;0.0;-0.00250832456784;0.999996854149;0.00689032513242;0.000428513622662;0.0;0.0;0.0;0.0;0.000428513622662;0.00281770088721;0.0;0.0;0.0;0.0;0.0;0.0;0.0;0.0;0.0;0.0;0.0;0.0;0.0;0.0;0.0;0.0;0.0;0.0;0.0;0.0;0.0;0.0;0.0;0.0;0.0;0.0;0.0;0.0010218509105
289327000000;107;289327000000;map;27.0771490329;-0.14318355069;0.0;0.0;0.0;-0.00246637299956;0.999996958497;0.00697350225914;0.000511221398279;0.0;0.0;0.0;0.0;0.000511221398279;0.00287796120261;0.0;0.0;0.0;0.0;0.0;0.0;0.0;0.0;0.0;0.0;0.0;0.0;0.0;0.0;0.0;0.0;0.0;0.0;0.0;0.0;0.0;0.0;0.0;0.0;0.0;0.0;0.0;0.0010127240453
289832000000;108;289832000000;map;27.3284658794;-0.144519436201;0.0;0.0;0.0;-0.00255610862983;0.999996733149;0.00694717635065;0.000521365486123;0.0;0.0;0.0;0.0;0.000521365486123;0.00283093933965;0.0;0.0;0.0;0.0;0.0;0.0;0.0;0.0;0.0;0.0;0.0;0.0;0.0;0.0;0.0;0.0;0.0;0.0;0.0;0.0;0.0;0.0;0.0;0.0;0.0;0.0;0.0;0.00097490593512
290333000000;109;290333000000;map;27.5781240436;-0.146518699539;0.0;0.0;0.0;-0.00293504923591;0.999995692734;0.00683427131582;0.00056592870889;0.0;0.0;0.0;0.0;0.00056592870889;0.00284342401641;0.0;0.0;0.0;0.0;0.0;0.0;0.0;0.0;0.0;0.0;0.0;0.0;0.0;0.0;0.0;0.0;0.0;0.0;0.0;0.0;0.0;0.0;0.0;0.0;0.0;0.0;0.0;0.000964277619543
290834000000;110;290834000000;map;27.8281732475;-0.148370427004;0.0;0.0;0.0;-0.00276225264401;0.999996184973;0.0068187248163;0.000574160486096;0.0;0.0;0.0;0.0;0.000574160486096;0.00288768315376;0.0;0.0;0.0;0.0;0.0;0.0;0.0;0.0;0.0;0.0;0.0;0.0;0.0;0.0;0.0;0.0;0.0;0.0;0.0;0.0;0.0;0.0;0.0;0.0;0.0;0.0;0.0;0.000962714117914
291351000000;111;291351000000;map;28.0845054141;-0.149600197189;0.0;0.0;0.0;-0.00276418111563;0.999996179644;0.00680344279658;0.000595433886242;0.0;0.0;0.0;0.0;0.000595433886243;0.00286032419769;0.0;0.0;0.0;0.0;0.0;0.0;0.0;0.0;0.0;0.0;0.0;0.0;0.0;0.0;0.0;0.0;0.0;0.0;0.0;0.0;0.0;0.0;0.0;0.0;0.0;0.0;0.0;0.000960134661759
291870000000;112;291870000000;map;28.3457684586;-0.151432356544;0.0;0.0;0.0;-0.00273561829009;0.999996258189;0.00680827961537;0.000630571742859;0.0;0.0;0.0;0.0;0.000630571742858;0.00289273079812;0.0;0.0;0.0;0.0;0.0;0.0;0.0;0.0;0.0;0.0;0.0;0.0;0.0;0.0;0.0;0.0;0.0;0.0;0.0;0.0;0.0;0.0;0.0;0.0;0.0;0.0;0.0;0.000948228663403
292376000000;113;292376000000;map;28.6000043393;-0.150840478386;0.0;0.0;0.0;-0.00245988742581;0.999996974472;0.00684540943212;0.000619208783997;0.0;0.0;0.0;0.0;0.000619208783997;0.00284258668534;0.0;0.0;0.0;0.0;0.0;0.0;0.0;0.0;0.0;0.0;0.0;0.0;0.0;0.0;0.0;0.0;0.0;0.0;0.0;0.0;0.0;0.0;0.0;0.0;0.0;0.0;0.0;0.000937609587211
292886000000;114;292886000000;map;28.8562649271;-0.150668285353;0.0;0.0;0.0;-0.00231115235552;0.999997329284;0.00677329161465;0.00057148029115;0.0;0.0;0.0;0.0;0.00057148029115;0.00269169890805;0.0;0.0;0.0;0.0;0.0;0.0;0.0;0.0;0.0;0.0;0.0;0.0;0.0;0.0;0.0;0.0;0.0;0.0;0.0;0.0;0.0;0.0;0.0;0.0;0.0;0.0;0.0;0.000961315634972
293398000000;115;293398000000;map;29.111420939;-0.152004574578;0.0;0.0;0.0;-0.00192775524955;0.999998141878;0.0070684369839;0.000693418204186;0.0;0.0;0.0;0.0;0.000693418204186;0.00264767991862;0.0;0.0;0.0;0.0;0.0;0.0;0.0;0.0;0.0;0.0;0.0;0.0;0.0;0.0;0.0;0.0;0.0;0.0;0.0;0.0;0.0;0.0;0.0;0.0;0.0;0.0;0.0;0.000992613344837
293918000000;116;293918000000;map;29.3719781842;-0.153527199138;0.0;0.0;0.0;-0.00258480476867;0.999996659387;0.00708763927435;0.000797269116386;0.0;0.0;0.0;0.0;0.000797269116386;0.00265448957101;0.0;0.0;0.0;0.0;0.0;0.0;0.0;0.0;0.0;0.0;0.0;0.0;0.0;0.0;0.0;0.0;0.0;0.0;0.0;0.0;0.0;0.0;0.0;0.0;0.0;0.0;0.0;0.00102674757587
294420000000;117;294420000000;map;29.6245912444;-0.154800945577;0.0;0.0;0.0;-0.00257881218576;0.999996674858;0.00713532960867;0.000812588339702;0.0;0.0;0.0;0.0;0.000812588339701;0.00267726953583;0.0;0.0;0.0;0.0;0.0;0.0;0.0;0.0;0.0;0.0;0.0;0.0;0.0;0.0;0.0;0.0;0.0;0.0;0.0;0.0;0.0;0.0;0.0;0.0;0.0;0.0;0.0;0.000999973174441
294940000000;118;294940000000;map;29.8852409457;-0.156915028201;0.0;0.0;0.0;-0.00277293921828;0.999996155397;0.00724800541423;0.000822620318182;0.0;0.0;0.0;0.0;0.000822620318182;0.00263947096636;0.0;0.0;0.0;0.0;0.0;0.0;0.0;0.0;0.0;0.0;0.0;0.0;0.0;0.0;0.0;0.0;0.0;0.0;0.0;0.0;0.0;0.0;0.0;0.0;0.0;0.0;0.0;0.000991050123763
295441000000;119;295441000000;map;30.1345902174;-0.158322114265;0.0;0.0;0.0;-0.00260821434659;0.999996598603;0.00740288267127;0.000755699059312;0.0;0.0;0.0;0.0;0.000755699059312;0.00258512396174;0.0;0.0;0.0;0.0;0.0;0.0;0.0;0.0;0.0;0.0;0.0;0.0;0.0;0.0;0.0;0.0;0.0;0.0;0.0;0.0;0.0;0.0;0.0;0.0;0.0;0.0;0.0;0.000945351964233
295943000000;120;295943000000;map;30.3851518698;-0.158527373171;0.0;0.0;0.0;-0.00239152425102;0.999997140302;0.00738011355929;0.000862188154353;0.0;0.0;0.0;0.0;0.000862188154352;0.00250070594598;0.0;0.0;0.0;0.0;0.0;0.0;0.0;0.0;0.0;0.0;0.0;0.0;0.0;0.0;0.0;0.0;0.0;0.0;0.0;0.0;0.0;0.0;0.0;0.0;0.0;0.0;0.0;0.000905428032147
296452000000;121;296452000000;map;30.6395497824;-0.160460633563;0.0;0.0;0.0;-0.00283674440404;0.999995976432;0.00737986178547;0.000829118558499;0.0;0.0;0.0;0.0;0.000829118558499;0.00252479382382;0.0;0.0;0.0;0.0;0.0;0.0;0.0;0.0;0.0;0.0;0.0;0.0;0.0;0.0;0.0;0.0;0.0;0.0;0.0;0.0;0.0;0.0;0.0;0.0;0.0;0.0;0.0;0.000951566435372
296959000000;122;296959000000;map;30.8903410452;-0.162388872736;0.0;0.0;0.0;-0.00295622933176;0.999995630345;0.00763192417025;0.000868821701999;0.0;0.0;0.0;0.0;0.000868821701999;0.00257755787427;0.0;0.0;0.0;0.0;0.0;0.0;0.0;0.0;0.0;0.0;0.0;0.0;0.0;0.0;0.0;0.0;0.0;0.0;0.0;0.0;0.0;0.0;0.0;0.0;0.0;0.0;0.0;0.00096973073402
297461000000;123;297461000000;map;31.1402537895;-0.164813134799;0.0;0.0;0.0;-0.00305963107547;0.999995319318;0.00754302252085;0.000964493546931;0.0;0.0;0.0;0.0;0.000964493546932;0.00267668377979;0.0;0.0;0.0;0.0;0.0;0.0;0.0;0.0;0.0;0.0;0.0;0.0;0.0;0.0;0.0;0.0;0.0;0.0;0.0;0.0;0.0;0.0;0.0;0.0;0.0;0.0;0.0;0.000999031022122
297964000000;124;297964000000;map;31.3907637564;-0.166660530875;0.0;0.0;0.0;-0.00268624444188;0.999996392039;0.00730533714329;0.000945503296295;0.0;0.0;0.0;0.0;0.000945503296295;0.00256502083051;0.0;0.0;0.0;0.0;0.0;0.0;0.0;0.0;0.0;0.0;0.0;0.0;0.0;0.0;0.0;0.0;0.0;0.0;0.0;0.0;0.0;0.0;0.0;0.0;0.0;0.0;0.0;0.00100792847606
298474000000;125;298474000000;map;31.6440668215;-0.168579230305;0.0;0.0;0.0;-0.00263085658635;0.999996539291;0.00728316971458;0.000976802032964;0.0;0.0;0.0;0.0;0.000976802032965;0.00248053079626;0.0;0.0;0.0;0.0;0.0;0.0;0.0;0.0;0.0;0.0;0.0;0.0;0.0;0.0;0.0;0.0;0.0;0.0;0.0;0.0;0.0;0.0;0.0;0.0;0.0;0.0;0.0;0.00100710273631
298980000000;126;298980000000;map;31.8968625167;-0.170342556261;0.0;0.0;0.0;-0.00252513051274;0.999996811853;0.00750822360999;0.00102896082089;0.0;0.0;0.0;0.0;0.00102896082089;0.00239786428973;0.0;0.0;0.0;0.0;0.0;0.0;0.0;0.0;0.0;0.0;0.0;0.0;0.0;0.0;0.0;0.0;0.0;0.0;0.0;0.0;0.0;0.0;0.0;0.0;0.0;0.0;0.0;0.00104891656943
299499000000;127;299499000000;map;32.1554826449;-0.173493775674;0.0;0.0;0.0;-0.00327871144565;0.999994625011;0.00740116929092;0.00101315388001;0.0;0.0;0.0;0.0;0.00101315388001;0.00233982230514;0.0;0.0;0.0;0.0;0.0;0.0;0.0;0.0;0.0;0.0;0.0;0.0;0.0;0.0;0.0;0.0;0.0;0.0;0.0;0.0;0.0;0.0;0.0;0.0;0.0;0.0;0.0;0.00103076108347
300000000000;128;300000000000;map;32.4052119921;-0.176694764837;0.0;0.0;0.0;-0.00279492429187;0.999996094191;0.00733095538408;0.000949502623896;0.0;0.0;0.0;0.0;0.000949502623896;0.0022392502684;0.0;0.0;0.0;0.0;0.0;0.0;0.0;0.0;0.0;0.0;0.0;0.0;0.0;0.0;0.0;0.0;0.0;0.0;0.0;0.0;0.0;0.0;0.0;0.0;0.0;0.0;0.0;0.00101423416636
300502000000;129;300502000000;map;32.655839483;-0.178762558173;0.0;0.0;0.0;-0.00276288826829;0.999996183217;0.00738728432043;0.000899983699898;0.0;0.0;0.0;0.0;0.000899983699897;0.00222383160989;0.0;0.0;0.0;0.0;0.0;0.0;0.0;0.0;0.0;0.0;0.0;0.0;0.0;0.0;0.0;0.0;0.0;0.0;0.0;0.0;0.0;0.0;0.0;0.0;0.0;0.0;0.0;0.000959318448959
301006000000;130;301006000000;map;32.9069140408;-0.179833037024;0.0;0.0;0.0;-0.00269143720946;0.999996378076;0.00747617419256;0.000972271000771;0.0;0.0;0.0;0.0;0.000972271000771;0.00233325368846;0.0;0.0;0.0;0.0;0.0;0.0;0.0;0.0;0.0;0.0;0.0;0.0;0.0;0.0;0.0;0.0;0.0;0.0;0.0;0.0;0.0;0.0;0.0;0.0;0.0;0.0;0.0;0.00101462701149
301515000000;131;301515000000;map;33.1608005665;-0.181339401276;0.0;0.0;0.0;-0.00287718123311;0.999995860906;0.0075384132781;0.000953663037981;0.0;0.0;0.0;0.0;0.000953663037981;0.00248267292312;0.0;0.0;0.0;0.0;0.0;0.0;0.0;0.0;0.0;0.0;0.0;0.0;0.0;0.0;0.0;0.0;0.0;0.0;0.0;0.0;0.0;0.0;0.0;0.0;0.0;0.0;0.0;0.00104136850229
302018000000;132;302018000000;map;33.4123382013;-0.182480200284;0.0;0.0;0.0;-0.00300238491417;0.999995492832;0.00736776731333;0.000899920573358;0.0;0.0;0.0;0.0;0.000899920573358;0.00251066973852;0.0;0.0;0.0;0.0;0.0;0.0;0.0;0.0;0.0;0.0;0.0;0.0;0.0;0.0;0.0;0.0;0.0;0.0;0.0;0.0;0.0;0.0;0.0;0.0;0.0;0.0;0.0;0.00097859560484
302529000000;133;302529000000;map;33.6657854364;-0.18532065706;0.0;0.0;0.0;-0.0030364788557;0.999995389887;0.00730938313404;0.000911702618355;0.0;0.0;0.0;0.0;0.000911702618355;0.00248153643122;0.0;0.0;0.0;0.0;0.0;0.0;0.0;0.0;0.0;0.0;0.0;0.0;0.0;0.0;0.0;0.0;0.0;0.0;0.0;0.0;0.0;0.0;0.0;0.0;0.0;0.0;0.0;0.000970110919981
303031000000;134;303031000000;map;33.9172980872;-0.187269120869;0.0;0.0;0.0;-0.00328493820415;0.999994604576;0.00730032433489;0.000926491965436;0.0;0.0;0.0;0.0;0.000926491965434;0.00248963272617;0.0;0.0;0.0;0.0;0.0;0.0;0.0;0.0;0.0;0.0;0.0;0.0;0.0;0.0;0.0;0.0;0.0;0.0;0.0;0.0;0.0;0.0;0.0;0.0;0.0;0.0;0.0;0.00102184790465
303533000000;135;303533000000;map;34.1667823567;-0.190132119184;0.0;0.0;0.0;-0.00366646341584;0.9999932785;0.0075502737941;0.00100652570608;0.0;0.0;0.0;0.0;0.00100652570608;0.0024879661845;0.0;0.0;0.0;0.0;0.0;0.0;0.0;0.0;0.0;0.0;0.0;0.0;0.0;0.0;0.0;0.0;0.0;0.0;0.0;0.0;0.0;0.0;0.0;0.0;0.0;0.0;0.0;0.00103360885455
304033000000;136;304033000000;map;34.4179873463;-0.191176797631;0.0;0.0;0.0;-0.00315161938706;0.999995033635;0.00766297089626;0.000933717751596;0.0;0.0;0.0;0.0;0.000933717751596;0.00242049469703;0.0;0.0;0.0;0.0;0.0;0.0;0.0;0.0;0.0;0.0;0.0;0.0;0.0;0.0;0.0;0.0;0.0;0.0;0.0;0.0;0.0;0.0;0.0;0.0;0.0;0.0;0.0;0.00100660673663
304537000000;137;304537000000;map;34.6692473457;-0.192687455874;0.0;0.0;0.0;-0.0035465302778;0.999993711042;0.00765063240124;0.000959640966535;0.0;0.0;0.0;0.0;0.000959640966536;0.00252627209782;0.0;0.0;0.0;0.0;0.0;0.0;0.0;0.0;0.0;0.0;0.0;0.0;0.0;0.0;0.0;0.0;0.0;0.0;0.0;0.0;0.0;0.0;0.0;0.0;0.0;0.0;0.0;0.0010358443778
305043000000;138;305043000000;map;34.9209334607;-0.193355148994;0.0;0.0;0.0;-0.00330610213117;0.999994534829;0.00773079686405;0.00100344483015;0.0;0.0;0.0;0.0;0.00100344483015;0.0025179909654;0.0;0.0;0.0;0.0;0.0;0.0;0.0;0.0;0.0;0.0;0.0;0.0;0.0;0.0;0.0;0.0;0.0;0.0;0.0;0.0;0.0;0.0;0.0;0.0;0.0;0.0;0.0;0.00105665711686
305545000000;139;305545000000;map;35.1733930327;-0.19445247297;0.0;0.0;0.0;-0.00339560996291;0.9999942349;0.00767024486936;0.0010048108232;0.0;0.0;0.0;0.0;0.0010048108232;0.00245017763725;0.0;0.0;0.0;0.0;0.0;0.0;0.0;0.0;0.0;0.0;0.0;0.0;0.0;0.0;0.0;0.0;0.0;0.0;0.0;0.0;0.0;0.0;0.0;0.0;0.0;0.0;0.0;0.00102887108041
306048000000;140;306048000000;map;35.424277261;-0.196579253337;0.0;0.0;0.0;-0.00357984946938;0.999993592318;0.00774674013019;0.00108033434604;0.0;0.0;0.0;0.0;0.00108033434604;0.00252001784485;0.0;0.0;0.0;0.0;0.0;0.0;0.0;0.0;0.0;0.0;0.0;0.0;0.0;0.0;0.0;0.0;0.0;0.0;0.0;0.0;0.0;0.0;0.0;0.0;0.0;0.0;0.0;0.00102865248932
306549000000;141;306549000000;map;35.6732891941;-0.199485204694;0.0;0.0;0.0;-0.00349545583083;0.999993890876;0.00763303980148;0.00102697917406;0.0;0.0;0.0;0.0;0.00102697917406;0.00262076546845;0.0;0.0;0.0;0.0;0.0;0.0;0.0;0.0;0.0;0.0;0.0;0.0;0.0;0.0;0.0;0.0;0.0;0.0;0.0;0.0;0.0;0.0;0.0;0.0;0.0;0.0;0.0;0.00103875025843
307055000000;142;307055000000;map;35.9275733042;-0.202180906908;0.0;0.0;0.0;-0.00386365035388;0.999992536075;0.0078628347726;0.00111427028681;0.0;0.0;0.0;0.0;0.00111427028681;0.00265263962538;0.0;0.0;0.0;0.0;0.0;0.0;0.0;0.0;0.0;0.0;0.0;0.0;0.0;0.0;0.0;0.0;0.0;0.0;0.0;0.0;0.0;0.0;0.0;0.0;0.0;0.0;0.0;0.00107728679187
307556000000;143;307556000000;map;36.1784625694;-0.205238644548;0.0;0.0;0.0;-0.00402466406897;0.999991901007;0.00768394114039;0.00113018308488;0.0;0.0;0.0;0.0;0.00113018308488;0.00276032296839;0.0;0.0;0.0;0.0;0.0;0.0;0.0;0.0;0.0;0.0;0.0;0.0;0.0;0.0;0.0;0.0;0.0;0.0;0.0;0.0;0.0;0.0;0.0;0.0;0.0;0.0;0.0;0.00108876315769
308056000000;144;308056000000;map;36.428944471;-0.208409893397;0.0;0.0;0.0;-0.00398776947781;0.999992048816;0.00753749404248;0.00110007073198;0.0;0.0;0.0;0.0;0.00110007073198;0.00275669188334;0.0;0.0;0.0;0.0;0.0;0.0;0.0;0.0;0.0;0.0;0.0;0.0;0.0;0.0;0.0;0.0;0.0;0.0;0.0;0.0;0.0;0.0;0.0;0.0;0.0;0.0;0.0;0.0011104543519
308564000000;145;308564000000;map;36.683437569;-0.211492031661;0.0;0.0;0.0;-0.00407685346609;0.999991689598;0.00765731501428;0.00110132392942;0.0;0.0;0.0;0.0;0.00110132392942;0.00279850012039;0.0;0.0;0.0;0.0;0.0;0.0;0.0;0.0;0.0;0.0;0.0;0.0;0.0;0.0;0.0;0.0;0.0;0.0;0.0;0.0;0.0;0.0;0.0;0.0;0.0;0.0;0.0;0.00109379625851
309073000000;146;309073000000;map;36.9380768949;-0.213320901401;0.0;0.0;0.0;-0.00401218541692;0.999991951152;0.00766274723401;0.00118022398819;0.0;0.0;0.0;0.0;0.00118022398819;0.00282239371648;0.0;0.0;0.0;0.0;0.0;0.0;0.0;0.0;0.0;0.0;0.0;0.0;0.0;0.0;0.0;0.0;0.0;0.0;0.0;0.0;0.0;0.0;0.0;0.0;0.0;0.0;0.0;0.00113416139375
310040000000;147;310040000000;map;36.9884649995;-0.21525084923;0.0;0.0;0.0;0.0965130568731;0.9953317185;0.00754880200975;0.00112749083333;0.0;0.0;0.0;0.0;0.00112749083333;0.00251468176964;0.0;0.0;0.0;0.0;0.0;0.0;0.0;0.0;0.0;0.0;0.0;0.0;0.0;0.0;0.0;0.0;0.0;0.0;0.0;0.0;0.0;0.0;0.0;0.0;0.0;0.0;0.0;0.000941253009276
310925000000;148;310925000000;map;36.9885519471;-0.217187737881;0.0;0.0;0.0;0.197904201615;0.980221366316;0.00721644727446;0.00101627610999;0.0;0.0;0.0;0.0;0.00101627610999;0.00233499090204;0.0;0.0;0.0;0.0;0.0;0.0;0.0;0.0;0.0;0.0;0.0;0.0;0.0;0.0;0.0;0.0;0.0;0.0;0.0;0.0;0.0;0.0;0.0;0.0;0.0;0.0;0.0;0.000830256472874
311829000000;149;311829000000;map;36.9897230921;-0.216739834132;0.0;0.0;0.0;0.296908471964;0.954905942633;0.00704962582859;0.000940092941997;0.0;0.0;0.0;0.0;0.000940092941997;0.00209448235947;0.0;0.0;0.0;0.0;0.0;0.0;0.0;0.0;0.0;0.0;0.0;0.0;0.0;0.0;0.0;0.0;0.0;0.0;0.0;0.0;0.0;0.0;0.0;0.0;0.0;0.0;0.0;0.000701675030886
312721000000;150;312721000000;map;36.9933889531;-0.216129734052;0.0;0.0;0.0;0.391126265123;0.920337027795;0.00686290116209;0.000892912234143;0.0;0.0;0.0;0.0;0.000892912234143;0.00193343515781;0.0;0.0;0.0;0.0;0.0;0.0;0.0;0.0;0.0;0.0;0.0;0.0;0.0;0.0;0.0;0.0;0.0;0.0;0.0;0.0;0.0;0.0;0.0;0.0;0.0;0.0;0.0;0.000589954735552
313619000000;151;313619000000;map;36.9960861679;-0.215510643354;0.0;0.0;0.0;0.482058580716;0.876138987124;0.00676264075241;0.000815272640053;0.0;0.0;0.0;0.0;0.000815272640051;0.00181562526409;0.0;0.0;0.0;0.0;0.0;0.0;0.0;0.0;0.0;0.0;0.0;0.0;0.0;0.0;0.0;0.0;0.0;0.0;0.0;0.0;0.0;0.0;0.0;0.0;0.0;0.0;0.0;0.000535026415397
314483000000;152;314483000000;map;37.0012654267;-0.214273836911;0.0;0.0;0.0;0.568684529105;0.822555716263;0.00658144402814;0.000824289678061;0.0;0.0;0.0;0.0;0.000824289678061;0.001702292759;0.0;0.0;0.0;0.0;0.0;0.0;0.0;0.0;0.0;0.0;0.0;0.0;0.0;0.0;0.0;0.0;0.0;0.0;0.0;0.0;0.0;0.0;0.0;0.0;0.0;0.0;0.0;0.000496503444403
315346000000;153;315346000000;map;37.0039423386;-0.212857288249;0.0;0.0;0.0;0.649529036648;0.760336787583;0.00651964108556;0.000763847195396;0.0;0.0;0.0;0.0;0.000763847195396;0.00167314080756;0.0;0.0;0.0;0.0;0.0;0.0;0.0;0.0;0.0;0.0;0.0;0.0;0.0;0.0;0.0;0.0;0.0;0.0;0.0;0.0;0.0;0.0;0.0;0.0;0.0;0.0;0.0;0.000483782559776
316210000000;154;316210000000;map;37.0073226242;-0.211479086204;0.0;0.0;0.0;0.723431299685;0.690396375017;0.00625394499048;0.000692988562202;0.0;0.0;0.0;0.0;0.000692988562202;0.00161478206954;0.0;0.0;0.0;0.0;0.0;0.0;0.0;0.0;0.0;0.0;0.0;0.0;0.0;0.0;0.0;0.0;0.0;0.0;0.0;0.0;0.0;0.0;0.0;0.0;0.0;0.0;0.0;0.000478024039416
317157000000;155;317157000000;map;36.9935168883;0.0487304320351;0.0;0.0;0.0;0.731283166975;0.682073991367;0.00583384690231;0.000725096045413;0.0;0.0;0.0;0.0;0.000725096045413;0.0017014063005;0.0;0.0;0.0;0.0;0.0;0.0;0.0;0.0;0.0;0.0;0.0;0.0;0.0;0.0;0.0;0.0;0.0;0.0;0.0;0.0;0.0;0.0;0.0;0.0;0.0;0.0;0.0;0.000660902717109
317666000000;156;317666000000;map;36.9803082961;0.305325395242;0.0;0.0;0.0;0.731006708457;0.68237027499;0.00573412784684;0.000636891525483;0.0;0.0;0.0;0.0;0.000636891525483;0.00177078582292;0.0;0.0;0.0;0.0;0.0;0.0;0.0;0.0;0.0;0.0;0.0;0.0;0.0;0.0;0.0;0.0;0.0;0.0;0.0;0.0;0.0;0.0;0.0;0.0;0.0;0.0;0.0;0.000821389898215
318168000000;157;318168000000;map;36.96844175;0.55694179037;0.0;0.0;0.0;0.730421530573;0.682996623473;0.00566366657222;0.000582857245817;0.0;0.0;0.0;0.0;0.000582857245821;0.00189946147753;0.0;0.0;0.0;0.0;0.0;0.0;0.0;0.0;0.0;0.0;0.0;0.0;0.0;0.0;0.0;0.0;0.0;0.0;0.0;0.0;0.0;0.0;0.0;0.0;0.0;0.0;0.0;0.000902944645263
318674000000;158;318674000000;map;36.9545101186;0.810819499076;0.0;0.0;0.0;0.730214610855;0.683217843805;0.00564843774464;0.000562175741777;0.0;0.0;0.0;0.0;0.000562175741777;0.00198340008777;0.0;0.0;0.0;0.0;0.0;0.0;0.0;0.0;0.0;0.0;0.0;0.0;0.0;0.0;0.0;0.0;0.0;0.0;0.0;0.0;0.0;0.0;0.0;0.0;0.0;0.0;0.0;0.000944723484888
319177000000;159;319177000000;map;36.9417671274;1.06433739494;0.0;0.0;0.0;0.730121647705;0.6833171881;0.00554888092051;0.000484762760486;0.0;0.0;0.0;0.0;0.000484762760486;0.00203749997008;0.0;0.0;0.0;0.0;0.0;0.0;0.0;0.0;0.0;0.0;0.0;0.0;0.0;0.0;0.0;0.0;0.0;0.0;0.0;0.0;0.0;0.0;0.0;0.0;0.0;0.0;0.0;0.00097389055711
319680000000;160;319680000000;map;36.9275769045;1.31850476361;0.0;0.0;0.0;0.729864857467;0.683591464132;0.00520572456276;0.000412258328019;0.0;0.0;0.0;0.0;0.000412258328019;0.00213021459755;0.0;0.0;0.0;0.0;0.0;0.0;0.0;0.0;0.0;0.0;0.0;0.0;0.0;0.0;0.0;0.0;0.0;0.0;0.0;0.0;0.0;0.0;0.0;0.0;0.0;0.0;0.0;0.000980283455746
320184000000;161;320184000000;map;36.9138543911;1.5728910618;0.0;0.0;0.0;0.729632772569;0.683839174948;0.00509284678674;0.000330864324248;0.0;0.0;0.0;0.0;0.000330864324248;0.00214155838098;0.0;0.0;0.0;0.0;0.0;0.0;0.0;0.0;0.0;0.0;0.0;0.0;0.0;0.0;0.0;0.0;0.0;0.0;0.0;0.0;0.0;0.0;0.0;0.0;0.0;0.0;0.0;0.00100719566583
320687000000;162;320687000000;map;36.8995689547;1.82553608716;0.0;0.0;0.0;0.729606945418;0.683866730583;0.00517121279859;0.000190392279649;0.0;0.0;0.0;0.0;0.000190392279634;0.00219202755968;0.0;0.0;0.0;0.0;0.0;0.0;0.0;0.0;0.0;0.0;0.0;0.0;0.0;0.0;0.0;0.0;0.0;0.0;0.0;0.0;0.0;0.0;0.0;0.0;0.0;0.0;0.0;0.00098390576407
322655000000;163;322655000000;map;36.8962265222;2.07743403014;0.0;0.0;0.0;0.697433115703;0.716649879035;0.00518273101352;0.000254249181467;0.0;0.0;0.0;0.0;0.000254249181467;0.00220620521934;0.0;0.0;0.0;0.0;0.0;0.0;0.0;0.0;0.0;0.0;0.0;0.0;0.0;0.0;0.0;0.0;0.0;0.0;0.0;0.0;0.0;0.0;0.0;0.0;0.0;0.0;0.0;0.00096570293023
323163000000;164;323163000000;map;36.9059593642;2.33456502424;0.0;0.0;0.0;0.697431453503;0.716651496659;0.00510333108423;0.000240785449748;0.0;0.0;0.0;0.0;0.000240785449733;0.00219273253481;0.0;0.0;0.0;0.0;0.0;0.0;0.0;0.0;0.0;0.0;0.0;0.0;0.0;0.0;0.0;0.0;0.0;0.0;0.0;0.0;0.0;0.0;0.0;0.0;0.0;0.0;0.0;0.000941297780936
323682000000;165;323682000000;map;36.9166566266;2.59526097843;0.0;0.0;0.0;0.697582911479;0.716504069502;0.00492134839533;0.000227229015678;0.0;0.0;0.0;0.0;0.000227229015678;0.00220306527537;0.0;0.0;0.0;0.0;0.0;0.0;0.0;0.0;0.0;0.0;0.0;0.0;0.0;0.0;0.0;0.0;0.0;0.0;0.0;0.0;0.0;0.0;0.0;0.0;0.0;0.0;0.0;0.000930323666113
324185000000;166;324185000000;map;36.9245688089;2.84783954257;0.0;0.0;0.0;0.697686672293;0.716403034126;0.00479480581976;0.000176752932859;0.0;0.0;0.0;0.0;0.000176752932802;0.0022759148142;0.0;0.0;0.0;0.0;0.0;0.0;0.0;0.0;0.0;0.0;0.0;0.0;0.0;0.0;0.0;0.0;0.0;0.0;0.0;0.0;0.0;0.0;0.0;0.0;0.0;0.0;0.0;0.000922435400445
324687000000;167;324687000000;map;36.9331766628;3.0998047111;0.0;0.0;0.0;0.697362269333;0.716718818862;0.00457965854275;0.000188140839967;0.0;0.0;0.0;0.0;0.000188140839967;0.00233461305254;0.0;0.0;0.0;0.0;0.0;0.0;0.0;0.0;0.0;0.0;0.0;0.0;0.0;0.0;0.0;0.0;0.0;0.0;0.0;0.0;0.0;0.0;0.0;0.0;0.0;0.0;0.0;0.000965713163621
325208000000;168;325208000000;map;36.9418739276;3.36036653045;0.0;0.0;0.0;0.697359639207;0.716721377946;0.00438932334259;0.000170096768258;0.0;0.0;0.0;0.0;0.000170096768258;0.00241738584377;0.0;0.0;0.0;0.0;0.0;0.0;0.0;0.0;0.0;0.0;0.0;0.0;0.0;0.0;0.0;0.0;0.0;0.0;0.0;0.0;0.0;0.0;0.0;0.0;0.0;0.0;0.0;0.00100397970215
325727000000;169;325727000000;map;36.9503268722;3.6212571614;0.0;0.0;0.0;0.697337149783;0.716743259147;0.00425406138856;0.000170163902908;0.0;0.0;0.0;0.0;0.000170163902908;0.00254078346556;0.0;0.0;0.0;0.0;0.0;0.0;0.0;0.0;0.0;0.0;0.0;0.0;0.0;0.0;0.0;0.0;0.0;0.0;0.0;0.0;0.0;0.0;0.0;0.0;0.0;0.0;0.0;0.00103491189844
326229000000;170;326229000000;map;36.9591699224;3.8739401887;0.0;0.0;0.0;0.697522439807;0.716562939291;0.00411694271543;0.000164554460781;0.0;0.0;0.0;0.0;0.000164554460781;0.00251538105789;0.0;0.0;0.0;0.0;0.0;0.0;0.0;0.0;0.0;0.0;0.0;0.0;0.0;0.0;0.0;0.0;0.0;0.0;0.0;0.0;0.0;0.0;0.0;0.0;0.0;0.0;0.0;0.00100534867249
326738000000;171;326738000000;map;36.967463662;4.12870051562;0.0;0.0;0.0;0.697701146041;0.716388938227;0.00406534483341;0.000181402381571;0.0;0.0;0.0;0.0;0.000181402381571;0.00253881330714;0.0;0.0;0.0;0.0;0.0;0.0;0.0;0.0;0.0;0.0;0.0;0.0;0.0;0.0;0.0;0.0;0.0;0.0;0.0;0.0;0.0;0.0;0.0;0.0;0.0;0.0;0.0;0.00103672845143
327258000000;172;327258000000;map;36.9763188422;4.38905060597;0.0;0.0;0.0;0.697713200171;0.716377198344;0.00416319856299;0.000174064438085;0.0;0.0;0.0;0.0;0.000174064438085;0.00263018221297;0.0;0.0;0.0;0.0;0.0;0.0;0.0;0.0;0.0;0.0;0.0;0.0;0.0;0.0;0.0;0.0;0.0;0.0;0.0;0.0;0.0;0.0;0.0;0.0;0.0;0.0;0.0;0.00110899754824
327763000000;173;327763000000;map;36.9847226211;4.64291931519;0.0;0.0;0.0;0.697897158951;0.716197986264;0.00424519429953;0.000151957338062;0.0;0.0;0.0;0.0;0.000151957338062;0.00260125981335;0.0;0.0;0.0;0.0;0.0;0.0;0.0;0.0;0.0;0.0;0.0;0.0;0.0;0.0;0.0;0.0;0.0;0.0;0.0;0.0;0.0;0.0;0.0;0.0;0.0;0.0;0.0;0.00105511985158
328282000000;174;328282000000;map;36.9932799993;4.90247342802;0.0;0.0;0.0;0.698010505871;0.71608751818;0.00430963664121;0.000123614197207;0.0;0.0;0.0;0.0;0.000123614197207;0.00267933615337;0.0;0.0;0.0;0.0;0.0;0.0;0.0;0.0;0.0;0.0;0.0;0.0;0.0;0.0;0.0;0.0;0.0;0.0;0.0;0.0;0.0;0.0;0.0;0.0;0.0;0.0;0.0;0.00111740880742
328787000000;175;328787000000;map;37.0008968304;5.15664959154;0.0;0.0;0.0;0.698086637813;0.71601330023;0.00439949782185;0.00011649433543;0.0;0.0;0.0;0.0;0.00011649433543;0.00271711436725;0.0;0.0;0.0;0.0;0.0;0.0;0.0;0.0;0.0;0.0;0.0;0.0;0.0;0.0;0.0;0.0;0.0;0.0;0.0;0.0;0.0;0.0;0.0;0.0;0.0;0.0;0.0;0.00115124664624
329288000000;176;329288000000;map;37.0117658668;5.40776507506;0.0;0.0;0.0;0.698048007953;0.716050960891;0.00435794865075;7.281805091e-05;0.0;0.0;0.0;0.0;7.281805091e-05;0.00272779273755;0.0;0.0;0.0;0.0;0.0;0.0;0.0;0.0;0.0;0.0;0.0;0.0;0.0;0.0;0.0;0.0;0.0;0.0;0.0;0.0;0.0;0.0;0.0;0.0;0.0;0.0;0.0;0.00116854031545
329789000000;177;329789000000;map;37.0212974874;5.65806660879;0.0;0.0;0.0;0.698110282431;0.715990246836;0.00427186763113;8.72803956895e-05;0.0;0.0;0.0;0.0;8.72803956895e-05;0.00278358892649;0.0;0.0;0.0;0.0;0.0;0.0;0.0;0.0;0.0;0.0;0.0;0.0;0.0;0.0;0.0;0.0;0.0;0.0;0.0;0.0;0.0;0.0;0.0;0.0;0.0;0.0;0.0;0.00111648817904
330294000000;178;330294000000;map;37.0291011949;5.9121459307;0.0;0.0;0.0;0.698289397612;0.715815560869;0.00414372738123;0.000124648966334;0.0;0.0;0.0;0.0;0.000124648966334;0.00284885950482;0.0;0.0;0.0;0.0;0.0;0.0;0.0;0.0;0.0;0.0;0.0;0.0;0.0;0.0;0.0;0.0;0.0;0.0;0.0;0.0;0.0;0.0;0.0;0.0;0.0;0.0;0.0;0.00114776392876
330815000000;179;330815000000;map;37.0356332994;6.17302038492;0.0;0.0;0.0;0.698390487676;0.715716931981;0.00405113119973;6.7956195636e-05;0.0;0.0;0.0;0.0;6.7956195636e-05;0.00297587668815;0.0;0.0;0.0;0.0;0.0;0.0;0.0;0.0;0.0;0.0;0.0;0.0;0.0;0.0;0.0;0.0;0.0;0.0;0.0;0.0;0.0;0.0;0.0;0.0;0.0;0.0;0.0;0.001221285568
331319000000;180;331319000000;map;37.04387211;6.42412550651;0.0;0.0;0.0;0.697957323317;0.716139354335;0.00393453380843;4.94752715667e-05;0.0;0.0;0.0;0.0;4.94752715952e-05;0.00307614975643;0.0;0.0;0.0;0.0;0.0;0.0;0.0;0.0;0.0;0.0;0.0;0.0;0.0;0.0;0.0;0.0;0.0;0.0;0.0;0.0;0.0;0.0;0.0;0.0;0.0;0.0;0.0;0.0012522106103
331838000000;181;331838000000;map;37.0525025376;6.68372640484;0.0;0.0;0.0;0.697364751994;0.716716403242;0.00394221597389;0.000117874460074;0.0;0.0;0.0;0.0;0.000117874460074;0.00324181676302;0.0;0.0;0.0;0.0;0.0;0.0;0.0;0.0;0.0;0.0;0.0;0.0;0.0;0.0;0.0;0.0;0.0;0.0;0.0;0.0;0.0;0.0;0.0;0.0;0.0;0.0;0.0;0.00136232859443
332339000000;182;332339000000;map;37.0600899466;6.93229322901;0.0;0.0;0.0;0.697095133265;0.716978643461;0.00386488662116;0.000149723585366;0.0;0.0;0.0;0.0;0.000149723585366;0.00319130335387;0.0;0.0;0.0;0.0;0.0;0.0;0.0;0.0;0.0;0.0;0.0;0.0;0.0;0.0;0.0;0.0;0.0;0.0;0.0;0.0;0.0;0.0;0.0;0.0;0.0;0.0;0.0;0.00136350000215
332841000000;183;332841000000;map;37.0695555821;7.18307910607;0.0;0.0;0.0;0.696770995652;0.717293649503;0.00393790133944;-7.06905845504e-05;0.0;0.0;0.0;0.0;-7.06905844936e-05;0.00331016615573;0.0;0.0;0.0;0.0;0.0;0.0;0.0;0.0;0.0;0.0;0.0;0.0;0.0;0.0;0.0;0.0;0.0;0.0;0.0;0.0;0.0;0.0;0.0;0.0;0.0;0.0;0.0;0.00139274077726
333350000000;184;333350000000;map;37.0763508531;7.43730289476;0.0;0.0;0.0;0.696839536682;0.717227063152;0.00389472078587;-0.000105913804248;0.0;0.0;0.0;0.0;-0.000105913804305;0.00348008723287;0.0;0.0;0.0;0.0;0.0;0.0;0.0;0.0;0.0;0.0;0.0;0.0;0.0;0.0;0.0;0.0;0.0;0.0;0.0;0.0;0.0;0.0;0.0;0.0;0.0;0.0;0.0;0.00138063885676
333851000000;185;333851000000;map;37.0852554836;7.68839244513;0.0;0.0;0.0;0.696753878795;0.717310276229;0.00388824972492;-8.4461306983e-05;0.0;0.0;0.0;0.0;-8.4461306983e-05;0.00357164984268;0.0;0.0;0.0;0.0;0.0;0.0;0.0;0.0;0.0;0.0;0.0;0.0;0.0;0.0;0.0;0.0;0.0;0.0;0.0;0.0;0.0;0.0;0.0;0.0;0.0;0.0;0.0;0.00131886637538
334352000000;186;334352000000;map;37.0919895723;7.93859514506;0.0;0.0;0.0;0.696870046169;0.71719741965;0.00381866854923;-0.000197059431457;0.0;0.0;0.0;0.0;-0.000197059431457;0.00365260429671;0.0;0.0;0.0;0.0;0.0;0.0;0.0;0.0;0.0;0.0;0.0;0.0;0.0;0.0;0.0;0.0;0.0;0.0;0.0;0.0;0.0;0.0;0.0;0.0;0.0;0.0;0.0;0.00127356538877
334857000000;187;334857000000;map;37.0982925639;8.19076467071;0.0;0.0;0.0;0.697305300823;0.716774244406;0.00378278306584;-0.000207011241002;0.0;0.0;0.0;0.0;-0.000207011241002;0.00362386202875;0.0;0.0;0.0;0.0;0.0;0.0;0.0;0.0;0.0;0.0;0.0;0.0;0.0;0.0;0.0;0.0;0.0;0.0;0.0;0.0;0.0;0.0;0.0;0.0;0.0;0.0;0.0;0.00123700117586
335361000000;188;335361000000;map;37.1057217207;8.44328006655;0.0;0.0;0.0;0.697711286663;0.716379061994;0.0037390563723;-0.000339280157448;0.0;0.0;0.0;0.0;-0.000339280157448;0.00347174029204;0.0;0.0;0.0;0.0;0.0;0.0;0.0;0.0;0.0;0.0;0.0;0.0;0.0;0.0;0.0;0.0;0.0;0.0;0.0;0.0;0.0;0.0;0.0;0.0;0.0;0.0;0.0;0.00123029150339
335864000000;189;335864000000;map;37.1124369404;8.69500818539;0.0;0.0;0.0;0.698098613779;0.716001623909;0.00393571703103;-0.000309789114908;0.0;0.0;0.0;0.0;-0.000309789114908;0.00331497631983;0.0;0.0;0.0;0.0;0.0;0.0;0.0;0.0;0.0;0.0;0.0;0.0;0.0;0.0;0.0;0.0;0.0;0.0;0.0;0.0;0.0;0.0;0.0;0.0;0.0;0.0;0.0;0.00115674366577
336367000000;190;336367000000;map;37.1189029087;8.94564120885;0.0;0.0;0.0;0.698050181975;0.716048841522;0.00401167555083;-0.000229874418949;0.0;0.0;0.0;0.0;-0.000229874418949;0.00315365464716;0.0;0.0;0.0;0.0;0.0;0.0;0.0;0.0;0.0;0.0;0.0;0.0;0.0;0.0;0.0;0.0;0.0;0.0;0.0;0.0;0.0;0.0;0.0;0.0;0.0;0.0;0.0;0.0010883115097
336871000000;191;336871000000;map;37.1256749877;9.19768007408;0.0;0.0;0.0;0.698194004614;0.715908605844;0.00409980914742;-0.000179541926741;0.0;0.0;0.0;0.0;-0.000179541926741;0.00318342505406;0.0;0.0;0.0;0.0;0.0;0.0;0.0;0.0;0.0;0.0;0.0;0.0;0.0;0.0;0.0;0.0;0.0;0.0;0.0;0.0;0.0;0.0;0.0;0.0;0.0;0.0;0.0;0.00110158122138
337391000000;192;337391000000;map;37.133473652;9.4584150487;0.0;0.0;0.0;0.698126283557;0.715974644947;0.00404833465018;-0.000245724270656;0.0;0.0;0.0;0.0;-0.000245724270656;0.00323514164725;0.0;0.0;0.0;0.0;0.0;0.0;0.0;0.0;0.0;0.0;0.0;0.0;0.0;0.0;0.0;0.0;0.0;0.0;0.0;0.0;0.0;0.0;0.0;0.0;0.0;0.0;0.0;0.00109768512176
337892000000;193;337892000000;map;37.1400074853;9.71152535988;0.0;0.0;0.0;0.698287966478;0.71581695696;0.0040291364603;-0.000299439344928;0.0;0.0;0.0;0.0;-0.000299439344928;0.00327437292275;0.0;0.0;0.0;0.0;0.0;0.0;0.0;0.0;0.0;0.0;0.0;0.0;0.0;0.0;0.0;0.0;0.0;0.0;0.0;0.0;0.0;0.0;0.0;0.0;0.0;0.0;0.0;0.00106735382989
338393000000;194;338393000000;map;37.1464927594;9.96144514205;0.0;0.0;0.0;0.698532064317;0.715578755359;0.00417525951889;-0.00033556650709;0.0;0.0;0.0;0.0;-0.00033556650709;0.00327498351014;0.0;0.0;0.0;0.0;0.0;0.0;0.0;0.0;0.0;0.0;0.0;0.0;0.0;0.0;0.0;0.0;0.0;0.0;0.0;0.0;0.0;0.0;0.0;0.0;0.0;0.0;0.0;0.00104827361815
338895000000;195;338895000000;map;37.1514824807;10.2125286503;0.0;0.0;0.0;0.698407944241;0.715699897598;0.00409643730245;-0.000281448566227;0.0;0.0;0.0;0.0;-0.000281448566227;0.00329062502458;0.0;0.0;0.0;0.0;0.0;0.0;0.0;0.0;0.0;0.0;0.0;0.0;0.0;0.0;0.0;0.0;0.0;0.0;0.0;0.0;0.0;0.0;0.0;0.0;0.0;0.0;0.0;0.000998230602666
339397000000;196;339397000000;map;37.1584905015;10.4632650284;0.0;0.0;0.0;0.698420507201;0.715687637954;0.00419286468514;-0.000212031834224;0.0;0.0;0.0;0.0;-0.000212031834224;0.00328317567526;0.0;0.0;0.0;0.0;0.0;0.0;0.0;0.0;0.0;0.0;0.0;0.0;0.0;0.0;0.0;0.0;0.0;0.0;0.0;0.0;0.0;0.0;0.0;0.0;0.0;0.0;0.0;0.000928681836507
339908000000;197;339908000000;map;37.1655117344;10.7176683889;0.0;0.0;0.0;0.698319330443;0.715786359698;0.00416075320322;-0.000266244449449;0.0;0.0;0.0;0.0;-0.000266244449449;0.00332181216449;0.0;0.0;0.0;0.0;0.0;0.0;0.0;0.0;0.0;0.0;0.0;0.0;0.0;0.0;0.0;0.0;0.0;0.0;0.0;0.0;0.0;0.0;0.0;0.0;0.0;0.0;0.0;0.000932881005558
