%time;field.header.seq;field.header.stamp;field.header.frame_id;field.pose.pose.position.x;field.pose.pose.position.y;field.pose.pose.position.z;field.pose.pose.orientation.x;field.pose.pose.orientation.y;field.pose.pose.orientation.z;field.pose.pose.orientation.w;field.pose.covariance0;field.pose.covariance1;field.pose.covariance2;field.pose.covariance3;field.pose.covariance4;field.pose.covariance5;field.pose.covariance6;field.pose.covariance7;field.pose.covariance8;field.pose.covariance9;field.pose.covariance10;field.pose.covariance11;field.pose.covariance12;field.pose.covariance13;field.pose.covariance14;field.pose.covariance15;field.pose.covariance16;field.pose.covariance17;field.pose.covariance18;field.pose.covariance19;field.pose.covariance20;field.pose.covariance21;field.pose.covariance22;field.pose.covariance23;field.pose.covariance24;field.pose.covariance25;field.pose.covariance26;field.pose.covariance27;field.pose.covariance28;field.pose.covariance29;field.pose.covariance30;field.pose.covariance31;field.pose.covariance32;field.pose.covariance33;field.pose.covariance34;field.pose.covariance35
260355000000;35;260355000000;map;12.6896080787;-0.0429879192951;0.0;0.0;0.0;-0.00320775029197;0.999994855156;0.119104276753;0.0166709500596;0.00522284196475;0.0;0.0;0.0;0.0;0.0;0.00482883076676;0.0;0.0;0.0;0.0;0.0;0.0;0.0;0.0;0.0;0.0;0.0;0.0;0.0;0.0;0.0;0.0;0.0;0.0;0.0;0.0;0.0;0.0;0.0;0.0;0.0;0.0;0.0
260797169029;36;260797169029;map;12.8947757518;-0.0423135142287;0.0;0.0;0.0;-0.00267790563004;0.999996414404;0.0255936660838;0.00226290702975;0.00283270213167;0.0;0.0;0.0;0.0;0.0;0.00162229009571;0.0;0.0;0.0;0.0;0.0;0.0;0.0;0.0;0.0;0.0;0.0;0.0;0.0;0.0;0.0;0.0;0.0;0.0;0.0;0.0;0.0;0.0;0.0;0.0;0.0;0.0;0.0
261306000000;37;261306000000;map;13.1081072588;-0.0419378322387;0.0;0.0;0.0;-0.00255268374326;0.999996741898;0.0282544365259;0.0024294980444;0.00293379889359;0.0;0.0;0.0;0.0;0.0;0.00166294523238;0.0;0.0;0.0;0.0;0.0;0.0;0.0;0.0;0.0;0.0;0.0;0.0;0.0;0.0;0.0;0.0;0.0;0.0;0.0;0.0;0.0;0.0;0.0;0.0;0.0;0.0;0.0
261711000000;38;261711000000;map;13.3114228958;-0.0413899703125;0.0;0.0;0.0;-0.00188963853379;0.999998214632;0.0189996436533;-0.000118689752933;0.0023507118722;0.0;0.0;0.0;0.0;0.0;0.000874431546101;0.0;0.0;0.0;0.0;0.0;0.0;0.0;0.0;0.0;0.0;0.0;0.0;0.0;0.0;0.0;0.0;0.0;0.0;0.0;0.0;0.0;0.0;0.0;0.0;0.0;0.0;0.0
262109000000;39;262109000000;map;13.5167172076;-0.042644668884;0.0;0.0;0.0;-0.00144039056933;0.999998962637;0.0142185371805;-0.00030495592847;0.00234509837806;0.0;0.0;0.0;0.0;0.0;0.000916377290863;0.0;0.0;0.0;0.0;0.0;0.0;0.0;0.0;0.0;0.0;0.0;0.0;0.0;0.0;0.0;0.0;0.0;0.0;0.0;0.0;0.0;0.0;0.0;0.0;0.0;0.0;0.0
262463000000;40;262463000000;map;13.7186008261;-0.0428802183477;0.0;0.0;0.0;-0.00191078203249;0.999998174454;0.0127970455753;-0.00038756263612;0.00235357978902;0.0;0.0;0.0;0.0;0.0;0.00092818464991;0.0;0.0;0.0;0.0;0.0;0.0;0.0;0.0;0.0;0.0;0.0;0.0;0.0;0.0;0.0;0.0;0.0;0.0;0.0;0.0;0.0;0.0;0.0;0.0;0.0;0.0;0.0
262897000000;41;262897000000;map;13.9166115897;-0.0433563982303;0.0;0.0;0.0;-0.00192725592704;0.999998142841;0.0111710569246;-0.000154926343687;0.00238838668241;0.0;0.0;0.0;0.0;0.0;0.000927837465899;0.0;0.0;0.0;0.0;0.0;0.0;0.0;0.0;0.0;0.0;0.0;0.0;0.0;0.0;0.0;0.0;0.0;0.0;0.0;0.0;0.0;0.0;0.0;0.0;0.0;0.0;0.0
263293000000;42;263293000000;map;14.1249638665;-0.041950288991;0.0;0.0;0.0;-0.00133213792621;0.999999112704;0.0111062740413;-0.000111544057175;0.00250709509141;0.0;0.0;0.0;0.0;0.0;0.000969370629926;0.0;0.0;0.0;0.0;0.0;0.0;0.0;0.0;0.0;0.0;0.0;0.0;0.0;0.0;0.0;0.0;0.0;0.0;0.0;0.0;0.0;0.0;0.0;0.0;0.0;0.0;0.0
263708000000;43;263708000000;map;14.3325945812;-0.0413800431189;0.0;0.0;0.0;-0.00125645212327;0.999999210664;0.0110461090999;3.6852229223e-05;0.0025988703952;0.0;0.0;0.0;0.0;0.0;0.00102722273563;0.0;0.0;0.0;0.0;0.0;0.0;0.0;0.0;0.0;0.0;0.0;0.0;0.0;0.0;0.0;0.0;0.0;0.0;0.0;0.0;0.0;0.0;0.0;0.0;0.0;0.0;0.0
264102000000;44;264102000000;map;14.5400575493;-0.0403332269422;0.0;0.0;0.0;-0.000834578685649;0.999999651739;0.0110681885841;8.83868810672e-05;0.00268289180137;0.0;0.0;0.0;0.0;0.0;0.00104843173795;0.0;0.0;0.0;0.0;0.0;0.0;0.0;0.0;0.0;0.0;0.0;0.0;0.0;0.0;0.0;0.0;0.0;0.0;0.0;0.0;0.0;0.0;0.0;0.0;0.0;0.0;0.0
264510000000;45;264510000000;map;14.7378858527;-0.03895316543;0.0;0.0;0.0;-0.0003789042484;0.999999928216;0.00943551275577;-1.63878707793e-06;0.00271729396563;0.0;0.0;0.0;0.0;0.0;0.00104486953997;0.0;0.0;0.0;0.0;0.0;0.0;0.0;0.0;0.0;0.0;0.0;0.0;0.0;0.0;0.0;0.0;0.0;0.0;0.0;0.0;0.0;0.0;0.0;0.0;0.0;0.0;0.0
264963000000;46;264963000000;map;14.9336246077;-0.0391148701533;0.0;0.0;0.0;-0.000335641962938;0.999999943672;0.0091293230208;3.66620455587e-05;0.00267298913348;0.0;0.0;0.0;0.0;0.0;0.00101044458371;0.0;0.0;0.0;0.0;0.0;0.0;0.0;0.0;0.0;0.0;0.0;0.0;0.0;0.0;0.0;0.0;0.0;0.0;0.0;0.0;0.0;0.0;0.0;0.0;0.0;0.0;0.0
265267000000;47;265267000000;map;15.1312653091;-0.0386847134313;0.0;0.0;0.0;-2.47375278055e-05;0.999999999694;0.00873294077178;5.88086259661e-05;0.00278179113487;0.0;0.0;0.0;0.0;0.0;0.00102211622683;0.0;0.0;0.0;0.0;0.0;0.0;0.0;0.0;0.0;0.0;0.0;0.0;0.0;0.0;0.0;0.0;0.0;0.0;0.0;0.0;0.0;0.0;0.0;0.0;0.0;0.0;0.0
265655000000;48;265655000000;map;15.329595186;-0.0365095031543;0.0;0.0;0.0;0.00012341401935;0.999999992384;0.00853824223381;4.04671411605e-05;0.00289819759257;0.0;0.0;0.0;0.0;0.0;0.000973077178957;0.0;0.0;0.0;0.0;0.0;0.0;0.0;0.0;0.0;0.0;0.0;0.0;0.0;0.0;0.0;0.0;0.0;0.0;0.0;0.0;0.0;0.0;0.0;0.0;0.0;0.0;0.0
266208000000;49;266208000000;map;15.5309836447;-0.0364789522442;0.0;0.0;0.0;-0.000351097914465;0.999999938365;0.00850056400182;0.000181066166509;0.00292178933176;0.0;0.0;0.0;0.0;0.0;0.000980485474027;0.0;0.0;0.0;0.0;0.0;0.0;0.0;0.0;0.0;0.0;0.0;0.0;0.0;0.0;0.0;0.0;0.0;0.0;0.0;0.0;0.0;0.0;0.0;0.0;0.0;0.0;0.0
266473000000;50;266473000000;map;15.7349298601;-0.0350631534681;0.0;0.0;0.0;0.000260017998467;0.999999966195;0.00864011657106;0.000172903271352;0.00289127619527;0.0;0.0;0.0;0.0;0.0;0.00102330538513;0.0;0.0;0.0;0.0;0.0;0.0;0.0;0.0;0.0;0.0;0.0;0.0;0.0;0.0;0.0;0.0;0.0;0.0;0.0;0.0;0.0;0.0;0.0;0.0;0.0;0.0;0.0
267018000000;51;267018000000;map;15.9335203787;-0.0336727254193;0.0;0.0;0.0;0.000355010272737;0.999999936984;0.00848761603592;0.000147376934746;0.00285481664214;0.0;0.0;0.0;0.0;0.0;0.00102027592872;0.0;0.0;0.0;0.0;0.0;0.0;0.0;0.0;0.0;0.0;0.0;0.0;0.0;0.0;0.0;0.0;0.0;0.0;0.0;0.0;0.0;0.0;0.0;0.0;0.0;0.0;0.0
267412000000;52;267412000000;map;16.1388746043;-0.0332639484858;0.0;0.0;0.0;0.000645693327794;0.99999979154;0.00841531837534;0.000117238679966;0.00297866405738;0.0;0.0;0.0;0.0;0.0;0.00103327277765;0.0;0.0;0.0;0.0;0.0;0.0;0.0;0.0;0.0;0.0;0.0;0.0;0.0;0.0;0.0;0.0;0.0;0.0;0.0;0.0;0.0;0.0;0.0;0.0;0.0;0.0;0.0
267812000000;53;267812000000;map;16.3394701152;-0.0324265797373;0.0;0.0;0.0;0.000945876089629;0.999999552659;0.00830751820354;0.000154086907874;0.00300258219595;0.0;0.0;0.0;0.0;0.0;0.00104337594449;0.0;0.0;0.0;0.0;0.0;0.0;0.0;0.0;0.0;0.0;0.0;0.0;0.0;0.0;0.0;0.0;0.0;0.0;0.0;0.0;0.0;0.0;0.0;0.0;0.0;0.0;0.0
268230000000;54;268230000000;map;16.5401508434;-0.0322008829671;0.0;0.0;0.0;0.00141716352202;0.999998995823;0.00831594224576;8.99348029724e-05;0.00309909633758;0.0;0.0;0.0;0.0;0.0;0.00101423997368;0.0;0.0;0.0;0.0;0.0;0.0;0.0;0.0;0.0;0.0;0.0;0.0;0.0;0.0;0.0;0.0;0.0;0.0;0.0;0.0;0.0;0.0;0.0;0.0;0.0;0.0;0.0
268622000000;55;268622000000;map;16.7397554892;-0.0317714646338;0.0;0.0;0.0;0.00124697422633;0.999999222527;0.00815524192484;9.0230889454e-05;0.00325357942782;0.0;0.0;0.0;0.0;0.0;0.000974649599281;0.0;0.0;0.0;0.0;0.0;0.0;0.0;0.0;0.0;0.0;0.0;0.0;0.0;0.0;0.0;0.0;0.0;0.0;0.0;0.0;0.0;0.0;0.0;0.0;0.0;0.0;0.0
269015000000;56;269015000000;map;16.9413907563;-0.0327567683991;0.0;0.0;0.0;0.000853546585035;0.999999635729;0.00808206702141;2.53167798592e-05;0.00329857459871;0.0;0.0;0.0;0.0;0.0;0.000965900197497;0.0;0.0;0.0;0.0;0.0;0.0;0.0;0.0;0.0;0.0;0.0;0.0;0.0;0.0;0.0;0.0;0.0;0.0;0.0;0.0;0.0;0.0;0.0;0.0;0.0;0.0;0.0
269442000000;57;269442000000;map;17.1427117205;-0.0338078407895;0.0;0.0;0.0;-0.000220626284118;0.999999975662;0.00774980030303;-2.01028172315e-05;0.00329094231711;0.0;0.0;0.0;0.0;0.0;0.000927817208615;0.0;0.0;0.0;0.0;0.0;0.0;0.0;0.0;0.0;0.0;0.0;0.0;0.0;0.0;0.0;0.0;0.0;0.0;0.0;0.0;0.0;0.0;0.0;0.0;0.0;0.0;0.0
269829000000;58;269829000000;map;17.3473277883;-0.0349637508285;0.0;0.0;0.0;-0.00060264940008;0.999999818407;0.00750301717238;-8.13568690853e-05;0.00331878462426;0.0;0.0;0.0;0.0;0.0;0.000947740165576;0.0;0.0;0.0;0.0;0.0;0.0;0.0;0.0;0.0;0.0;0.0;0.0;0.0;0.0;0.0;0.0;0.0;0.0;0.0;0.0;0.0;0.0;0.0;0.0;0.0;0.0;0.0
270222000000;59;270222000000;map;17.5430966754;-0.0355613516724;0.0;0.0;0.0;-0.000842939024977;0.999999644727;0.00715048025324;-2.61119521939e-05;0.0032194604885;0.0;0.0;0.0;0.0;0.0;0.000937855826335;0.0;0.0;0.0;0.0;0.0;0.0;0.0;0.0;0.0;0.0;0.0;0.0;0.0;0.0;0.0;0.0;0.0;0.0;0.0;0.0;0.0;0.0;0.0;0.0;0.0;0.0;0.0
270616752447;60;270616752447;map;17.7399930193;-0.0361127457023;0.0;0.0;0.0;-0.0007573776;0.99999971319;0.0067291320255;0.000141025619516;0.00307588295602;0.0;0.0;0.0;0.0;0.0;0.000886174686341;0.0;0.0;0.0;0.0;0.0;0.0;0.0;0.0;0.0;0.0;0.0;0.0;0.0;0.0;0.0;0.0;0.0;0.0;0.0;0.0;0.0;0.0;0.0;0.0;0.0;0.0;0.0
271005000000;61;271005000000;map;17.9454709995;-0.0362570491991;0.0;0.0;0.0;-0.000569035229817;0.999999838099;0.00649784448103;0.000206577277509;0.00311983577279;0.0;0.0;0.0;0.0;0.0;0.000892674676192;0.0;0.0;0.0;0.0;0.0;0.0;0.0;0.0;0.0;0.0;0.0;0.0;0.0;0.0;0.0;0.0;0.0;0.0;0.0;0.0;0.0;0.0;0.0;0.0;0.0;0.0;0.0
271416000000;62;271416000000;map;18.1449895272;-0.0381686961822;0.0;0.0;0.0;-0.000763913824134;0.999999708218;0.00640866750206;0.00018832570968;0.00323149726277;0.0;0.0;0.0;0.0;0.0;0.00085490695622;0.0;0.0;0.0;0.0;0.0;0.0;0.0;0.0;0.0;0.0;0.0;0.0;0.0;0.0;0.0;0.0;0.0;0.0;0.0;0.0;0.0;0.0;0.0;0.0;0.0;0.0;0.0
271812000000;63;271812000000;map;18.3529195886;-0.0410865957616;0.0;0.0;0.0;-0.000804022770409;0.999999676774;0.00629971993919;0.000186282102663;0.00330310257753;0.0;0.0;0.0;0.0;0.0;0.000881729512431;0.0;0.0;0.0;0.0;0.0;0.0;0.0;0.0;0.0;0.0;0.0;0.0;0.0;0.0;0.0;0.0;0.0;0.0;0.0;0.0;0.0;0.0;0.0;0.0;0.0;0.0;0.0
272193000000;64;272193000000;map;18.5567654216;-0.0411368175516;0.0;0.0;0.0;-0.000372597411184;0.999999930586;0.00618955876604;0.000366224721903;0.00318092887488;0.0;0.0;0.0;0.0;0.0;0.00085984892891;0.0;0.0;0.0;0.0;0.0;0.0;0.0;0.0;0.0;0.0;0.0;0.0;0.0;0.0;0.0;0.0;0.0;0.0;0.0;0.0;0.0;0.0;0.0;0.0;0.0;0.0;0.0
272600000000;65;272600000000;map;18.756156955;-0.0443880376037;0.0;0.0;0.0;-0.000449087593756;0.99999989916;0.00604182412354;0.000337677272875;0.00317046473631;0.0;0.0;0.0;0.0;0.0;0.000829931979761;0.0;0.0;0.0;0.0;0.0;0.0;0.0;0.0;0.0;0.0;0.0;0.0;0.0;0.0;0.0;0.0;0.0;0.0;0.0;0.0;0.0;0.0;0.0;0.0;0.0;0.0;0.0
272961000000;66;272961000000;map;18.9580893025;-0.047018221955;0.0;0.0;0.0;-0.000416461272476;0.99999991328;0.00591911442763;0.000335184637987;0.00331481444336;0.0;0.0;0.0;0.0;0.0;0.000857589820441;0.0;0.0;0.0;0.0;0.0;0.0;0.0;0.0;0.0;0.0;0.0;0.0;0.0;0.0;0.0;0.0;0.0;0.0;0.0;0.0;0.0;0.0;0.0;0.0;0.0;0.0;0.0
273457000000;67;273457000000;map;19.1554317534;-0.0494437668057;0.0;0.0;0.0;-0.000645366290052;0.999999791751;0.00576688662193;0.000380918493765;0.00330546317961;0.0;0.0;0.0;0.0;0.0;0.000834758583657;0.0;0.0;0.0;0.0;0.0;0.0;0.0;0.0;0.0;0.0;0.0;0.0;0.0;0.0;0.0;0.0;0.0;0.0;0.0;0.0;0.0;0.0;0.0;0.0;0.0;0.0;0.0
273839000000;68;273839000000;map;19.3543662572;-0.0515415858049;0.0;0.0;0.0;-0.000470667469554;0.999999889236;0.00573187574855;0.000419653944732;0.00326859765744;0.0;0.0;0.0;0.0;0.0;0.000855755329591;0.0;0.0;0.0;0.0;0.0;0.0;0.0;0.0;0.0;0.0;0.0;0.0;0.0;0.0;0.0;0.0;0.0;0.0;0.0;0.0;0.0;0.0;0.0;0.0;0.0;0.0;0.0
274303000000;69;274303000000;map;19.5602943152;-0.0541208473228;0.0;0.0;0.0;-0.000548600695007;0.999999849519;0.00552415770829;0.000414939449672;0.00336446784906;0.0;0.0;0.0;0.0;0.0;0.000893087292574;0.0;0.0;0.0;0.0;0.0;0.0;0.0;0.0;0.0;0.0;0.0;0.0;0.0;0.0;0.0;0.0;0.0;0.0;0.0;0.0;0.0;0.0;0.0;0.0;0.0;0.0;0.0
274713000000;70;274713000000;map;19.7597228703;-0.0566217162425;0.0;0.0;0.0;-0.000762447225;0.999999709337;0.00536253852732;0.000339191785752;0.00322751177009;0.0;0.0;0.0;0.0;0.0;0.000914494123795;0.0;0.0;0.0;0.0;0.0;0.0;0.0;0.0;0.0;0.0;0.0;0.0;0.0;0.0;0.0;0.0;0.0;0.0;0.0;0.0;0.0;0.0;0.0;0.0;0.0;0.0;0.0
275103000000;71;275103000000;map;19.9577285745;-0.0578612071295;0.0;0.0;0.0;-0.0010040480492;0.999999495944;0.00517851619992;0.000258950866124;0.0031359238011;0.0;0.0;0.0;0.0;0.0;0.000956621466113;0.0;0.0;0.0;0.0;0.0;0.0;0.0;0.0;0.0;0.0;0.0;0.0;0.0;0.0;0.0;0.0;0.0;0.0;0.0;0.0;0.0;0.0;0.0;0.0;0.0;0.0;0.0
275455000000;72;275455000000;map;20.1582522401;-0.0610345324577;0.0;0.0;0.0;-0.00157669935588;0.999998757009;0.00519032382994;0.000271261723813;0.00295905456662;0.0;0.0;0.0;0.0;0.0;0.000985072990455;0.0;0.0;0.0;0.0;0.0;0.0;0.0;0.0;0.0;0.0;0.0;0.0;0.0;0.0;0.0;0.0;0.0;0.0;0.0;0.0;0.0;0.0;0.0;0.0;0.0;0.0;0.0
275906000000;73;275906000000;map;20.3658864144;-0.0650185175922;0.0;0.0;0.0;-0.0020579700806;0.999997882377;0.00499169608395;0.000291393563459;0.00291514688354;0.0;0.0;0.0;0.0;0.0;0.00105067350271;0.0;0.0;0.0;0.0;0.0;0.0;0.0;0.0;0.0;0.0;0.0;0.0;0.0;0.0;0.0;0.0;0.0;0.0;0.0;0.0;0.0;0.0;0.0;0.0;0.0;0.0;0.0
276264000000;74;276264000000;map;20.5678187591;-0.0665618156779;0.0;0.0;0.0;-0.00239131345008;0.999997140806;0.00508935514216;0.00041040949371;0.00290682585313;0.0;0.0;0.0;0.0;0.0;0.0010557299078;0.0;0.0;0.0;0.0;0.0;0.0;0.0;0.0;0.0;0.0;0.0;0.0;0.0;0.0;0.0;0.0;0.0;0.0;0.0;0.0;0.0;0.0;0.0;0.0;0.0;0.0;0.0
276648000000;75;276648000000;map;20.7685489145;-0.0693016764435;0.0;0.0;0.0;-0.00254075910095;0.999996772266;0.00488367123728;0.000438015989722;0.0029410659455;0.0;0.0;0.0;0.0;0.0;0.0010447574283;0.0;0.0;0.0;0.0;0.0;0.0;0.0;0.0;0.0;0.0;0.0;0.0;0.0;0.0;0.0;0.0;0.0;0.0;0.0;0.0;0.0;0.0;0.0;0.0;0.0;0.0;0.0
277049000000;76;277049000000;map;20.9713222793;-0.0707048565755;0.0;0.0;0.0;-0.00271127358169;0.999996324491;0.0047406181717;0.000435086398394;0.00299607384498;0.0;0.0;0.0;0.0;0.0;0.00110981080434;0.0;0.0;0.0;0.0;0.0;0.0;0.0;0.0;0.0;0.0;0.0;0.0;0.0;0.0;0.0;0.0;0.0;0.0;0.0;0.0;0.0;0.0;0.0;0.0;0.0;0.0;0.0
277550276495;77;277550276495;map;21.1797784963;-0.0729543303459;0.0;0.0;0.0;-0.00286702613556;0.999995890072;0.00474214986099;0.000494617771179;0.00308977965798;0.0;0.0;0.0;0.0;0.0;0.00113278217968;0.0;0.0;0.0;0.0;0.0;0.0;0.0;0.0;0.0;0.0;0.0;0.0;0.0;0.0;0.0;0.0;0.0;0.0;0.0;0.0;0.0;0.0;0.0;0.0;0.0;0.0;0.0
277944000000;78;277944000000;map;21.3871043032;-0.0754265861326;0.0;0.0;0.0;-0.00284496152507;0.999995953089;0.00474700579957;0.000732911595186;0.00316932021096;0.0;0.0;0.0;0.0;0.0;0.00114212970656;0.0;0.0;0.0;0.0;0.0;0.0;0.0;0.0;0.0;0.0;0.0;0.0;0.0;0.0;0.0;0.0;0.0;0.0;0.0;0.0;0.0;0.0;0.0;0.0;0.0;0.0;0.0
278359000000;79;278359000000;map;21.5867985365;-0.0769750307683;0.0;0.0;0.0;-0.0030055210623;0.999995483411;0.00458199925851;0.000543989303385;0.00314924528795;0.0;0.0;0.0;0.0;0.0;0.0010737165928;0.0;0.0;0.0;0.0;0.0;0.0;0.0;0.0;0.0;0.0;0.0;0.0;0.0;0.0;0.0;0.0;0.0;0.0;0.0;0.0;0.0;0.0;0.0;0.0;0.0;0.0;0.0
278814000000;80;278814000000;map;21.7838044039;-0.0801705268929;0.0;0.0;0.0;-0.00331895590846;0.999994492251;0.00446011033449;0.000603398320302;0.00325309877052;0.0;0.0;0.0;0.0;0.0;0.0010411186778;0.0;0.0;0.0;0.0;0.0;0.0;0.0;0.0;0.0;0.0;0.0;0.0;0.0;0.0;0.0;0.0;0.0;0.0;0.0;0.0;0.0;0.0;0.0;0.0;0.0;0.0;0.0
279169000000;81;279169000000;map;21.9841302922;-0.0815138582483;0.0;0.0;0.0;-0.00354644115528;0.999993711358;0.0044096631629;0.000552581280465;0.00315055071353;0.0;0.0;0.0;0.0;0.0;0.00102255486906;0.0;0.0;0.0;0.0;0.0;0.0;0.0;0.0;0.0;0.0;0.0;0.0;0.0;0.0;0.0;0.0;0.0;0.0;0.0;0.0;0.0;0.0;0.0;0.0;0.0;0.0;0.0
279602902841;82;279602902841;map;22.1879567935;-0.0838149284926;0.0;0.0;0.0;-0.00374301834537;0.999992994882;0.00437835322862;0.000458378862682;0.00313754923531;0.0;0.0;0.0;0.0;0.0;0.000982641889339;0.0;0.0;0.0;0.0;0.0;0.0;0.0;0.0;0.0;0.0;0.0;0.0;0.0;0.0;0.0;0.0;0.0;0.0;0.0;0.0;0.0;0.0;0.0;0.0;0.0;0.0;0.0
279984000000;83;279984000000;map;22.3909684076;-0.0860836143105;0.0;0.0;0.0;-0.00429473496546;0.999990777583;0.00450727936169;0.000504977007508;0.00315873657639;0.0;0.0;0.0;0.0;0.0;0.000977454664977;0.0;0.0;0.0;0.0;0.0;0.0;0.0;0.0;0.0;0.0;0.0;0.0;0.0;0.0;0.0;0.0;0.0;0.0;0.0;0.0;0.0;0.0;0.0;0.0;0.0;0.0;0.0
280367000000;84;280367000000;map;22.5873676554;-0.0899102863687;0.0;0.0;0.0;-0.00466387468445;0.999989124077;0.00429699790459;0.00045207665121;0.00309214959873;0.0;0.0;0.0;0.0;0.0;0.000959659724899;0.0;0.0;0.0;0.0;0.0;0.0;0.0;0.0;0.0;0.0;0.0;0.0;0.0;0.0;0.0;0.0;0.0;0.0;0.0;0.0;0.0;0.0;0.0;0.0;0.0;0.0;0.0
280783000000;85;280783000000;map;22.7960321458;-0.0920174916161;0.0;0.0;0.0;-0.00461038642337;0.999989372112;0.00433560916861;0.000425287221473;0.00301591513244;0.0;0.0;0.0;0.0;0.0;0.000924706801338;0.0;0.0;0.0;0.0;0.0;0.0;0.0;0.0;0.0;0.0;0.0;0.0;0.0;0.0;0.0;0.0;0.0;0.0;0.0;0.0;0.0;0.0;0.0;0.0;0.0;0.0;0.0
281200000000;86;281200000000;map;22.9990977089;-0.094704379051;0.0;0.0;0.0;-0.00453458252619;0.999989718728;0.00421063700605;0.000428223468354;0.00303140796561;0.0;0.0;0.0;0.0;0.0;0.000928286583642;0.0;0.0;0.0;0.0;0.0;0.0;0.0;0.0;0.0;0.0;0.0;0.0;0.0;0.0;0.0;0.0;0.0;0.0;0.0;0.0;0.0;0.0;0.0;0.0;0.0;0.0;0.0
281553573860;87;281553573860;map;23.198627535;-0.0985505069385;0.0;0.0;0.0;-0.00395809369725;0.999992166716;0.00429595455103;0.000434707281579;0.00299810491544;0.0;0.0;0.0;0.0;0.0;0.000942705824142;0.0;0.0;0.0;0.0;0.0;0.0;0.0;0.0;0.0;0.0;0.0;0.0;0.0;0.0;0.0;0.0;0.0;0.0;0.0;0.0;0.0;0.0;0.0;0.0;0.0;0.0;0.0
281942000000;88;281942000000;map;23.4016850408;-0.101111108408;0.0;0.0;0.0;-0.00364253422693;0.99999336595;0.00431551408315;0.000500122938451;0.00307697850779;0.0;0.0;0.0;0.0;0.0;0.000911648685567;0.0;0.0;0.0;0.0;0.0;0.0;0.0;0.0;0.0;0.0;0.0;0.0;0.0;0.0;0.0;0.0;0.0;0.0;0.0;0.0;0.0;0.0;0.0;0.0;0.0;0.0;0.0
282454000000;89;282454000000;map;23.6001073475;-0.104882431055;0.0;0.0;0.0;-0.00376583946557;0.999992909201;0.00449328300044;0.000372762544826;0.00299846374214;0.0;0.0;0.0;0.0;0.0;0.000915992555272;0.0;0.0;0.0;0.0;0.0;0.0;0.0;0.0;0.0;0.0;0.0;0.0;0.0;0.0;0.0;0.0;0.0;0.0;0.0;0.0;0.0;0.0;0.0;0.0;0.0;0.0;0.0
282853000000;90;282853000000;map;23.7996196847;-0.107669465352;0.0;0.0;0.0;-0.00313939200652;0.999995072097;0.00428905530532;0.000306701051609;0.00293020129288;0.0;0.0;0.0;0.0;0.0;0.000905089763011;0.0;0.0;0.0;0.0;0.0;0.0;0.0;0.0;0.0;0.0;0.0;0.0;0.0;0.0;0.0;0.0;0.0;0.0;0.0;0.0;0.0;0.0;0.0;0.0;0.0;0.0;0.0
283277000000;91;283277000000;map;24.0012040965;-0.111491810823;0.0;0.0;0.0;-0.00272888021631;0.999996276599;0.00428001580156;0.000327079834642;0.00283393890062;0.0;0.0;0.0;0.0;0.0;0.000900852964609;0.0;0.0;0.0;0.0;0.0;0.0;0.0;0.0;0.0;0.0;0.0;0.0;0.0;0.0;0.0;0.0;0.0;0.0;0.0;0.0;0.0;0.0;0.0;0.0;0.0;0.0;0.0
283698000000;92;283698000000;map;24.1985548275;-0.113110262507;0.0;0.0;0.0;-0.00245816233818;0.999996978714;0.0044347207654;0.000311386563843;0.00279116336122;0.0;0.0;0.0;0.0;0.0;0.000846916171584;0.0;0.0;0.0;0.0;0.0;0.0;0.0;0.0;0.0;0.0;0.0;0.0;0.0;0.0;0.0;0.0;0.0;0.0;0.0;0.0;0.0;0.0;0.0;0.0;0.0;0.0;0.0
284049000000;93;284049000000;map;24.4004958562;-0.114735550151;0.0;0.0;0.0;-0.00214174752163;0.999997706456;0.00443943458629;0.000333832891115;0.00276268510022;0.0;0.0;0.0;0.0;0.0;0.00082324028472;0.0;0.0;0.0;0.0;0.0;0.0;0.0;0.0;0.0;0.0;0.0;0.0;0.0;0.0;0.0;0.0;0.0;0.0;0.0;0.0;0.0;0.0;0.0;0.0;0.0;0.0;0.0
284525000000;94;284525000000;map;24.6066352016;-0.116176725595;0.0;0.0;0.0;-0.00222225321724;0.999997530792;0.00446771434702;0.000351048458016;0.00277447329065;0.0;0.0;0.0;0.0;0.0;0.000842386435753;0.0;0.0;0.0;0.0;0.0;0.0;0.0;0.0;0.0;0.0;0.0;0.0;0.0;0.0;0.0;0.0;0.0;0.0;0.0;0.0;0.0;0.0;0.0;0.0;0.0;0.0;0.0
284905000000;95;284905000000;map;24.8077025146;-0.11830841249;0.0;0.0;0.0;-0.0022153408649;0.999997546129;0.00428408046582;0.000391875151396;0.0027470098162;0.0;0.0;0.0;0.0;0.0;0.000850443511388;0.0;0.0;0.0;0.0;0.0;0.0;0.0;0.0;0.0;0.0;0.0;0.0;0.0;0.0;0.0;0.0;0.0;0.0;0.0;0.0;0.0;0.0;0.0;0.0;0.0;0.0;0.0
285255000000;96;285255000000;map;25.0059542165;-0.120437494894;0.0;0.0;0.0;-0.00219347621664;0.999997594328;0.00412303064832;0.00031250697189;0.0026810461618;0.0;0.0;0.0;0.0;0.0;0.000792540380456;0.0;0.0;0.0;0.0;0.0;0.0;0.0;0.0;0.0;0.0;0.0;0.0;0.0;0.0;0.0;0.0;0.0;0.0;0.0;0.0;0.0;0.0;0.0;0.0;0.0;0.0;0.0
285649000000;97;285649000000;map;25.2055533715;-0.122261425008;0.0;0.0;0.0;-0.00229609399904;0.999997363973;0.00395958960371;0.000322562697975;0.00263609516772;0.0;0.0;0.0;0.0;0.0;0.000778416447892;0.0;0.0;0.0;0.0;0.0;0.0;0.0;0.0;0.0;0.0;0.0;0.0;0.0;0.0;0.0;0.0;0.0;0.0;0.0;0.0;0.0;0.0;0.0;0.0;0.0;0.0;0.0
286064000000;98;286064000000;map;25.4102425445;-0.124033887133;0.0;0.0;0.0;-0.00160105802567;0.999998718306;0.00392578614537;0.000250282839292;0.00257580711503;0.0;0.0;0.0;0.0;0.0;0.000785323751863;0.0;0.0;0.0;0.0;0.0;0.0;0.0;0.0;0.0;0.0;0.0;0.0;0.0;0.0;0.0;0.0;0.0;0.0;0.0;0.0;0.0;0.0;0.0;0.0;0.0;0.0;0.0
286458000000;99;286458000000;map;25.6195879689;-0.126758042828;0.0;0.0;0.0;-0.00125073045009;0.999999217836;0.00376298322658;0.00023366590405;0.00251223924661;0.0;0.0;0.0;0.0;0.0;0.000802836977323;0.0;0.0;0.0;0.0;0.0;0.0;0.0;0.0;0.0;0.0;0.0;0.0;0.0;0.0;0.0;0.0;0.0;0.0;0.0;0.0;0.0;0.0;0.0;0.0;0.0;0.0;0.0
286909991119;100;286909991119;map;25.8210251193;-0.128421887803;0.0;0.0;0.0;-0.000809224198194;0.999999672578;0.00401926528093;0.000266271677553;0.00248488716852;0.0;0.0;0.0;0.0;0.0;0.000801090984721;0.0;0.0;0.0;0.0;0.0;0.0;0.0;0.0;0.0;0.0;0.0;0.0;0.0;0.0;0.0;0.0;0.0;0.0;0.0;0.0;0.0;0.0;0.0;0.0;0.0;0.0;0.0
287262000000;101;287262000000;map;26.0220807131;-0.129568067345;0.0;0.0;0.0;-0.00065978143012;0.999999782344;0.00393313223469;0.000320560684023;0.00253915945314;0.0;0.0;0.0;0.0;0.0;0.000807623646583;0.0;0.0;0.0;0.0;0.0;0.0;0.0;0.0;0.0;0.0;0.0;0.0;0.0;0.0;0.0;0.0;0.0;0.0;0.0;0.0;0.0;0.0;0.0;0.0;0.0;0.0;0.0
287652000000;102;287652000000;map;26.2215708153;-0.129404348961;0.0;0.0;0.0;-0.000312673464783;0.999999951118;0.00389144167434;0.000376345472823;0.00252381401812;0.0;0.0;0.0;0.0;0.0;0.000796386237081;0.0;0.0;0.0;0.0;0.0;0.0;0.0;0.0;0.0;0.0;0.0;0.0;0.0;0.0;0.0;0.0;0.0;0.0;0.0;0.0;0.0;0.0;0.0;0.0;0.0;0.0;0.0
288050231807;103;288050231807;map;26.4276764503;-0.128623338196;0.0;0.0;0.0;0.000166002074356;0.999999986222;0.00367905129531;0.000316524574425;0.00248013100635;0.0;0.0;0.0;0.0;0.0;0.000813886714386;0.0;0.0;0.0;0.0;0.0;0.0;0.0;0.0;0.0;0.0;0.0;0.0;0.0;0.0;0.0;0.0;0.0;0.0;0.0;0.0;0.0;0.0;0.0;0.0;0.0;0.0;0.0
288450000000;104;288450000000;map;26.6283761741;-0.130016621026;0.0;0.0;0.0;0.000715896207091;0.999999743746;0.00366441272888;0.000351383880947;0.00252689815173;0.0;0.0;0.0;0.0;0.0;0.000813216429012;0.0;0.0;0.0;0.0;0.0;0.0;0.0;0.0;0.0;0.0;0.0;0.0;0.0;0.0;0.0;0.0;0.0;0.0;0.0;0.0;0.0;0.0;0.0;0.0;0.0;0.0;0.0
288884000000;105;288884000000;map;26.8360292341;-0.132169481274;0.0;0.0;0.0;0.00113584583885;0.999999354927;0.00344708055889;0.000307937191631;0.00258815784289;0.0;0.0;0.0;0.0;0.0;0.000884597767854;0.0;0.0;0.0;0.0;0.0;0.0;0.0;0.0;0.0;0.0;0.0;0.0;0.0;0.0;0.0;0.0;0.0;0.0;0.0;0.0;0.0;0.0;0.0;0.0;0.0;0.0;0.0
289423000000;106;289423000000;map;27.0351742066;-0.131184340749;0.0;0.0;0.0;0.00172661243549;0.999998509404;0.00343344517341;0.000348581299473;0.00264029049968;0.0;0.0;0.0;0.0;0.0;0.000863829329927;0.0;0.0;0.0;0.0;0.0;0.0;0.0;0.0;0.0;0.0;0.0;0.0;0.0;0.0;0.0;0.0;0.0;0.0;0.0;0.0;0.0;0.0;0.0;0.0;0.0;0.0;0.0
289778000000;107;289778000000;map;27.2357169614;-0.128597571987;0.0;0.0;0.0;0.00191941590947;0.99999815792;0.00338746333341;0.000299103689225;0.00260053712928;0.0;0.0;0.0;0.0;0.0;0.000891762235089;0.0;0.0;0.0;0.0;0.0;0.0;0.0;0.0;0.0;0.0;0.0;0.0;0.0;0.0;0.0;0.0;0.0;0.0;0.0;0.0;0.0;0.0;0.0;0.0;0.0;0.0;0.0
290170000000;108;290170000000;map;27.4465644225;-0.129118215094;0.0;0.0;0.0;0.00175280098399;0.999998463843;0.00348999214884;0.000351268771824;0.00267169119259;0.0;0.0;0.0;0.0;0.0;0.000910450429069;0.0;0.0;0.0;0.0;0.0;0.0;0.0;0.0;0.0;0.0;0.0;0.0;0.0;0.0;0.0;0.0;0.0;0.0;0.0;0.0;0.0;0.0;0.0;0.0;0.0;0.0;0.0
290550000000;109;290550000000;map;27.6469756153;-0.127769362577;0.0;0.0;0.0;0.002103770424;0.999997787073;0.00330781612615;0.000333737090768;0.00263777292318;0.0;0.0;0.0;0.0;0.0;0.000877234173733;0.0;0.0;0.0;0.0;0.0;0.0;0.0;0.0;0.0;0.0;0.0;0.0;0.0;0.0;0.0;0.0;0.0;0.0;0.0;0.0;0.0;0.0;0.0;0.0;0.0;0.0;0.0
290979000000;110;290979000000;map;27.8580508251;-0.126820761924;0.0;0.0;0.0;0.00253508760964;0.99999678666;0.00332116518121;0.000358223958002;0.00277051337955;0.0;0.0;0.0;0.0;0.0;0.000905492292862;0.0;0.0;0.0;0.0;0.0;0.0;0.0;0.0;0.0;0.0;0.0;0.0;0.0;0.0;0.0;0.0;0.0;0.0;0.0;0.0;0.0;0.0;0.0;0.0;0.0;0.0;0.0
291412000000;111;291412000000;map;28.0655225784;-0.125137735401;0.0;0.0;0.0;0.00247183933162;0.999996945;0.00331808628903;0.000409668618541;0.00282629977271;0.0;0.0;0.0;0.0;0.0;0.000918795344125;0.0;0.0;0.0;0.0;0.0;0.0;0.0;0.0;0.0;0.0;0.0;0.0;0.0;0.0;0.0;0.0;0.0;0.0;0.0;0.0;0.0;0.0;0.0;0.0;0.0;0.0;0.0
291776000000;112;291776000000;map;28.2665175992;-0.125673353141;0.0;0.0;0.0;0.00207588000039;0.999997845359;0.00341344232947;0.00048703735017;0.00300503381209;0.0;0.0;0.0;0.0;0.0;0.000929508505785;0.0;0.0;0.0;0.0;0.0;0.0;0.0;0.0;0.0;0.0;0.0;0.0;0.0;0.0;0.0;0.0;0.0;0.0;0.0;0.0;0.0;0.0;0.0;0.0;0.0;0.0;0.0
292217582686;113;292217582686;map;28.4674670861;-0.125736174949;0.0;0.0;0.0;0.00140657823664;0.999999010768;0.00348097107576;0.000465546414227;0.00296883140126;0.0;0.0;0.0;0.0;0.0;0.000912374530177;0.0;0.0;0.0;0.0;0.0;0.0;0.0;0.0;0.0;0.0;0.0;0.0;0.0;0.0;0.0;0.0;0.0;0.0;0.0;0.0;0.0;0.0;0.0;0.0;0.0;0.0;0.0
292558000000;114;292558000000;map;28.6702781214;-0.124141425579;0.0;0.0;0.0;0.00119233299891;0.999999289171;0.00335405290332;0.000503878845053;0.00305816149281;0.0;0.0;0.0;0.0;0.0;0.000904050999913;0.0;0.0;0.0;0.0;0.0;0.0;0.0;0.0;0.0;0.0;0.0;0.0;0.0;0.0;0.0;0.0;0.0;0.0;0.0;0.0;0.0;0.0;0.0;0.0;0.0;0.0;0.0
292947000000;115;292947000000;map;28.8722121593;-0.123519230051;0.0;0.0;0.0;0.00137483280144;0.999999054917;0.00340681876605;0.000593079255883;0.00319924059403;0.0;0.0;0.0;0.0;0.0;0.000895157251147;0.0;0.0;0.0;0.0;0.0;0.0;0.0;0.0;0.0;0.0;0.0;0.0;0.0;0.0;0.0;0.0;0.0;0.0;0.0;0.0;0.0;0.0;0.0;0.0;0.0;0.0;0.0
293353000000;116;293353000000;map;29.0798235862;-0.122588410275;0.0;0.0;0.0;0.00193794885043;0.999998122175;0.00341193745089;0.000632555731887;0.00320361630007;0.0;0.0;0.0;0.0;0.0;0.000871272487572;0.0;0.0;0.0;0.0;0.0;0.0;0.0;0.0;0.0;0.0;0.0;0.0;0.0;0.0;0.0;0.0;0.0;0.0;0.0;0.0;0.0;0.0;0.0;0.0;0.0;0.0;0.0
293801000000;117;293801000000;map;29.2872110462;-0.121468869735;0.0;0.0;0.0;0.0018457922929;0.999998296524;0.00349652821558;0.000727334874427;0.00324719796694;0.0;0.0;0.0;0.0;0.0;0.000854864873936;0.0;0.0;0.0;0.0;0.0;0.0;0.0;0.0;0.0;0.0;0.0;0.0;0.0;0.0;0.0;0.0;0.0;0.0;0.0;0.0;0.0;0.0;0.0;0.0;0.0;0.0;0.0
294262000000;118;294262000000;map;29.4935609694;-0.122570223394;0.0;0.0;0.0;0.00194301756014;0.99999811234;0.00342509004679;0.00071811184887;0.00332085877013;0.0;0.0;0.0;0.0;0.0;0.000843067213891;0.0;0.0;0.0;0.0;0.0;0.0;0.0;0.0;0.0;0.0;0.0;0.0;0.0;0.0;0.0;0.0;0.0;0.0;0.0;0.0;0.0;0.0;0.0;0.0;0.0;0.0;0.0
294648000000;119;294648000000;map;29.7363792878;-0.120229407231;0.0;0.0;0.0;0.00297508599152;0.999995574422;0.00361723224808;0.000815599489812;0.00351227959486;0.0;0.0;0.0;0.0;0.0;0.000995531591638;0.0;0.0;0.0;0.0;0.0;0.0;0.0;0.0;0.0;0.0;0.0;0.0;0.0;0.0;0.0;0.0;0.0;0.0;0.0;0.0;0.0;0.0;0.0;0.0;0.0;0.0;0.0
295148000000;120;295148000000;map;29.94194437;-0.121039897831;0.0;0.0;0.0;0.00259883055142;0.999996623034;0.00364205520589;0.000800209053744;0.00350162500808;0.0;0.0;0.0;0.0;0.0;0.000961437606964;0.0;0.0;0.0;0.0;0.0;0.0;0.0;0.0;0.0;0.0;0.0;0.0;0.0;0.0;0.0;0.0;0.0;0.0;0.0;0.0;0.0;0.0;0.0;0.0;0.0;0.0;0.0
295618000000;121;295618000000;map;30.14390896;-0.122423290439;0.0;0.0;0.0;0.00251386544832;0.999996840235;0.003585726599;0.000734700839969;0.00353355318182;0.0;0.0;0.0;0.0;0.0;0.000883339499469;0.0;0.0;0.0;0.0;0.0;0.0;0.0;0.0;0.0;0.0;0.0;0.0;0.0;0.0;0.0;0.0;0.0;0.0;0.0;0.0;0.0;0.0;0.0;0.0;0.0;0.0;0.0
296021000000;122;296021000000;map;30.3519426914;-0.12211404603;0.0;0.0;0.0;0.00259251876765;0.999996639418;0.00369120494645;0.000750895895348;0.00351263008315;0.0;0.0;0.0;0.0;0.0;0.000913715652746;0.0;0.0;0.0;0.0;0.0;0.0;0.0;0.0;0.0;0.0;0.0;0.0;0.0;0.0;0.0;0.0;0.0;0.0;0.0;0.0;0.0;0.0;0.0;0.0;0.0;0.0;0.0
296370000000;123;296370000000;map;30.5517274699;-0.12196798654;0.0;0.0;0.0;0.00255650465014;0.999996732137;0.00371261683904;0.000691166431648;0.00354696328491;0.0;0.0;0.0;0.0;0.0;0.000933080736699;0.0;0.0;0.0;0.0;0.0;0.0;0.0;0.0;0.0;0.0;0.0;0.0;0.0;0.0;0.0;0.0;0.0;0.0;0.0;0.0;0.0;0.0;0.0;0.0;0.0;0.0;0.0
296758000000;124;296758000000;map;30.7521600371;-0.120645788796;0.0;0.0;0.0;0.00255645615951;0.999996732261;0.00363307453142;0.000638630376077;0.00356397998059;0.0;0.0;0.0;0.0;0.0;0.000916300221258;0.0;0.0;0.0;0.0;0.0;0.0;0.0;0.0;0.0;0.0;0.0;0.0;0.0;0.0;0.0;0.0;0.0;0.0;0.0;0.0;0.0;0.0;0.0;0.0;0.0;0.0;0.0
297184000000;125;297184000000;map;30.9558449541;-0.118908842279;0.0;0.0;0.0;0.00259230681498;0.999996639967;0.00356679919469;0.000666615629433;0.00358736551199;0.0;0.0;0.0;0.0;0.0;0.00088056856154;0.0;0.0;0.0;0.0;0.0;0.0;0.0;0.0;0.0;0.0;0.0;0.0;0.0;0.0;0.0;0.0;0.0;0.0;0.0;0.0;0.0;0.0;0.0;0.0;0.0;0.0;0.0
297553000000;126;297553000000;map;31.1554276445;-0.118002102492;0.0;0.0;0.0;0.00230399348835;0.999997345803;0.00358798878108;0.000669201618605;0.00349120364611;0.0;0.0;0.0;0.0;0.0;0.000883981398601;0.0;0.0;0.0;0.0;0.0;0.0;0.0;0.0;0.0;0.0;0.0;0.0;0.0;0.0;0.0;0.0;0.0;0.0;0.0;0.0;0.0;0.0;0.0;0.0;0.0;0.0;0.0
297951000000;127;297951000000;map;31.3565662295;-0.116122407134;0.0;0.0;0.0;0.00222178761568;0.999997531827;0.00354118834491;0.00068164510174;0.0035294766783;0.0;0.0;0.0;0.0;0.0;0.000853490483634;0.0;0.0;0.0;0.0;0.0;0.0;0.0;0.0;0.0;0.0;0.0;0.0;0.0;0.0;0.0;0.0;0.0;0.0;0.0;0.0;0.0;0.0;0.0;0.0;0.0;0.0;0.0
298354000000;128;298354000000;map;31.5597939872;-0.114997910646;0.0;0.0;0.0;0.00237887657273;0.999997170469;0.00372168916954;0.000712147728713;0.00346038727763;0.0;0.0;0.0;0.0;0.0;0.000809588143295;0.0;0.0;0.0;0.0;0.0;0.0;0.0;0.0;0.0;0.0;0.0;0.0;0.0;0.0;0.0;0.0;0.0;0.0;0.0;0.0;0.0;0.0;0.0;0.0;0.0;0.0;0.0
298752000000;129;298752000000;map;31.7615315043;-0.114922223452;0.0;0.0;0.0;0.00242816920353;0.999997051993;0.0037498199539;0.000707586956982;0.00339512363056;0.0;0.0;0.0;0.0;0.0;0.000826343519153;0.0;0.0;0.0;0.0;0.0;0.0;0.0;0.0;0.0;0.0;0.0;0.0;0.0;0.0;0.0;0.0;0.0;0.0;0.0;0.0;0.0;0.0;0.0;0.0;0.0;0.0;0.0
299217000000;130;299217000000;map;31.9657794549;-0.114954723422;0.0;0.0;0.0;0.0027474415281;0.999996225775;0.00381220651025;0.000641819711663;0.00347173505053;0.0;0.0;0.0;0.0;0.0;0.000829229614381;0.0;0.0;0.0;0.0;0.0;0.0;0.0;0.0;0.0;0.0;0.0;0.0;0.0;0.0;0.0;0.0;0.0;0.0;0.0;0.0;0.0;0.0;0.0;0.0;0.0;0.0;0.0
299567000000;131;299567000000;map;32.1750052939;-0.112731084173;0.0;0.0;0.0;0.00301498923951;0.99999545491;0.00394961305301;0.000620179030768;0.00334859915217;0.0;0.0;0.0;0.0;0.0;0.000827668422054;0.0;0.0;0.0;0.0;0.0;0.0;0.0;0.0;0.0;0.0;0.0;0.0;0.0;0.0;0.0;0.0;0.0;0.0;0.0;0.0;0.0;0.0;0.0;0.0;0.0;0.0;0.0
299949000000;132;299949000000;map;32.375518823;-0.111337038938;0.0;0.0;0.0;0.00322478212102;0.999994800377;0.00403331589723;0.000640511771944;0.00330072969949;0.0;0.0;0.0;0.0;0.0;0.000851751689162;0.0;0.0;0.0;0.0;0.0;0.0;0.0;0.0;0.0;0.0;0.0;0.0;0.0;0.0;0.0;0.0;0.0;0.0;0.0;0.0;0.0;0.0;0.0;0.0;0.0;0.0;0.0
300447000000;133;300447000000;map;32.5867780774;-0.109867292957;0.0;0.0;0.0;0.00350313896374;0.99999386399;0.00405301502383;0.00059489814934;0.00341052454847;0.0;0.0;0.0;0.0;0.0;0.000884093532326;0.0;0.0;0.0;0.0;0.0;0.0;0.0;0.0;0.0;0.0;0.0;0.0;0.0;0.0;0.0;0.0;0.0;0.0;0.0;0.0;0.0;0.0;0.0;0.0;0.0;0.0;0.0
300860000000;134;300860000000;map;32.7873808176;-0.110082187819;0.0;0.0;0.0;0.00333768688198;0.999994429908;0.00407351235162;0.000578135605325;0.00341813503126;0.0;0.0;0.0;0.0;0.0;0.00085220113961;0.0;0.0;0.0;0.0;0.0;0.0;0.0;0.0;0.0;0.0;0.0;0.0;0.0;0.0;0.0;0.0;0.0;0.0;0.0;0.0;0.0;0.0;0.0;0.0;0.0;0.0;0.0
301262000000;135;301262000000;map;32.9895644351;-0.108907532246;0.0;0.0;0.0;0.00320536777463;0.999994862796;0.00416992783471;0.00059822777117;0.00334660126385;0.0;0.0;0.0;0.0;0.0;0.000813064078449;0.0;0.0;0.0;0.0;0.0;0.0;0.0;0.0;0.0;0.0;0.0;0.0;0.0;0.0;0.0;0.0;0.0;0.0;0.0;0.0;0.0;0.0;0.0;0.0;0.0;0.0;0.0
301652582625;136;301652582625;map;33.1918926164;-0.106551515523;0.0;0.0;0.0;0.00230335190973;0.999997347281;0.00446960150816;0.000726270885276;0.00338192026544;0.0;0.0;0.0;0.0;0.0;0.000806548132635;0.0;0.0;0.0;0.0;0.0;0.0;0.0;0.0;0.0;0.0;0.0;0.0;0.0;0.0;0.0;0.0;0.0;0.0;0.0;0.0;0.0;0.0;0.0;0.0;0.0;0.0;0.0
302051000000;137;302051000000;map;33.3937354529;-0.104229176392;0.0;0.0;0.0;0.00268614205086;0.999996392314;0.00425397964864;0.000582183324202;0.00328404901593;0.0;0.0;0.0;0.0;0.0;0.000811715892107;0.0;0.0;0.0;0.0;0.0;0.0;0.0;0.0;0.0;0.0;0.0;0.0;0.0;0.0;0.0;0.0;0.0;0.0;0.0;0.0;0.0;0.0;0.0;0.0;0.0;0.0;0.0
302449000000;138;302449000000;map;33.5962379644;-0.101876880939;0.0;0.0;0.0;0.00252841512257;0.999996803553;0.0040126247311;0.00059110050156;0.00327990188625;0.0;0.0;0.0;0.0;0.0;0.000850532058169;0.0;0.0;0.0;0.0;0.0;0.0;0.0;0.0;0.0;0.0;0.0;0.0;0.0;0.0;0.0;0.0;0.0;0.0;0.0;0.0;0.0;0.0;0.0;0.0;0.0;0.0;0.0
302849000000;139;302849000000;map;33.7994459715;-0.101710754204;0.0;0.0;0.0;0.00222440889731;0.999997525999;0.00401351590835;0.000489726202686;0.00315027163981;0.0;0.0;0.0;0.0;0.0;0.00087906028043;0.0;0.0;0.0;0.0;0.0;0.0;0.0;0.0;0.0;0.0;0.0;0.0;0.0;0.0;0.0;0.0;0.0;0.0;0.0;0.0;0.0;0.0;0.0;0.0;0.0;0.0;0.0
303288000000;140;303288000000;map;34.0003941119;-0.0993567573843;0.0;0.0;0.0;0.0025545610135;0.999996737104;0.0039427258348;0.00052609871071;0.00302728300531;0.0;0.0;0.0;0.0;0.0;0.000875449432379;0.0;0.0;0.0;0.0;0.0;0.0;0.0;0.0;0.0;0.0;0.0;0.0;0.0;0.0;0.0;0.0;0.0;0.0;0.0;0.0;0.0;0.0;0.0;0.0;0.0;0.0;0.0
303651000000;141;303651000000;map;34.1994152022;-0.0969122960728;0.0;0.0;0.0;0.00290142538937;0.999995790856;0.00387970328097;0.000490051051412;0.0029633284438;0.0;0.0;0.0;0.0;0.0;0.000901582435036;0.0;0.0;0.0;0.0;0.0;0.0;0.0;0.0;0.0;0.0;0.0;0.0;0.0;0.0;0.0;0.0;0.0;0.0;0.0;0.0;0.0;0.0;0.0;0.0;0.0;0.0;0.0
304051000000;142;304051000000;map;34.4002200806;-0.0954506463556;0.0;0.0;0.0;0.00310609360422;0.99999517608;0.0037698293188;0.000438982066412;0.00293954820747;0.0;0.0;0.0;0.0;0.0;0.000851925521135;0.0;0.0;0.0;0.0;0.0;0.0;0.0;0.0;0.0;0.0;0.0;0.0;0.0;0.0;0.0;0.0;0.0;0.0;0.0;0.0;0.0;0.0;0.0;0.0;0.0;0.0;0.0
304482000000;143;304482000000;map;34.6113756304;-0.0939712057823;0.0;0.0;0.0;0.00277708601258;0.999996143889;0.00380278031503;0.000560741361585;0.00304407780886;0.0;0.0;0.0;0.0;0.0;0.000917802008555;0.0;0.0;0.0;0.0;0.0;0.0;0.0;0.0;0.0;0.0;0.0;0.0;0.0;0.0;0.0;0.0;0.0;0.0;0.0;0.0;0.0;0.0;0.0;0.0;0.0;0.0;0.0
304855000000;144;304855000000;map;34.8110994871;-0.0924786611163;0.0;0.0;0.0;0.00317177075018;0.999994969923;0.00367526665104;0.000559510433174;0.00293884946134;0.0;0.0;0.0;0.0;0.0;0.000944616304335;0.0;0.0;0.0;0.0;0.0;0.0;0.0;0.0;0.0;0.0;0.0;0.0;0.0;0.0;0.0;0.0;0.0;0.0;0.0;0.0;0.0;0.0;0.0;0.0;0.0;0.0;0.0
305251000000;145;305251000000;map;35.0153973192;-0.091898359438;0.0;0.0;0.0;0.00331142916915;0.999994517203;0.00357274724502;0.000492715841785;0.00300290887817;0.0;0.0;0.0;0.0;0.0;0.000922377824688;0.0;0.0;0.0;0.0;0.0;0.0;0.0;0.0;0.0;0.0;0.0;0.0;0.0;0.0;0.0;0.0;0.0;0.0;0.0;0.0;0.0;0.0;0.0;0.0;0.0;0.0;0.0
305703450201;146;305703450201;map;35.2135210768;-0.0901802641622;0.0;0.0;0.0;0.00345378868224;0.999994035654;0.00344271565473;0.000521201747657;0.00297447289391;0.0;0.0;0.0;0.0;0.0;0.000922824618499;0.0;0.0;0.0;0.0;0.0;0.0;0.0;0.0;0.0;0.0;0.0;0.0;0.0;0.0;0.0;0.0;0.0;0.0;0.0;0.0;0.0;0.0;0.0;0.0;0.0;0.0;0.0
306048000000;147;306048000000;map;35.4147741096;-0.0904026300372;0.0;0.0;0.0;0.00303182203017;0.999995404017;0.00345389548193;0.00059981770124;0.00306203302989;0.0;0.0;0.0;0.0;0.0;0.000914524498511;0.0;0.0;0.0;0.0;0.0;0.0;0.0;0.0;0.0;0.0;0.0;0.0;0.0;0.0;0.0;0.0;0.0;0.0;0.0;0.0;0.0;0.0;0.0;0.0;0.0;0.0;0.0
306545000000;148;306545000000;map;35.615581346;-0.0899756498828;0.0;0.0;0.0;0.00260056494924;0.999996618525;0.00355167841735;0.000659175922503;0.00307151409569;0.0;0.0;0.0;0.0;0.0;0.000940508847165;0.0;0.0;0.0;0.0;0.0;0.0;0.0;0.0;0.0;0.0;0.0;0.0;0.0;0.0;0.0;0.0;0.0;0.0;0.0;0.0;0.0;0.0;0.0;0.0;0.0;0.0;0.0
306945380297;149;306945380297;map;35.8291633714;-0.0893059991289;0.0;0.0;0.0;0.00236412863188;0.999997205444;0.00379490919295;0.000604264484845;0.00309312219002;0.0;0.0;0.0;0.0;0.0;0.00097335821971;0.0;0.0;0.0;0.0;0.0;0.0;0.0;0.0;0.0;0.0;0.0;0.0;0.0;0.0;0.0;0.0;0.0;0.0;0.0;0.0;0.0;0.0;0.0;0.0;0.0;0.0;0.0
307348000000;150;307348000000;map;36.041110716;-0.0884025171497;0.0;0.0;0.0;0.00219991377786;0.999997580187;0.00383432509079;0.000609641913533;0.00308462369801;0.0;0.0;0.0;0.0;0.0;0.000925643593952;0.0;0.0;0.0;0.0;0.0;0.0;0.0;0.0;0.0;0.0;0.0;0.0;0.0;0.0;0.0;0.0;0.0;0.0;0.0;0.0;0.0;0.0;0.0;0.0;0.0;0.0;0.0
307758000000;151;307758000000;map;36.2503724414;-0.0858567033486;0.0;0.0;0.0;0.00282234225441;0.999996017184;0.00376001922882;0.000722989422189;0.00310933914358;0.0;0.0;0.0;0.0;0.0;0.000911466168151;0.0;0.0;0.0;0.0;0.0;0.0;0.0;0.0;0.0;0.0;0.0;0.0;0.0;0.0;0.0;0.0;0.0;0.0;0.0;0.0;0.0;0.0;0.0;0.0;0.0;0.0;0.0
308152000000;152;308152000000;map;36.4603251746;-0.084320724678;0.0;0.0;0.0;0.00244002479499;0.999997023135;0.00381655558635;0.000756084201924;0.00310537466345;0.0;0.0;0.0;0.0;0.0;0.000957145038469;0.0;0.0;0.0;0.0;0.0;0.0;0.0;0.0;0.0;0.0;0.0;0.0;0.0;0.0;0.0;0.0;0.0;0.0;0.0;0.0;0.0;0.0;0.0;0.0;0.0;0.0;0.0
308549000000;153;308549000000;map;36.6632002042;-0.082196257431;0.0;0.0;0.0;0.00277006065021;0.999996163375;0.00363306985514;0.000655717970418;0.00289794135393;0.0;0.0;0.0;0.0;0.0;0.000958322750821;0.0;0.0;0.0;0.0;0.0;0.0;0.0;0.0;0.0;0.0;0.0;0.0;0.0;0.0;0.0;0.0;0.0;0.0;0.0;0.0;0.0;0.0;0.0;0.0;0.0;0.0;0.0
308956000000;154;308956000000;map;36.8632493734;-0.0805077111592;0.0;0.0;0.0;0.00282957324039;0.99999599675;0.00368246735979;0.000637848257357;0.00280707892563;0.0;0.0;0.0;0.0;0.0;0.000926475147257;0.0;0.0;0.0;0.0;0.0;0.0;0.0;0.0;0.0;0.0;0.0;0.0;0.0;0.0;0.0;0.0;0.0;0.0;0.0;0.0;0.0;0.0;0.0;0.0;0.0;0.0;0.0
311561000000;155;311561000000;map;37.0410238454;-0.0820178967345;0.0;0.0;0.0;0.251963910769;0.967736631357;0.00841491133292;0.000516366520205;0.00288681174419;0.0;0.0;0.0;0.0;0.0;0.00411284173399;0.0;0.0;0.0;0.0;0.0;0.0;0.0;0.0;0.0;0.0;0.0;0.0;0.0;0.0;0.0;0.0;0.0;0.0;0.0;0.0;0.0;0.0;0.0;0.0;0.0;0.0;0.0
313803000000;156;313803000000;map;37.0443830617;-0.0828813605503;0.0;0.0;0.0;0.485148799193;0.874431611186;0.0116419814103;0.00228979191275;0.00372102178588;0.0;0.0;0.0;0.0;0.0;0.00530487257361;0.0;0.0;0.0;0.0;0.0;0.0;0.0;0.0;0.0;0.0;0.0;0.0;0.0;0.0;0.0;0.0;0.0;0.0;0.0;0.0;0.0;0.0;0.0;0.0;0.0;0.0;0.0
315963000000;157;315963000000;map;37.0484790262;-0.0815059892566;0.0;0.0;0.0;0.686630335695;0.727006727688;0.0119427875809;0.00363923792071;0.00621953995419;0.0;0.0;0.0;0.0;0.0;0.00657585317054;0.0;0.0;0.0;0.0;0.0;0.0;0.0;0.0;0.0;0.0;0.0;0.0;0.0;0.0;0.0;0.0;0.0;0.0;0.0;0.0;0.0;0.0;0.0;0.0;0.0;0.0;0.0
317270000000;158;317270000000;map;37.0357732064;0.130621747939;0.0;0.0;0.0;0.734648633569;0.678447776321;0.011313064198;0.00319954776357;0.00602170614668;0.0;0.0;0.0;0.0;0.0;0.0046396918276;0.0;0.0;0.0;0.0;0.0;0.0;0.0;0.0;0.0;0.0;0.0;0.0;0.0;0.0;0.0;0.0;0.0;0.0;0.0;0.0;0.0;0.0;0.0;0.0;0.0;0.0;0.0
317580933377;159;317580933377;map;37.0243329719;0.334860725884;0.0;0.0;0.0;0.734823840991;0.678258006006;0.0113579170513;0.00316608757787;0.00577871284458;0.0;0.0;0.0;0.0;0.0;0.00315144011159;0.0;0.0;0.0;0.0;0.0;0.0;0.0;0.0;0.0;0.0;0.0;0.0;0.0;0.0;0.0;0.0;0.0;0.0;0.0;0.0;0.0;0.0;0.0;0.0;0.0;0.0;0.0
318060000000;160;318060000000;map;37.0124165972;0.541446898855;0.0;0.0;0.0;0.734253454545;0.67887544107;0.011264427719;0.00301002021603;0.00544889271357;0.0;0.0;0.0;0.0;0.0;0.00221527884818;0.0;0.0;0.0;0.0;0.0;0.0;0.0;0.0;0.0;0.0;0.0;0.0;0.0;0.0;0.0;0.0;0.0;0.0;0.0;0.0;0.0;0.0;0.0;0.0;0.0;0.0;0.0
318466000000;161;318466000000;map;37.000513884;0.744465331745;0.0;0.0;0.0;0.734657769412;0.678437883555;0.0104547003755;0.00271788207143;0.00510759232963;0.0;0.0;0.0;0.0;0.0;0.00166207073274;0.0;0.0;0.0;0.0;0.0;0.0;0.0;0.0;0.0;0.0;0.0;0.0;0.0;0.0;0.0;0.0;0.0;0.0;0.0;0.0;0.0;0.0;0.0;0.0;0.0;0.0;0.0
318913000000;162;318913000000;map;36.9875642317;0.946742442568;0.0;0.0;0.0;0.734210738569;0.678921638608;0.00989097923753;0.00242975980318;0.0047200185988;0.0;0.0;0.0;0.0;0.0;0.00129566450351;0.0;0.0;0.0;0.0;0.0;0.0;0.0;0.0;0.0;0.0;0.0;0.0;0.0;0.0;0.0;0.0;0.0;0.0;0.0;0.0;0.0;0.0;0.0;0.0;0.0;0.0;0.0
319274000000;163;319274000000;map;36.9743974961;1.15576472634;0.0;0.0;0.0;0.734201112785;0.678932048135;0.00913984974932;0.00211989975608;0.00459720459272;0.0;0.0;0.0;0.0;0.0;0.00105169945496;0.0;0.0;0.0;0.0;0.0;0.0;0.0;0.0;0.0;0.0;0.0;0.0;0.0;0.0;0.0;0.0;0.0;0.0;0.0;0.0;0.0;0.0;0.0;0.0;0.0;0.0;0.0
319685000000;164;319685000000;map;36.9619140845;1.35869693522;0.0;0.0;0.0;0.733865745606;0.679294536579;0.00857784241589;0.00184752253954;0.00435777086323;0.0;0.0;0.0;0.0;0.0;0.00093593227191;0.0;0.0;0.0;0.0;0.0;0.0;0.0;0.0;0.0;0.0;0.0;0.0;0.0;0.0;0.0;0.0;0.0;0.0;0.0;0.0;0.0;0.0;0.0;0.0;0.0;0.0;0.0
320097433949;165;320097433949;map;36.9469662802;1.59048109304;0.0;0.0;0.0;0.733660235643;0.679516488863;0.00828954812187;0.0017689310854;0.00407551996786;0.0;0.0;0.0;0.0;0.0;0.000952388563231;0.0;0.0;0.0;0.0;0.0;0.0;0.0;0.0;0.0;0.0;0.0;0.0;0.0;0.0;0.0;0.0;0.0;0.0;0.0;0.0;0.0;0.0;0.0;0.0;0.0;0.0;0.0
320628000000;166;320628000000;map;36.9306771252;1.79939356083;0.0;0.0;0.0;0.733888593853;0.679269851983;0.00798190257979;0.00164321760339;0.00395039085373;0.0;0.0;0.0;0.0;0.0;0.000892356756629;0.0;0.0;0.0;0.0;0.0;0.0;0.0;0.0;0.0;0.0;0.0;0.0;0.0;0.0;0.0;0.0;0.0;0.0;0.0;0.0;0.0;0.0;0.0;0.0;0.0;0.0;0.0
321011000000;167;321011000000;map;36.9199815057;2.0005428182;0.0;0.0;0.0;0.733930361282;0.679224723334;0.00766740789868;0.00140229930091;0.00368284769611;0.0;0.0;0.0;0.0;0.0;0.000833856518393;0.0;0.0;0.0;0.0;0.0;0.0;0.0;0.0;0.0;0.0;0.0;0.0;0.0;0.0;0.0;0.0;0.0;0.0;0.0;0.0;0.0;0.0;0.0;0.0;0.0;0.0;0.0
322913000000;168;322913000000;map;36.9162506576;2.20387688815;0.0;0.0;0.0;0.702175555955;0.712003854357;0.00773221833333;0.00147554159439;0.00366117473767;0.0;0.0;0.0;0.0;0.0;0.000821343760312;0.0;0.0;0.0;0.0;0.0;0.0;0.0;0.0;0.0;0.0;0.0;0.0;0.0;0.0;0.0;0.0;0.0;0.0;0.0;0.0;0.0;0.0;0.0;0.0;0.0;0.0;0.0
323253721971;169;323253721971;map;36.9221614355;2.40685995101;0.0;0.0;0.0;0.702822624434;0.711365137313;0.00729911863368;0.00132669031139;0.00338734116842;0.0;0.0;0.0;0.0;0.0;0.000732899979527;0.0;0.0;0.0;0.0;0.0;0.0;0.0;0.0;0.0;0.0;0.0;0.0;0.0;0.0;0.0;0.0;0.0;0.0;0.0;0.0;0.0;0.0;0.0;0.0;0.0;0.0;0.0
323695000000;170;323695000000;map;36.9275643559;2.60890079862;0.0;0.0;0.0;0.702367359358;0.711814647579;0.00719438118495;0.00129444928237;0.00339455883907;0.0;0.0;0.0;0.0;0.0;0.000794078022057;0.0;0.0;0.0;0.0;0.0;0.0;0.0;0.0;0.0;0.0;0.0;0.0;0.0;0.0;0.0;0.0;0.0;0.0;0.0;0.0;0.0;0.0;0.0;0.0;0.0;0.0;0.0
324121000000;171;324121000000;map;36.9341309013;2.81092668985;0.0;0.0;0.0;0.702728423916;0.711458194289;0.00701044107859;0.00123020589538;0.00332224031252;0.0;0.0;0.0;0.0;0.0;0.000768880529964;0.0;0.0;0.0;0.0;0.0;0.0;0.0;0.0;0.0;0.0;0.0;0.0;0.0;0.0;0.0;0.0;0.0;0.0;0.0;0.0;0.0;0.0;0.0;0.0;0.0;0.0;0.0
324536000000;172;324536000000;map;36.9382387282;3.01184827997;0.0;0.0;0.0;0.702442638194;0.711740359996;0.00710661065955;0.00119585388308;0.00322943783194;0.0;0.0;0.0;0.0;0.0;0.000775367315909;0.0;0.0;0.0;0.0;0.0;0.0;0.0;0.0;0.0;0.0;0.0;0.0;0.0;0.0;0.0;0.0;0.0;0.0;0.0;0.0;0.0;0.0;0.0;0.0;0.0;0.0;0.0
324953000000;173;324953000000;map;36.9415774329;3.21366228848;0.0;0.0;0.0;0.702528478714;0.711655630622;0.00698743778457;0.00112478444534;0.00311198686559;0.0;0.0;0.0;0.0;0.0;0.000776656242074;0.0;0.0;0.0;0.0;0.0;0.0;0.0;0.0;0.0;0.0;0.0;0.0;0.0;0.0;0.0;0.0;0.0;0.0;0.0;0.0;0.0;0.0;0.0;0.0;0.0;0.0;0.0
325244000000;174;325244000000;map;36.9468984324;3.41473149934;0.0;0.0;0.0;0.70232364646;0.711857777665;0.00677078610238;0.000960801419339;0.00302241690153;0.0;0.0;0.0;0.0;0.0;0.000783479508787;0.0;0.0;0.0;0.0;0.0;0.0;0.0;0.0;0.0;0.0;0.0;0.0;0.0;0.0;0.0;0.0;0.0;0.0;0.0;0.0;0.0;0.0;0.0;0.0;0.0;0.0;0.0
325649000000;175;325649000000;map;36.9521512494;3.61792080547;0.0;0.0;0.0;0.702412962641;0.711769646665;0.00664226586014;0.000966520522695;0.00295801401561;0.0;0.0;0.0;0.0;0.0;0.000775034417135;0.0;0.0;0.0;0.0;0.0;0.0;0.0;0.0;0.0;0.0;0.0;0.0;0.0;0.0;0.0;0.0;0.0;0.0;0.0;0.0;0.0;0.0;0.0;0.0;0.0;0.0;0.0
326002000000;176;326002000000;map;36.9568324955;3.81964117673;0.0;0.0;0.0;0.702780964738;0.711406294323;0.00651233320355;0.000869076566374;0.00297389156359;0.0;0.0;0.0;0.0;0.0;0.000805963678661;0.0;0.0;0.0;0.0;0.0;0.0;0.0;0.0;0.0;0.0;0.0;0.0;0.0;0.0;0.0;0.0;0.0;0.0;0.0;0.0;0.0;0.0;0.0;0.0;0.0;0.0;0.0
326450000000;177;326450000000;map;36.9599974326;4.02157316002;0.0;0.0;0.0;0.702933269862;0.711255803576;0.00637828258573;0.000855542686878;0.00283903866898;0.0;0.0;0.0;0.0;0.0;0.000837507775266;0.0;0.0;0.0;0.0;0.0;0.0;0.0;0.0;0.0;0.0;0.0;0.0;0.0;0.0;0.0;0.0;0.0;0.0;0.0;0.0;0.0;0.0;0.0;0.0;0.0;0.0;0.0
326852000000;178;326852000000;map;36.9637644966;4.22525653558;0.0;0.0;0.0;0.703239780973;0.710952748399;0.00625414931073;0.000884842605899;0.00268850740978;0.0;0.0;0.0;0.0;0.0;0.000834599372358;0.0;0.0;0.0;0.0;0.0;0.0;0.0;0.0;0.0;0.0;0.0;0.0;0.0;0.0;0.0;0.0;0.0;0.0;0.0;0.0;0.0;0.0;0.0;0.0;0.0;0.0;0.0
327252000000;179;327252000000;map;36.9691830396;4.4281570469;0.0;0.0;0.0;0.703038800868;0.71115149193;0.00605773680991;0.000797383488703;0.00263934890433;0.0;0.0;0.0;0.0;0.0;0.00086244861479;0.0;0.0;0.0;0.0;0.0;0.0;0.0;0.0;0.0;0.0;0.0;0.0;0.0;0.0;0.0;0.0;0.0;0.0;0.0;0.0;0.0;0.0;0.0;0.0;0.0;0.0;0.0
327631000000;180;327631000000;map;36.9733910769;4.6281180647;0.0;0.0;0.0;0.703041250778;0.71114906996;0.00581390596017;0.000831907852017;0.00269322914147;0.0;0.0;0.0;0.0;0.0;0.00086903225312;0.0;0.0;0.0;0.0;0.0;0.0;0.0;0.0;0.0;0.0;0.0;0.0;0.0;0.0;0.0;0.0;0.0;0.0;0.0;0.0;0.0;0.0;0.0;0.0;0.0;0.0;0.0
328124000000;181;328124000000;map;36.9756329297;4.82979677111;0.0;0.0;0.0;0.703521277634;0.710674195336;0.005593643358;0.000833017325448;0.0026658628812;0.0;0.0;0.0;0.0;0.0;0.000878797649681;0.0;0.0;0.0;0.0;0.0;0.0;0.0;0.0;0.0;0.0;0.0;0.0;0.0;0.0;0.0;0.0;0.0;0.0;0.0;0.0;0.0;0.0;0.0;0.0;0.0;0.0;0.0
328544000000;182;328544000000;map;36.9808419379;5.03989440216;0.0;0.0;0.0;0.703525149726;0.710670362196;0.00563047336277;0.000743293940189;0.0026431391331;0.0;0.0;0.0;0.0;0.0;0.000892553476681;0.0;0.0;0.0;0.0;0.0;0.0;0.0;0.0;0.0;0.0;0.0;0.0;0.0;0.0;0.0;0.0;0.0;0.0;0.0;0.0;0.0;0.0;0.0;0.0;0.0;0.0;0.0
328946000000;183;328946000000;map;36.9825834077;5.24327416766;0.0;0.0;0.0;0.703416883941;0.71077752313;0.00565316840812;0.00072060884284;0.00269252457318;0.0;0.0;0.0;0.0;0.0;0.000893852108691;0.0;0.0;0.0;0.0;0.0;0.0;0.0;0.0;0.0;0.0;0.0;0.0;0.0;0.0;0.0;0.0;0.0;0.0;0.0;0.0;0.0;0.0;0.0;0.0;0.0;0.0;0.0
329324000000;184;329324000000;map;36.9842916738;5.45323273567;0.0;0.0;0.0;0.703770477216;0.710427417404;0.00553778139488;0.000624389287566;0.00279945452526;0.0;0.0;0.0;0.0;0.0;0.000931247489399;0.0;0.0;0.0;0.0;0.0;0.0;0.0;0.0;0.0;0.0;0.0;0.0;0.0;0.0;0.0;0.0;0.0;0.0;0.0;0.0;0.0;0.0;0.0;0.0;0.0;0.0;0.0
329749626834;185;329749626834;map;36.9878889652;5.653920448;0.0;0.0;0.0;0.704301029191;0.709901444061;0.00541419221827;0.000461342252095;0.0027948780747;0.0;0.0;0.0;0.0;0.0;0.000915016514387;0.0;0.0;0.0;0.0;0.0;0.0;0.0;0.0;0.0;0.0;0.0;0.0;0.0;0.0;0.0;0.0;0.0;0.0;0.0;0.0;0.0;0.0;0.0;0.0;0.0;0.0;0.0
330141000000;186;330141000000;map;36.9915318456;5.85389684468;0.0;0.0;0.0;0.704122854436;0.710078168838;0.00554578672745;0.00036289722982;0.00285516489996;0.0;0.0;0.0;0.0;0.0;0.000965696354332;0.0;0.0;0.0;0.0;0.0;0.0;0.0;0.0;0.0;0.0;0.0;0.0;0.0;0.0;0.0;0.0;0.0;0.0;0.0;0.0;0.0;0.0;0.0;0.0;0.0;0.0;0.0
330496000000;187;330496000000;map;36.9956503683;6.05595508906;0.0;0.0;0.0;0.704302680474;0.709899805802;0.00572986530119;0.000337179182878;0.00285493085086;0.0;0.0;0.0;0.0;0.0;0.000987269675206;0.0;0.0;0.0;0.0;0.0;0.0;0.0;0.0;0.0;0.0;0.0;0.0;0.0;0.0;0.0;0.0;0.0;0.0;0.0;0.0;0.0;0.0;0.0;0.0;0.0;0.0;0.0
330881000000;188;330881000000;map;37.0007063522;6.2638372743;0.0;0.0;0.0;0.704138092947;0.710063057807;0.00575596353406;0.000247893760019;0.00290554851794;0.0;0.0;0.0;0.0;0.0;0.00104330086006;0.0;0.0;0.0;0.0;0.0;0.0;0.0;0.0;0.0;0.0;0.0;0.0;0.0;0.0;0.0;0.0;0.0;0.0;0.0;0.0;0.0;0.0;0.0;0.0;0.0;0.0;0.0
331422000000;189;331422000000;map;37.0022978652;6.47358360519;0.0;0.0;0.0;0.704240205435;0.709961782809;0.00581442759972;0.000173311888375;0.00287836596198;0.0;0.0;0.0;0.0;0.0;0.00113467306549;0.0;0.0;0.0;0.0;0.0;0.0;0.0;0.0;0.0;0.0;0.0;0.0;0.0;0.0;0.0;0.0;0.0;0.0;0.0;0.0;0.0;0.0;0.0;0.0;0.0;0.0;0.0
331848000000;190;331848000000;map;37.00730099;6.67380177719;0.0;0.0;0.0;0.704206271494;0.709995441667;0.00568556299504;3.28598481474e-05;0.00301981058684;0.0;0.0;0.0;0.0;0.0;0.00115617324165;0.0;0.0;0.0;0.0;0.0;0.0;0.0;0.0;0.0;0.0;0.0;0.0;0.0;0.0;0.0;0.0;0.0;0.0;0.0;0.0;0.0;0.0;0.0;0.0;0.0;0.0;0.0
332246000000;191;332246000000;map;37.0105106864;6.88223903237;0.0;0.0;0.0;0.704076635976;0.710123996688;0.00571277990684;0.000109427058561;0.00313836153131;0.0;0.0;0.0;0.0;0.0;0.00120554879821;0.0;0.0;0.0;0.0;0.0;0.0;0.0;0.0;0.0;0.0;0.0;0.0;0.0;0.0;0.0;0.0;0.0;0.0;0.0;0.0;0.0;0.0;0.0;0.0;0.0;0.0;0.0
332598000000;192;332598000000;map;37.0135282456;7.09186246448;0.0;0.0;0.0;0.703850418362;0.710348216421;0.00580089005598;2.08339923233e-05;0.00322213928165;0.0;0.0;0.0;0.0;0.0;0.00130280861658;0.0;0.0;0.0;0.0;0.0;0.0;0.0;0.0;0.0;0.0;0.0;0.0;0.0;0.0;0.0;0.0;0.0;0.0;0.0;0.0;0.0;0.0;0.0;0.0;0.0;0.0;0.0
333057000000;193;333057000000;map;37.0167446359;7.32666017454;0.0;0.0;0.0;0.704324898765;0.709877761998;0.00589017992456;-0.00022637708264;0.00339130306435;0.0;0.0;0.0;0.0;0.0;0.00145678004062;0.0;0.0;0.0;0.0;0.0;0.0;0.0;0.0;0.0;0.0;0.0;0.0;0.0;0.0;0.0;0.0;0.0;0.0;0.0;0.0;0.0;0.0;0.0;0.0;0.0;0.0;0.0
333558000000;194;333558000000;map;37.0178684448;7.52739220738;0.0;0.0;0.0;0.703903358358;0.710295756775;0.00609209134018;-0.000299434806493;0.00343718318155;0.0;0.0;0.0;0.0;0.0;0.00145687563078;0.0;0.0;0.0;0.0;0.0;0.0;0.0;0.0;0.0;0.0;0.0;0.0;0.0;0.0;0.0;0.0;0.0;0.0;0.0;0.0;0.0;0.0;0.0;0.0;0.0;0.0;0.0
333918000000;195;333918000000;map;37.0224390334;7.73900214674;0.0;0.0;0.0;0.703906412497;0.710292730109;0.00604695598372;-0.00036163082757;0.00353320035167;0.0;0.0;0.0;0.0;0.0;0.00132365898405;0.0;0.0;0.0;0.0;0.0;0.0;0.0;0.0;0.0;0.0;0.0;0.0;0.0;0.0;0.0;0.0;0.0;0.0;0.0;0.0;0.0;0.0;0.0;0.0;0.0;0.0;0.0
334305000000;196;334305000000;map;37.0264517136;7.94622547449;0.0;0.0;0.0;0.703848354056;0.710350261837;0.00571906509117;-0.000418813315434;0.0034934420659;0.0;0.0;0.0;0.0;0.0;0.00124270367327;0.0;0.0;0.0;0.0;0.0;0.0;0.0;0.0;0.0;0.0;0.0;0.0;0.0;0.0;0.0;0.0;0.0;0.0;0.0;0.0;0.0;0.0;0.0;0.0;0.0;0.0;0.0
334724118807;197;334724118807;map;37.0282181256;8.14681460493;0.0;0.0;0.0;0.703619820477;0.710576630795;0.00578646646545;-0.000432351884001;0.00355558541582;0.0;0.0;0.0;0.0;0.0;0.00116652535348;0.0;0.0;0.0;0.0;0.0;0.0;0.0;0.0;0.0;0.0;0.0;0.0;0.0;0.0;0.0;0.0;0.0;0.0;0.0;0.0;0.0;0.0;0.0;0.0;0.0;0.0;0.0
335091000000;198;335091000000;map;37.0281704245;8.34945117071;0.0;0.0;0.0;0.703940217979;0.710259226981;0.00544483128715;-0.000311058527302;0.00351151210336;0.0;0.0;0.0;0.0;0.0;0.00109546668461;0.0;0.0;0.0;0.0;0.0;0.0;0.0;0.0;0.0;0.0;0.0;0.0;0.0;0.0;0.0;0.0;0.0;0.0;0.0;0.0;0.0;0.0;0.0;0.0;0.0;0.0;0.0
335602000000;199;335602000000;map;37.0303856881;8.54956997168;0.0;0.0;0.0;0.704115494022;0.710085467446;0.00529831211588;-0.000367796476894;0.00345406195684;0.0;0.0;0.0;0.0;0.0;0.00101346173745;0.0;0.0;0.0;0.0;0.0;0.0;0.0;0.0;0.0;0.0;0.0;0.0;0.0;0.0;0.0;0.0;0.0;0.0;0.0;0.0;0.0;0.0;0.0;0.0;0.0;0.0;0.0
336007000000;200;336007000000;map;37.0300839986;8.75292877608;0.0;0.0;0.0;0.704307228121;0.709895293981;0.00545475954777;-0.000398524742252;0.00339432077929;0.0;0.0;0.0;0.0;0.0;0.00100474546298;0.0;0.0;0.0;0.0;0.0;0.0;0.0;0.0;0.0;0.0;0.0;0.0;0.0;0.0;0.0;0.0;0.0;0.0;0.0;0.0;0.0;0.0;0.0;0.0;0.0;0.0;0.0
336417000000;201;336417000000;map;37.0338881796;8.95141897557;0.0;0.0;0.0;0.704149414402;0.710051830642;0.00534469625632;-0.00033967466635;0.00341178711835;0.0;0.0;0.0;0.0;0.0;0.000956368352911;0.0;0.0;0.0;0.0;0.0;0.0;0.0;0.0;0.0;0.0;0.0;0.0;0.0;0.0;0.0;0.0;0.0;0.0;0.0;0.0;0.0;0.0;0.0;0.0;0.0;0.0;0.0
336818000000;202;336818000000;map;37.0356127832;9.20076743495;0.0;0.0;0.0;0.704298067462;0.709904382413;0.00526890928109;-0.000514628941175;0.00353901908005;0.0;0.0;0.0;0.0;0.0;0.00114636310125;0.0;0.0;0.0;0.0;0.0;0.0;0.0;0.0;0.0;0.0;0.0;0.0;0.0;0.0;0.0;0.0;0.0;0.0;0.0;0.0;0.0;0.0;0.0;0.0;0.0;0.0;0.0
337310000000;203;337310000000;map;37.0361312664;9.40204124243;0.0;0.0;0.0;0.704801512941;0.709404558313;0.00517554255453;-0.000403767549642;0.00361267738651;0.0;0.0;0.0;0.0;0.0;0.00105919864899;0.0;0.0;0.0;0.0;0.0;0.0;0.0;0.0;0.0;0.0;0.0;0.0;0.0;0.0;0.0;0.0;0.0;0.0;0.0;0.0;0.0;0.0;0.0;0.0;0.0;0.0;0.0
337715000000;204;337715000000;map;37.0354413948;9.61091949797;0.0;0.0;0.0;0.704843434016;0.709362906786;0.00499800944203;-0.000307446495356;0.00372428362374;0.0;0.0;0.0;0.0;0.0;0.000989333537144;0.0;0.0;0.0;0.0;0.0;0.0;0.0;0.0;0.0;0.0;0.0;0.0;0.0;0.0;0.0;0.0;0.0;0.0;0.0;0.0;0.0;0.0;0.0;0.0;0.0;0.0;0.0
338115000000;205;338115000000;map;37.037782975;9.82051430087;0.0;0.0;0.0;0.704767109173;0.709438737191;0.00477732669583;-0.000265457040086;0.0037673150036;0.0;0.0;0.0;0.0;0.0;0.00101111434225;0.0;0.0;0.0;0.0;0.0;0.0;0.0;0.0;0.0;0.0;0.0;0.0;0.0;0.0;0.0;0.0;0.0;0.0;0.0;0.0;0.0;0.0;0.0;0.0;0.0;0.0;0.0
338517217967;206;338517217967;map;37.0391089566;10.0210442779;0.0;0.0;0.0;0.704790124228;0.709415872948;0.00470128726761;-0.000252334568074;0.00375274087811;0.0;0.0;0.0;0.0;0.0;0.000979101294005;0.0;0.0;0.0;0.0;0.0;0.0;0.0;0.0;0.0;0.0;0.0;0.0;0.0;0.0;0.0;0.0;0.0;0.0;0.0;0.0;0.0;0.0;0.0;0.0;0.0;0.0;0.0
338909000000;207;338909000000;map;37.0405015746;10.230149538;0.0;0.0;0.0;0.704460949714;0.709742749401;0.00443068178106;-0.000178357959612;0.00390664208354;0.0;0.0;0.0;0.0;0.0;0.00097815583293;0.0;0.0;0.0;0.0;0.0;0.0;0.0;0.0;0.0;0.0;0.0;0.0;0.0;0.0;0.0;0.0;0.0;0.0;0.0;0.0;0.0;0.0;0.0;0.0;0.0;0.0;0.0
339316000000;208;339316000000;map;37.0421091756;10.4297565323;0.0;0.0;0.0;0.704103840604;0.710097022699;0.00443071241443;-0.000365916599378;0.00401362410807;0.0;0.0;0.0;0.0;0.0;0.000964963970142;0.0;0.0;0.0;0.0;0.0;0.0;0.0;0.0;0.0;0.0;0.0;0.0;0.0;0.0;0.0;0.0;0.0;0.0;0.0;0.0;0.0;0.0;0.0;0.0;0.0;0.0;0.0
339807000000;209;339807000000;map;37.0438740802;10.6397201266;0.0;0.0;0.0;0.703669620373;0.710527315002;0.00427204211792;-0.00031426024168;0.00411649819641;0.0;0.0;0.0;0.0;0.0;0.00098701283276;0.0;0.0;0.0;0.0;0.0;0.0;0.0;0.0;0.0;0.0;0.0;0.0;0.0;0.0;0.0;0.0;0.0;0.0;0.0;0.0;0.0;0.0;0.0;0.0;0.0;0.0;0.0
340181000000;210;340181000000;map;37.0447829479;10.8448691194;0.0;0.0;0.0;0.703682061234;0.710514994;0.00439645235156;-0.000371770489778;0.00418823587943;0.0;0.0;0.0;0.0;0.0;0.000986212718188;0.0;0.0;0.0;0.0;0.0;0.0;0.0;0.0;0.0;0.0;0.0;0.0;0.0;0.0;0.0;0.0;0.0;0.0;0.0;0.0;0.0;0.0;0.0;0.0;0.0;0.0;0.0
340617000000;211;340617000000;map;37.0452422044;11.0460936009;0.0;0.0;0.0;0.703921562439;0.710277716061;0.00438256972575;-0.000248730905014;0.00415659355482;0.0;0.0;0.0;0.0;0.0;0.000914150538005;0.0;0.0;0.0;0.0;0.0;0.0;0.0;0.0;0.0;0.0;0.0;0.0;0.0;0.0;0.0;0.0;0.0;0.0;0.0;0.0;0.0;0.0;0.0;0.0;0.0;0.0;0.0
340997000000;212;340997000000;map;37.0432980023;11.2478061867;0.0;0.0;0.0;0.704177160079;0.710024314529;0.00442458252428;-0.000245421379873;0.00411370531265;0.0;0.0;0.0;0.0;0.0;0.000942979396259;0.0;0.0;0.0;0.0;0.0;0.0;0.0;0.0;0.0;0.0;0.0;0.0;0.0;0.0;0.0;0.0;0.0;0.0;0.0;0.0;0.0;0.0;0.0;0.0;0.0;0.0;0.0
341362000000;213;341362000000;map;37.0456584286;11.4488478499;0.0;0.0;0.0;0.704272232695;0.709930012223;0.00450111198506;-0.000294245539465;0.00410236105691;0.0;0.0;0.0;0.0;0.0;0.000881980796564;0.0;0.0;0.0;0.0;0.0;0.0;0.0;0.0;0.0;0.0;0.0;0.0;0.0;0.0;0.0;0.0;0.0;0.0;0.0;0.0;0.0;0.0;0.0;0.0;0.0;0.0;0.0
341815000000;214;341815000000;map;37.0471437584;11.6497180242;0.0;0.0;0.0;0.704476040932;0.709727770172;0.00447362241403;-0.00026350145589;0.00420473102801;0.0;0.0;0.0;0.0;0.0;0.000845968652661;0.0;0.0;0.0;0.0;0.0;0.0;0.0;0.0;0.0;0.0;0.0;0.0;0.0;0.0;0.0;0.0;0.0;0.0;0.0;0.0;0.0;0.0;0.0;0.0;0.0;0.0;0.0
342216000000;215;342216000000;map;37.0464726211;11.8518392222;0.0;0.0;0.0;0.704702918201;0.709502499699;0.00460371449526;-0.000317566407432;0.00434112010174;0.0;0.0;0.0;0.0;0.0;0.000797043125387;0.0;0.0;0.0;0.0;0.0;0.0;0.0;0.0;0.0;0.0;0.0;0.0;0.0;0.0;0.0;0.0;0.0;0.0;0.0;0.0;0.0;0.0;0.0;0.0;0.0;0.0;0.0
342613000000;216;342613000000;map;37.0484544239;12.0614946634;0.0;0.0;0.0;0.704416944198;0.709786424727;0.00453808991506;-0.000370009389655;0.00447331799452;0.0;0.0;0.0;0.0;0.0;0.000766403557003;0.0;0.0;0.0;0.0;0.0;0.0;0.0;0.0;0.0;0.0;0.0;0.0;0.0;0.0;0.0;0.0;0.0;0.0;0.0;0.0;0.0;0.0;0.0;0.0;0.0;0.0;0.0
343012000000;217;343012000000;map;37.0502267543;12.2640729977;0.0;0.0;0.0;0.704665660221;0.709539503696;0.00439646029145;-0.000415853815866;0.0045534754457;0.0;0.0;0.0;0.0;0.0;0.000762249318721;0.0;0.0;0.0;0.0;0.0;0.0;0.0;0.0;0.0;0.0;0.0;0.0;0.0;0.0;0.0;0.0;0.0;0.0;0.0;0.0;0.0;0.0;0.0;0.0;0.0;0.0;0.0
343420000000;218;343420000000;map;37.0513143582;12.4629487935;0.0;0.0;0.0;0.704790247827;0.709415750155;0.00432625828648;-0.000457618988833;0.00471638968193;0.0;0.0;0.0;0.0;0.0;0.000767836450421;0.0;0.0;0.0;0.0;0.0;0.0;0.0;0.0;0.0;0.0;0.0;0.0;0.0;0.0;0.0;0.0;0.0;0.0;0.0;0.0;0.0;0.0;0.0;0.0;0.0;0.0;0.0
343763000000;219;343763000000;map;37.0537202158;12.6749055614;0.0;0.0;0.0;0.704481642067;0.709722210439;0.00416142474387;-0.000452736937746;0.00466411446914;0.0;0.0;0.0;0.0;0.0;0.000807708269058;0.0;0.0;0.0;0.0;0.0;0.0;0.0;0.0;0.0;0.0;0.0;0.0;0.0;0.0;0.0;0.0;0.0;0.0;0.0;0.0;0.0;0.0;0.0;0.0;0.0;0.0;0.0
344213000000;220;344213000000;map;37.0544019924;12.8839803272;0.0;0.0;0.0;0.704513306761;0.709690778154;0.0041697895449;-0.000390460748633;0.0045916092827;0.0;0.0;0.0;0.0;0.0;0.000798092484047;0.0;0.0;0.0;0.0;0.0;0.0;0.0;0.0;0.0;0.0;0.0;0.0;0.0;0.0;0.0;0.0;0.0;0.0;0.0;0.0;0.0;0.0;0.0;0.0;0.0;0.0;0.0
347303000000;221;347303000000;map;37.0563471888;12.9879435771;0.0;0.0;0.0;0.857976622365;0.513688734036;0.00423304213041;-0.000285581379615;0.00899424115266;0.0;0.0;0.0;0.0;0.0;0.00327850332158;0.0;0.0;0.0;0.0;0.0;0.0;0.0;0.0;0.0;0.0;0.0;0.0;0.0;0.0;0.0;0.0;0.0;0.0;0.0;0.0;0.0;0.0;0.0;0.0;0.0;0.0;0.0
349601000000;222;349601000000;map;37.0538604987;12.9909016413;0.0;0.0;0.0;0.958879107401;0.283814829405;0.00527503691524;-0.00190716921185;0.0110536228324;0.0;0.0;0.0;0.0;0.0;0.00451665955842;0.0;0.0;0.0;0.0;0.0;0.0;0.0;0.0;0.0;0.0;0.0;0.0;0.0;0.0;0.0;0.0;0.0;0.0;0.0;0.0;0.0;0.0;0.0;0.0;0.0;0.0;0.0
351712000000;223;351712000000;map;37.0493742058;12.9974637;0.0;0.0;0.0;0.999286085047;0.0377798918951;0.00803609240074;-0.00339622315113;0.0108744103246;0.0;0.0;0.0;0.0;0.0;0.00509275508678;0.0;0.0;0.0;0.0;0.0;0.0;0.0;0.0;0.0;0.0;0.0;0.0;0.0;0.0;0.0;0.0;0.0;0.0;0.0;0.0;0.0;0.0;0.0;0.0;0.0;0.0;0.0
352115000000;224;352115000000;map;37.0462481283;13.0061147034;0.0;0.0;0.0;-0.999999330518;0.00115713626603;0.00772917981567;-0.00327893387527;0.00994611496594;0.0;0.0;0.0;0.0;0.0;0.00304965088717;0.0;0.0;0.0;0.0;0.0;0.0;0.0;0.0;0.0;0.0;0.0;0.0;0.0;0.0;0.0;0.0;0.0;0.0;0.0;0.0;0.0;0.0;0.0;0.0;0.0;0.0;0.0
353494000000;225;353494000000;map;36.8385610144;12.9979678437;0.0;0.0;0.0;-0.999613031091;0.0278170464615;0.00762890020951;-0.00293195652029;0.0087271691186;0.0;0.0;0.0;0.0;0.0;0.00204939101256;0.0;0.0;0.0;0.0;0.0;0.0;0.0;0.0;0.0;0.0;0.0;0.0;0.0;0.0;0.0;0.0;0.0;0.0;0.0;0.0;0.0;0.0;0.0;0.0;0.0;0.0;0.0
353928000000;226;353928000000;map;36.6334037049;12.9967262228;0.0;0.0;0.0;-0.999628730404;0.0272470429921;0.00760435227153;-0.00254654150928;0.00785706535365;0.0;0.0;0.0;0.0;0.0;0.00140607123069;0.0;0.0;0.0;0.0;0.0;0.0;0.0;0.0;0.0;0.0;0.0;0.0;0.0;0.0;0.0;0.0;0.0;0.0;0.0;0.0;0.0;0.0;0.0;0.0;0.0;0.0;0.0
354311000000;227;354311000000;map;36.4299065884;12.9916371077;0.0;0.0;0.0;-0.99964686109;0.0265735416063;0.00747636509504;-0.0023854122764;0.00746040128487;0.0;0.0;0.0;0.0;0.0;0.00118863497725;0.0;0.0;0.0;0.0;0.0;0.0;0.0;0.0;0.0;0.0;0.0;0.0;0.0;0.0;0.0;0.0;0.0;0.0;0.0;0.0;0.0;0.0;0.0;0.0;0.0;0.0;0.0
