%time;field.header.seq;field.header.stamp;field.header.frame_id;field.pose.pose.position.x;field.pose.pose.position.y;field.pose.pose.position.z;field.pose.pose.orientation.x;field.pose.pose.orientation.y;field.pose.pose.orientation.z;field.pose.pose.orientation.w;field.pose.covariance0;field.pose.covariance1;field.pose.covariance2;field.pose.covariance3;field.pose.covariance4;field.pose.covariance5;field.pose.covariance6;field.pose.covariance7;field.pose.covariance8;field.pose.covariance9;field.pose.covariance10;field.pose.covariance11;field.pose.covariance12;field.pose.covariance13;field.pose.covariance14;field.pose.covariance15;field.pose.covariance16;field.pose.covariance17;field.pose.covariance18;field.pose.covariance19;field.pose.covariance20;field.pose.covariance21;field.pose.covariance22;field.pose.covariance23;field.pose.covariance24;field.pose.covariance25;field.pose.covariance26;field.pose.covariance27;field.pose.covariance28;field.pose.covariance29;field.pose.covariance30;field.pose.covariance31;field.pose.covariance32;field.pose.covariance33;field.pose.covariance34;field.pose.covariance35
255143000000;45;255143000000;map;9.9882215137;-0.00327134202354;0.0;0.0;0.0;-0.00181744008094;0.999998348454;0.00167521767537;-0.000278706241962;0.00215515294779;0.0;0.0;0.0;0.0;0.0;0.000703484586561;0.0;0.0;0.0;0.0;0.0;0.0;0.0;0.0;0.0;0.0;0.0;0.0;0.0;0.0;0.0;0.0;0.0;0.0;0.0;0.0;0.0;0.0;0.0;0.0;0.0;0.0;0.0
255542000000;46;255542000000;map;10.1901189621;-0.00206445975339;0.0;0.0;0.0;-0.00085636494288;0.999999633319;0.00171671344211;-0.000458881347104;0.00244589676736;0.0;0.0;0.0;0.0;0.0;0.000604114030527;0.0;0.0;0.0;0.0;0.0;0.0;0.0;0.0;0.0;0.0;0.0;0.0;0.0;0.0;0.0;0.0;0.0;0.0;0.0;0.0;0.0;0.0;0.0;0.0;0.0;0.0;0.0
255944000000;47;255944000000;map;10.4526911199;-0.0229071210654;0.0;0.0;0.0;-0.00339079099486;0.999994251252;0.0016919279966;-0.000631003705175;0.00259173650335;0.0;0.0;0.0;0.0;0.0;0.000641696686603;0.0;0.0;0.0;0.0;0.0;0.0;0.0;0.0;0.0;0.0;0.0;0.0;0.0;0.0;0.0;0.0;0.0;0.0;0.0;0.0;0.0;0.0;0.0;0.0;0.0;0.0;0.0
256360000000;48;256360000000;map;10.6544011465;-0.0246781048874;0.0;0.0;0.0;-0.00252434366663;0.999996813839;0.00155138697323;-0.000610141710199;0.00257132292454;0.0;0.0;0.0;0.0;0.0;0.000686343768116;0.0;0.0;0.0;0.0;0.0;0.0;0.0;0.0;0.0;0.0;0.0;0.0;0.0;0.0;0.0;0.0;0.0;0.0;0.0;0.0;0.0;0.0;0.0;0.0;0.0;0.0;0.0
256757000000;49;256757000000;map;10.8559305754;-0.0305025296404;0.0;0.0;0.0;-0.00205383873652;0.999997890871;0.00167392091755;-0.00070255730146;0.00243138382064;0.0;0.0;0.0;0.0;0.0;0.000581216006109;0.0;0.0;0.0;0.0;0.0;0.0;0.0;0.0;0.0;0.0;0.0;0.0;0.0;0.0;0.0;0.0;0.0;0.0;0.0;0.0;0.0;0.0;0.0;0.0;0.0;0.0;0.0
257154000000;50;257154000000;map;11.0565376877;-0.0321467671818;0.0;0.0;0.0;-0.000160486201087;0.999999987122;0.0015883112366;-0.00061193271374;0.00220957785722;0.0;0.0;0.0;0.0;0.0;0.000578650104003;0.0;0.0;0.0;0.0;0.0;0.0;0.0;0.0;0.0;0.0;0.0;0.0;0.0;0.0;0.0;0.0;0.0;0.0;0.0;0.0;0.0;0.0;0.0;0.0;0.0;0.0;0.0
257567773809;51;257567773809;map;11.2052583643;-0.0111646844716;0.0;0.0;0.0;-0.000649298690737;0.999999789206;0.00154606881776;-0.000591393316619;0.00218082552347;0.0;0.0;0.0;0.0;0.0;0.000637115697722;0.0;0.0;0.0;0.0;0.0;0.0;0.0;0.0;0.0;0.0;0.0;0.0;0.0;0.0;0.0;0.0;0.0;0.0;0.0;0.0;0.0;0.0;0.0;0.0;0.0;0.0;0.0
257959000000;52;257959000000;map;11.408802689;-0.0109757032727;0.0;0.0;0.0;-0.000951357981285;0.999999547459;0.00150231374306;-0.000601110888434;0.00196079803691;0.0;0.0;0.0;0.0;0.0;0.000625111854206;0.0;0.0;0.0;0.0;0.0;0.0;0.0;0.0;0.0;0.0;0.0;0.0;0.0;0.0;0.0;0.0;0.0;0.0;0.0;0.0;0.0;0.0;0.0;0.0;0.0;0.0;0.0
258362000000;53;258362000000;map;11.6094613464;-0.0136047563103;0.0;0.0;0.0;-0.00205754938542;0.999997883243;0.00143453456371;-0.000509553823991;0.00186898362216;0.0;0.0;0.0;0.0;0.0;0.000584434107537;0.0;0.0;0.0;0.0;0.0;0.0;0.0;0.0;0.0;0.0;0.0;0.0;0.0;0.0;0.0;0.0;0.0;0.0;0.0;0.0;0.0;0.0;0.0;0.0;0.0;0.0;0.0
258755000000;54;258755000000;map;11.8144258485;-0.0171476798329;0.0;0.0;0.0;-0.00285678863684;0.999995919371;0.00139419817006;-0.000451871532079;0.00194848158251;0.0;0.0;0.0;0.0;0.0;0.000604261471171;0.0;0.0;0.0;0.0;0.0;0.0;0.0;0.0;0.0;0.0;0.0;0.0;0.0;0.0;0.0;0.0;0.0;0.0;0.0;0.0;0.0;0.0;0.0;0.0;0.0;0.0;0.0
259156000000;55;259156000000;map;12.0580824739;-0.0382966007012;0.0;0.0;0.0;-0.00114757270705;0.999999341538;0.0013853220467;-0.000439481163905;0.00180613534553;0.0;0.0;0.0;0.0;0.0;0.000561405104902;0.0;0.0;0.0;0.0;0.0;0.0;0.0;0.0;0.0;0.0;0.0;0.0;0.0;0.0;0.0;0.0;0.0;0.0;0.0;0.0;0.0;0.0;0.0;0.0;0.0;0.0;0.0
259562000000;56;259562000000;map;12.2586480505;-0.0369141350097;0.0;0.0;0.0;-0.000683156170698;0.999999766649;0.00135749651562;-0.000366967753688;0.00154467235709;0.0;0.0;0.0;0.0;0.0;0.000566663187853;0.0;0.0;0.0;0.0;0.0;0.0;0.0;0.0;0.0;0.0;0.0;0.0;0.0;0.0;0.0;0.0;0.0;0.0;0.0;0.0;0.0;0.0;0.0;0.0;0.0;0.0;0.0
259956000000;57;259956000000;map;12.474633656;-0.0389365773374;0.0;0.0;0.0;-0.00149368083628;0.999998884458;0.0012698183412;-0.000285666472891;0.00163767072955;0.0;0.0;0.0;0.0;0.0;0.000675126242829;0.0;0.0;0.0;0.0;0.0;0.0;0.0;0.0;0.0;0.0;0.0;0.0;0.0;0.0;0.0;0.0;0.0;0.0;0.0;0.0;0.0;0.0;0.0;0.0;0.0;0.0;0.0
260474000000;58;260474000000;map;12.6741834554;-0.0396794049218;0.0;0.0;0.0;-0.000935476493552;0.999999562442;0.00127636011632;-0.000219549926147;0.00153794403886;0.0;0.0;0.0;0.0;0.0;0.00067537260159;0.0;0.0;0.0;0.0;0.0;0.0;0.0;0.0;0.0;0.0;0.0;0.0;0.0;0.0;0.0;0.0;0.0;0.0;0.0;0.0;0.0;0.0;0.0;0.0;0.0;0.0;0.0
260854000000;59;260854000000;map;12.8771579487;-0.0422286238788;0.0;0.0;0.0;-0.00117611275382;0.999999308379;0.00126080590516;-0.000255075766686;0.00161291638164;0.0;0.0;0.0;0.0;0.0;0.000666851989119;0.0;0.0;0.0;0.0;0.0;0.0;0.0;0.0;0.0;0.0;0.0;0.0;0.0;0.0;0.0;0.0;0.0;0.0;0.0;0.0;0.0;0.0;0.0;0.0;0.0;0.0;0.0
261253000000;60;261253000000;map;13.0879042703;-0.0436293929642;0.0;0.0;0.0;-0.000537962500296;0.999999855298;0.00115823194233;-0.000274223181717;0.00165842246013;0.0;0.0;0.0;0.0;0.0;0.000686567050659;0.0;0.0;0.0;0.0;0.0;0.0;0.0;0.0;0.0;0.0;0.0;0.0;0.0;0.0;0.0;0.0;0.0;0.0;0.0;0.0;0.0;0.0;0.0;0.0;0.0;0.0;0.0
261663000000;61;261663000000;map;13.285670781;-0.0429848880868;0.0;0.0;0.0;-0.000405496962005;0.999999917786;0.00116679810409;-0.000137657556397;0.00164160173195;0.0;0.0;0.0;0.0;0.0;0.000658694661571;0.0;0.0;0.0;0.0;0.0;0.0;0.0;0.0;0.0;0.0;0.0;0.0;0.0;0.0;0.0;0.0;0.0;0.0;0.0;0.0;0.0;0.0;0.0;0.0;0.0;0.0;0.0
262054000000;62;262054000000;map;13.4948965615;-0.0433556147625;0.0;0.0;0.0;2.547557916e-06;0.999999999997;0.00119525406956;-0.000136861419771;0.00158771978385;0.0;0.0;0.0;0.0;0.0;0.000650589807384;0.0;0.0;0.0;0.0;0.0;0.0;0.0;0.0;0.0;0.0;0.0;0.0;0.0;0.0;0.0;0.0;0.0;0.0;0.0;0.0;0.0;0.0;0.0;0.0;0.0;0.0;0.0
262471000000;63;262471000000;map;13.6996255814;-0.0386683454249;0.0;0.0;0.0;0.00141798072299;0.999998994665;0.00130537144574;-7.25018234715e-05;0.00162379710507;0.0;0.0;0.0;0.0;0.0;0.000633363747157;0.0;0.0;0.0;0.0;0.0;0.0;0.0;0.0;0.0;0.0;0.0;0.0;0.0;0.0;0.0;0.0;0.0;0.0;0.0;0.0;0.0;0.0;0.0;0.0;0.0;0.0;0.0
262855000000;64;262855000000;map;13.9068754679;-0.0389429516783;0.0;0.0;0.0;0.00251887947778;0.999996827618;0.00128613024955;-0.000154307640129;0.00171752295108;0.0;0.0;0.0;0.0;0.0;0.000657261447282;0.0;0.0;0.0;0.0;0.0;0.0;0.0;0.0;0.0;0.0;0.0;0.0;0.0;0.0;0.0;0.0;0.0;0.0;0.0;0.0;0.0;0.0;0.0;0.0;0.0;0.0;0.0
263256000000;65;263256000000;map;14.1097549906;-0.0364173971327;0.0;0.0;0.0;0.00192214207044;0.999998152683;0.00127873191943;-0.000205759361707;0.00184175638676;0.0;0.0;0.0;0.0;0.0;0.00071770446976;0.0;0.0;0.0;0.0;0.0;0.0;0.0;0.0;0.0;0.0;0.0;0.0;0.0;0.0;0.0;0.0;0.0;0.0;0.0;0.0;0.0;0.0;0.0;0.0;0.0;0.0;0.0
263753000000;66;263753000000;map;14.3091573967;-0.0377551269471;0.0;0.0;0.0;0.00107225729074;0.999999425132;0.00129392265995;-0.000223765815986;0.00196358127479;0.0;0.0;0.0;0.0;0.0;0.000700113169746;0.0;0.0;0.0;0.0;0.0;0.0;0.0;0.0;0.0;0.0;0.0;0.0;0.0;0.0;0.0;0.0;0.0;0.0;0.0;0.0;0.0;0.0;0.0;0.0;0.0;0.0;0.0
264158000000;67;264158000000;map;14.5666997883;-0.0390105024291;0.0;0.0;0.0;0.000453970174263;0.999999896956;0.0014605359369;-0.000184447563519;0.0020470673294;0.0;0.0;0.0;0.0;0.0;0.000808580975762;0.0;0.0;0.0;0.0;0.0;0.0;0.0;0.0;0.0;0.0;0.0;0.0;0.0;0.0;0.0;0.0;0.0;0.0;0.0;0.0;0.0;0.0;0.0;0.0;0.0;0.0;0.0
264668000000;68;264668000000;map;14.772104837;-0.0382786016851;0.0;0.0;0.0;0.00115497268909;0.999999333019;0.00148236259511;-0.00017457299522;0.00197177747439;0.0;0.0;0.0;0.0;0.0;0.000806451059865;0.0;0.0;0.0;0.0;0.0;0.0;0.0;0.0;0.0;0.0;0.0;0.0;0.0;0.0;0.0;0.0;0.0;0.0;0.0;0.0;0.0;0.0;0.0;0.0;0.0;0.0;0.0
265057000000;69;265057000000;map;14.9789045908;-0.0391581526204;0.0;0.0;0.0;0.000787182543804;0.999999690172;0.00147944401849;-9.32864219184e-05;0.00209319997847;0.0;0.0;0.0;0.0;0.0;0.000845704400404;0.0;0.0;0.0;0.0;0.0;0.0;0.0;0.0;0.0;0.0;0.0;0.0;0.0;0.0;0.0;0.0;0.0;0.0;0.0;0.0;0.0;0.0;0.0;0.0;0.0;0.0;0.0
265472000000;70;265472000000;map;15.1850251659;-0.0301822390205;0.0;0.0;0.0;0.00219604627978;0.999997588687;0.00173561179102;7.06775370423e-05;0.00198855035752;0.0;0.0;0.0;0.0;0.0;0.000716219666308;0.0;0.0;0.0;0.0;0.0;0.0;0.0;0.0;0.0;0.0;0.0;0.0;0.0;0.0;0.0;0.0;0.0;0.0;0.0;0.0;0.0;0.0;0.0;0.0;0.0;0.0;0.0
265858000000;71;265858000000;map;15.3957813466;-0.0237582760247;0.0;0.0;0.0;0.00279152583782;0.999996103684;0.00172384693872;0.000146032993778;0.00227096963028;0.0;0.0;0.0;0.0;0.0;0.000842307538912;0.0;0.0;0.0;0.0;0.0;0.0;0.0;0.0;0.0;0.0;0.0;0.0;0.0;0.0;0.0;0.0;0.0;0.0;0.0;0.0;0.0;0.0;0.0;0.0;0.0;0.0;0.0
266257000000;72;266257000000;map;15.5996733394;-0.0303806159706;0.0;0.0;0.0;-0.000416316974792;0.99999991334;0.00171140855053;-2.33008657602e-06;0.00222571975837;0.0;0.0;0.0;0.0;0.0;0.000800651418909;0.0;0.0;0.0;0.0;0.0;0.0;0.0;0.0;0.0;0.0;0.0;0.0;0.0;0.0;0.0;0.0;0.0;0.0;0.0;0.0;0.0;0.0;0.0;0.0;0.0;0.0;0.0
266759457893;73;266759457893;map;15.8000524078;-0.0326744736536;0.0;0.0;0.0;-0.00121842431386;0.999999257721;0.00179555254931;0.000162810018749;0.00238204916338;0.0;0.0;0.0;0.0;0.0;0.000781818448659;0.0;0.0;0.0;0.0;0.0;0.0;0.0;0.0;0.0;0.0;0.0;0.0;0.0;0.0;0.0;0.0;0.0;0.0;0.0;0.0;0.0;0.0;0.0;0.0;0.0;0.0;0.0
267063000000;74;267063000000;map;15.9976647111;-0.0338793684913;0.0;0.0;0.0;-0.00164183070633;0.999998652195;0.00180648207788;0.000114020353562;0.0022962981242;0.0;0.0;0.0;0.0;0.0;0.000725103837501;0.0;0.0;0.0;0.0;0.0;0.0;0.0;0.0;0.0;0.0;0.0;0.0;0.0;0.0;0.0;0.0;0.0;0.0;0.0;0.0;0.0;0.0;0.0;0.0;0.0;0.0;0.0
267577000000;75;267577000000;map;16.1952501048;-0.035612046045;0.0;0.0;0.0;-0.00230534334169;0.999997342693;0.00171590903614;-0.000160386871025;0.00244018935268;0.0;0.0;0.0;0.0;0.0;0.00072557822811;0.0;0.0;0.0;0.0;0.0;0.0;0.0;0.0;0.0;0.0;0.0;0.0;0.0;0.0;0.0;0.0;0.0;0.0;0.0;0.0;0.0;0.0;0.0;0.0;0.0;0.0;0.0
267957000000;76;267957000000;map;16.3558955111;-0.042432527435;0.0;0.0;0.0;0.000737153806013;0.999999728302;0.00163246870295;-0.000100643170366;0.00248233072268;0.0;0.0;0.0;0.0;0.0;0.000819410456311;0.0;0.0;0.0;0.0;0.0;0.0;0.0;0.0;0.0;0.0;0.0;0.0;0.0;0.0;0.0;0.0;0.0;0.0;0.0;0.0;0.0;0.0;0.0;0.0;0.0;0.0;0.0
268356000000;77;268356000000;map;16.5965512766;-0.0383060760878;0.0;0.0;0.0;-0.00281449907898;0.99999603929;0.00159252831872;-0.000160145189175;0.00274010498769;0.0;0.0;0.0;0.0;0.0;0.00086452251747;0.0;0.0;0.0;0.0;0.0;0.0;0.0;0.0;0.0;0.0;0.0;0.0;0.0;0.0;0.0;0.0;0.0;0.0;0.0;0.0;0.0;0.0;0.0;0.0;0.0;0.0;0.0
268762000000;78;268762000000;map;16.7955734308;-0.0379479202263;0.0;0.0;0.0;-0.00392699550694;0.999992289323;0.00154665741815;-9.91863223537e-05;0.00241513989724;0.0;0.0;0.0;0.0;0.0;0.000705713809329;0.0;0.0;0.0;0.0;0.0;0.0;0.0;0.0;0.0;0.0;0.0;0.0;0.0;0.0;0.0;0.0;0.0;0.0;0.0;0.0;0.0;0.0;0.0;0.0;0.0;0.0;0.0
269159000000;79;269159000000;map;16.9578406554;-0.0431051172927;0.0;0.0;0.0;0.000256840797481;0.999999967016;0.00145835041678;-8.68689160779e-05;0.00249736738768;0.0;0.0;0.0;0.0;0.0;0.000718562982298;0.0;0.0;0.0;0.0;0.0;0.0;0.0;0.0;0.0;0.0;0.0;0.0;0.0;0.0;0.0;0.0;0.0;0.0;0.0;0.0;0.0;0.0;0.0;0.0;0.0;0.0;0.0
269580000000;80;269580000000;map;17.1611112029;-0.0386645684859;0.0;0.0;0.0;0.00247133188782;0.999996946255;0.00139261373306;-0.000164660613694;0.00234740004088;0.0;0.0;0.0;0.0;0.0;0.000609197486626;0.0;0.0;0.0;0.0;0.0;0.0;0.0;0.0;0.0;0.0;0.0;0.0;0.0;0.0;0.0;0.0;0.0;0.0;0.0;0.0;0.0;0.0;0.0;0.0;0.0;0.0;0.0
269955281396;81;269955281396;map;17.4088334119;-0.0376200218191;0.0;0.0;0.0;0.00305323276015;0.999995338874;0.00130901219848;-0.000265452978253;0.00235297711069;0.0;0.0;0.0;0.0;0.0;0.00069255705524;0.0;0.0;0.0;0.0;0.0;0.0;0.0;0.0;0.0;0.0;0.0;0.0;0.0;0.0;0.0;0.0;0.0;0.0;0.0;0.0;0.0;0.0;0.0;0.0;0.0;0.0;0.0
270462000000;82;270462000000;map;17.6223084156;-0.0345037735592;0.0;0.0;0.0;0.00207941549408;0.999997838013;0.00127028687132;-0.000258224959772;0.00215407210488;0.0;0.0;0.0;0.0;0.0;0.000592305318978;0.0;0.0;0.0;0.0;0.0;0.0;0.0;0.0;0.0;0.0;0.0;0.0;0.0;0.0;0.0;0.0;0.0;0.0;0.0;0.0;0.0;0.0;0.0;0.0;0.0;0.0;0.0
270845000000;83;270845000000;map;17.8291663386;-0.035446949857;0.0;0.0;0.0;0.00180708627707;0.999998367218;0.00125971247655;-0.000302505957699;0.00215568976034;0.0;0.0;0.0;0.0;0.0;0.000547570720109;0.0;0.0;0.0;0.0;0.0;0.0;0.0;0.0;0.0;0.0;0.0;0.0;0.0;0.0;0.0;0.0;0.0;0.0;0.0;0.0;0.0;0.0;0.0;0.0;0.0;0.0;0.0
271250000000;84;271250000000;map;18.0300192179;-0.0363183748015;0.0;0.0;0.0;0.00190976398464;0.999998176399;0.00121523024512;-0.000283365700199;0.00213159690595;0.0;0.0;0.0;0.0;0.0;0.000601512126263;0.0;0.0;0.0;0.0;0.0;0.0;0.0;0.0;0.0;0.0;0.0;0.0;0.0;0.0;0.0;0.0;0.0;0.0;0.0;0.0;0.0;0.0;0.0;0.0;0.0;0.0;0.0
271658000000;85;271658000000;map;18.2370372636;-0.038542765669;0.0;0.0;0.0;9.17504541496e-05;0.999999995791;0.00117215652574;-0.000174198887599;0.00184937375227;0.0;0.0;0.0;0.0;0.0;0.000555298245082;0.0;0.0;0.0;0.0;0.0;0.0;0.0;0.0;0.0;0.0;0.0;0.0;0.0;0.0;0.0;0.0;0.0;0.0;0.0;0.0;0.0;0.0;0.0;0.0;0.0;0.0;0.0
272049000000;86;272049000000;map;18.4390246567;-0.0414463449362;0.0;0.0;0.0;3.93898180077e-05;0.999999999224;0.0011860382366;-0.00012887731549;0.00192363430626;0.0;0.0;0.0;0.0;0.0;0.000651506138775;0.0;0.0;0.0;0.0;0.0;0.0;0.0;0.0;0.0;0.0;0.0;0.0;0.0;0.0;0.0;0.0;0.0;0.0;0.0;0.0;0.0;0.0;0.0;0.0;0.0;0.0;0.0
272447000000;87;272447000000;map;18.6436011373;-0.0411469791328;0.0;0.0;0.0;0.000551444656979;0.999999847954;0.00112584677328;-2.5618277213e-05;0.00170113567415;0.0;0.0;0.0;0.0;0.0;0.000667418453006;0.0;0.0;0.0;0.0;0.0;0.0;0.0;0.0;0.0;0.0;0.0;0.0;0.0;0.0;0.0;0.0;0.0;0.0;0.0;0.0;0.0;0.0;0.0;0.0;0.0;0.0;0.0
272858000000;88;272858000000;map;18.8482684756;-0.0423324064872;0.0;0.0;0.0;-0.000112004321338;0.999999993728;0.00114524484411;-1.45620376358e-05;0.00189056544777;0.0;0.0;0.0;0.0;0.0;0.00060139410171;0.0;0.0;0.0;0.0;0.0;0.0;0.0;0.0;0.0;0.0;0.0;0.0;0.0;0.0;0.0;0.0;0.0;0.0;0.0;0.0;0.0;0.0;0.0;0.0;0.0;0.0;0.0
273255000000;89;273255000000;map;19.0490142717;-0.0412574775068;0.0;0.0;0.0;0.00054978148197;0.99999984887;0.00107936987274;3.55304497187e-05;0.00190399975813;0.0;0.0;0.0;0.0;0.0;0.000591632356712;0.0;0.0;0.0;0.0;0.0;0.0;0.0;0.0;0.0;0.0;0.0;0.0;0.0;0.0;0.0;0.0;0.0;0.0;0.0;0.0;0.0;0.0;0.0;0.0;0.0;0.0;0.0
273662000000;90;273662000000;map;19.2479130272;-0.043791953706;0.0;0.0;0.0;-0.000198411936415;0.999999980316;0.00116936394443;3.04566105347e-06;0.00193491535226;0.0;0.0;0.0;0.0;0.0;0.000567767439769;0.0;0.0;0.0;0.0;0.0;0.0;0.0;0.0;0.0;0.0;0.0;0.0;0.0;0.0;0.0;0.0;0.0;0.0;0.0;0.0;0.0;0.0;0.0;0.0;0.0;0.0;0.0
274053000000;91;274053000000;map;19.4476577545;-0.0421781995193;0.0;0.0;0.0;-0.000509119652143;0.999999870399;0.00119422196849;-2.21432103826e-05;0.00183233861284;0.0;0.0;0.0;0.0;0.0;0.000559131756252;0.0;0.0;0.0;0.0;0.0;0.0;0.0;0.0;0.0;0.0;0.0;0.0;0.0;0.0;0.0;0.0;0.0;0.0;0.0;0.0;0.0;0.0;0.0;0.0;0.0;0.0;0.0
274566000000;92;274566000000;map;19.6484803652;-0.0434104418435;0.0;0.0;0.0;-0.000981570304533;0.99999951826;0.00127322981217;-6.89148933188e-05;0.00175546141903;0.0;0.0;0.0;0.0;0.0;0.000653139483096;0.0;0.0;0.0;0.0;0.0;0.0;0.0;0.0;0.0;0.0;0.0;0.0;0.0;0.0;0.0;0.0;0.0;0.0;0.0;0.0;0.0;0.0;0.0;0.0;0.0;0.0;0.0
274957000000;93;274957000000;map;19.8470422549;-0.0449818847216;0.0;0.0;0.0;0.000959648444653;0.999999539537;0.0012304209659;2.87072176997e-06;0.00182269600354;0.0;0.0;0.0;0.0;0.0;0.000605945401051;0.0;0.0;0.0;0.0;0.0;0.0;0.0;0.0;0.0;0.0;0.0;0.0;0.0;0.0;0.0;0.0;0.0;0.0;0.0;0.0;0.0;0.0;0.0;0.0;0.0;0.0;0.0
275357000000;94;275357000000;map;20.0495027843;-0.0448971806468;0.0;0.0;0.0;0.000667452716988;0.999999777253;0.00117001185737;-2.98582033789e-05;0.00175509888678;0.0;0.0;0.0;0.0;0.0;0.000657193088396;0.0;0.0;0.0;0.0;0.0;0.0;0.0;0.0;0.0;0.0;0.0;0.0;0.0;0.0;0.0;0.0;0.0;0.0;0.0;0.0;0.0;0.0;0.0;0.0;0.0;0.0;0.0
275762000000;95;275762000000;map;20.2499439007;-0.0452252295113;0.0;0.0;0.0;-0.000136426990015;0.999999990694;0.00117607129891;-3.49655983031e-05;0.00190470356348;0.0;0.0;0.0;0.0;0.0;0.000624098532668;0.0;0.0;0.0;0.0;0.0;0.0;0.0;0.0;0.0;0.0;0.0;0.0;0.0;0.0;0.0;0.0;0.0;0.0;0.0;0.0;0.0;0.0;0.0;0.0;0.0;0.0;0.0
276156000000;96;276156000000;map;20.4515460303;-0.0487072348318;0.0;0.0;0.0;-0.00163454399642;0.999998664132;0.00117939398461;-1.23210667979e-06;0.00181095493932;0.0;0.0;0.0;0.0;0.0;0.000609380394474;0.0;0.0;0.0;0.0;0.0;0.0;0.0;0.0;0.0;0.0;0.0;0.0;0.0;0.0;0.0;0.0;0.0;0.0;0.0;0.0;0.0;0.0;0.0;0.0;0.0;0.0;0.0
276566000000;97;276566000000;map;20.6626407981;-0.0518478649151;0.0;0.0;0.0;-0.00231136380196;0.999997328795;0.00122357492108;-2.91731871884e-05;0.00185521373111;0.0;0.0;0.0;0.0;0.0;0.000585909900836;0.0;0.0;0.0;0.0;0.0;0.0;0.0;0.0;0.0;0.0;0.0;0.0;0.0;0.0;0.0;0.0;0.0;0.0;0.0;0.0;0.0;0.0;0.0;0.0;0.0;0.0;0.0
276954000000;98;276954000000;map;20.868849922;-0.0511595602192;0.0;0.0;0.0;-0.00364657187099;0.999993351235;0.00119163493031;-7.49852650395e-06;0.00208642543678;0.0;0.0;0.0;0.0;0.0;0.000624730183124;0.0;0.0;0.0;0.0;0.0;0.0;0.0;0.0;0.0;0.0;0.0;0.0;0.0;0.0;0.0;0.0;0.0;0.0;0.0;0.0;0.0;0.0;0.0;0.0;0.0;0.0;0.0
277354000000;99;277354000000;map;21.07799545;-0.0607577137729;0.0;0.0;0.0;-0.00399620597075;0.999992015137;0.00113417438695;6.44048546314e-05;0.0020474170327;0.0;0.0;0.0;0.0;0.0;0.000681335793507;0.0;0.0;0.0;0.0;0.0;0.0;0.0;0.0;0.0;0.0;0.0;0.0;0.0;0.0;0.0;0.0;0.0;0.0;0.0;0.0;0.0;0.0;0.0;0.0;0.0;0.0;0.0
277754000000;100;277754000000;map;21.2779168104;-0.0631018080631;0.0;0.0;0.0;-0.00471710419517;0.999988874402;0.00104905468891;7.56442312215e-05;0.00213562625076;0.0;0.0;0.0;0.0;0.0;0.000772047072355;0.0;0.0;0.0;0.0;0.0;0.0;0.0;0.0;0.0;0.0;0.0;0.0;0.0;0.0;0.0;0.0;0.0;0.0;0.0;0.0;0.0;0.0;0.0;0.0;0.0;0.0;0.0
278158000000;101;278158000000;map;21.4891746926;-0.0613520931477;0.0;0.0;0.0;-0.00359510475536;0.99999353759;0.00100608943785;5.67886701961e-05;0.00249882996141;0.0;0.0;0.0;0.0;0.0;0.000720765554279;0.0;0.0;0.0;0.0;0.0;0.0;0.0;0.0;0.0;0.0;0.0;0.0;0.0;0.0;0.0;0.0;0.0;0.0;0.0;0.0;0.0;0.0;0.0;0.0;0.0;0.0;0.0
278672000000;102;278672000000;map;21.7526499206;-0.0588259563815;0.0;0.0;0.0;-0.00294462556545;0.999995664581;0.00105110578198;-3.56939337776e-06;0.00251363913625;0.0;0.0;0.0;0.0;0.0;0.000900125918722;0.0;0.0;0.0;0.0;0.0;0.0;0.0;0.0;0.0;0.0;0.0;0.0;0.0;0.0;0.0;0.0;0.0;0.0;0.0;0.0;0.0;0.0;0.0;0.0;0.0;0.0;0.0
279156000000;103;279156000000;map;22.0130934383;-0.0617474096539;0.0;0.0;0.0;-0.00342139235286;0.99999414702;0.000918639575332;3.9149432487e-05;0.00243006965393;0.0;0.0;0.0;0.0;0.0;0.00103273212069;0.0;0.0;0.0;0.0;0.0;0.0;0.0;0.0;0.0;0.0;0.0;0.0;0.0;0.0;0.0;0.0;0.0;0.0;0.0;0.0;0.0;0.0;0.0;0.0;0.0;0.0;0.0
279663000000;104;279663000000;map;22.2163743525;-0.0571614195103;0.0;0.0;0.0;-0.00187381061886;0.999998244415;0.000961306581814;1.55569007647e-05;0.00229625153054;0.0;0.0;0.0;0.0;0.0;0.000997931454223;0.0;0.0;0.0;0.0;0.0;0.0;0.0;0.0;0.0;0.0;0.0;0.0;0.0;0.0;0.0;0.0;0.0;0.0;0.0;0.0;0.0;0.0;0.0;0.0;0.0;0.0;0.0
280057000000;105;280057000000;map;22.4197652272;-0.0581722148541;0.0;0.0;0.0;-0.00268766589007;0.99999638822;0.000999129247987;6.70623669461e-05;0.00233309675187;0.0;0.0;0.0;0.0;0.0;0.000958609393389;0.0;0.0;0.0;0.0;0.0;0.0;0.0;0.0;0.0;0.0;0.0;0.0;0.0;0.0;0.0;0.0;0.0;0.0;0.0;0.0;0.0;0.0;0.0;0.0;0.0;0.0;0.0
280457000000;106;280457000000;map;22.6189144778;-0.0591445529296;0.0;0.0;0.0;-0.00115294213234;0.999999335362;0.00099605684386;-1.98586532867e-05;0.00229778033261;0.0;0.0;0.0;0.0;0.0;0.000907549485516;0.0;0.0;0.0;0.0;0.0;0.0;0.0;0.0;0.0;0.0;0.0;0.0;0.0;0.0;0.0;0.0;0.0;0.0;0.0;0.0;0.0;0.0;0.0;0.0;0.0;0.0;0.0
280844000000;107;280844000000;map;22.8212922139;-0.0610546386146;0.0;0.0;0.0;-0.00098377476032;0.999999516093;0.00108420020786;1.32625962126e-05;0.0026262682648;0.0;0.0;0.0;0.0;0.0;0.000774639579853;0.0;0.0;0.0;0.0;0.0;0.0;0.0;0.0;0.0;0.0;0.0;0.0;0.0;0.0;0.0;0.0;0.0;0.0;0.0;0.0;0.0;0.0;0.0;0.0;0.0;0.0;0.0
281241000000;108;281241000000;map;23.0220812961;-0.0616290812458;0.0;0.0;0.0;-0.000723789997653;0.999999738064;0.00115511667263;-6.4660279383e-05;0.00252951037491;0.0;0.0;0.0;0.0;0.0;0.00065538461497;0.0;0.0;0.0;0.0;0.0;0.0;0.0;0.0;0.0;0.0;0.0;0.0;0.0;0.0;0.0;0.0;0.0;0.0;0.0;0.0;0.0;0.0;0.0;0.0;0.0;0.0;0.0
281653000000;109;281653000000;map;23.2220966581;-0.0662122781174;0.0;0.0;0.0;-0.000543911055418;0.99999985208;0.00123529111931;-1.35053925714e-05;0.00243867845413;0.0;0.0;0.0;0.0;0.0;0.000712000388051;0.0;0.0;0.0;0.0;0.0;0.0;0.0;0.0;0.0;0.0;0.0;0.0;0.0;0.0;0.0;0.0;0.0;0.0;0.0;0.0;0.0;0.0;0.0;0.0;0.0;0.0;0.0
282059000000;110;282059000000;map;23.4238033827;-0.0652121078662;0.0;0.0;0.0;-0.000560800014468;0.999999842752;0.00119411057744;-9.38927278393e-06;0.00236905692605;0.0;0.0;0.0;0.0;0.0;0.000692445724107;0.0;0.0;0.0;0.0;0.0;0.0;0.0;0.0;0.0;0.0;0.0;0.0;0.0;0.0;0.0;0.0;0.0;0.0;0.0;0.0;0.0;0.0;0.0;0.0;0.0;0.0;0.0
282471000000;111;282471000000;map;23.6243806599;-0.0624758447939;0.0;0.0;0.0;-0.000393906461784;0.999999922419;0.00112042443504;2.73081194937e-05;0.00270495770461;0.0;0.0;0.0;0.0;0.0;0.000758349478514;0.0;0.0;0.0;0.0;0.0;0.0;0.0;0.0;0.0;0.0;0.0;0.0;0.0;0.0;0.0;0.0;0.0;0.0;0.0;0.0;0.0;0.0;0.0;0.0;0.0;0.0;0.0
282855000000;112;282855000000;map;23.8273026156;-0.0681485813992;0.0;0.0;0.0;-0.00197823395569;0.999998043293;0.00100864303295;5.82725449554e-05;0.00269142871121;0.0;0.0;0.0;0.0;0.0;0.000676334798426;0.0;0.0;0.0;0.0;0.0;0.0;0.0;0.0;0.0;0.0;0.0;0.0;0.0;0.0;0.0;0.0;0.0;0.0;0.0;0.0;0.0;0.0;0.0;0.0;0.0;0.0;0.0
283258000000;113;283258000000;map;24.0285378687;-0.0700865834462;0.0;0.0;0.0;-0.0017364986745;0.999998492285;0.00107426932686;2.32408600038e-05;0.00295465520554;0.0;0.0;0.0;0.0;0.0;0.000751036361618;0.0;0.0;0.0;0.0;0.0;0.0;0.0;0.0;0.0;0.0;0.0;0.0;0.0;0.0;0.0;0.0;0.0;0.0;0.0;0.0;0.0;0.0;0.0;0.0;0.0;0.0;0.0
283759000000;114;283759000000;map;24.2375169687;-0.068868352746;0.0;0.0;0.0;-0.00157072878859;0.999998766405;0.00114929777817;-0.000112181586246;0.00294897652271;0.0;0.0;0.0;0.0;0.0;0.000698636135671;0.0;0.0;0.0;0.0;0.0;0.0;0.0;0.0;0.0;0.0;0.0;0.0;0.0;0.0;0.0;0.0;0.0;0.0;0.0;0.0;0.0;0.0;0.0;0.0;0.0;0.0;0.0
284156000000;115;284156000000;map;24.4377860518;-0.06871797851;0.0;0.0;0.0;-0.00113715827674;0.999999353435;0.00108249569291;-0.000152130862155;0.00296937669255;0.0;0.0;0.0;0.0;0.0;0.000684222775568;0.0;0.0;0.0;0.0;0.0;0.0;0.0;0.0;0.0;0.0;0.0;0.0;0.0;0.0;0.0;0.0;0.0;0.0;0.0;0.0;0.0;0.0;0.0;0.0;0.0;0.0;0.0
284559000000;116;284559000000;map;24.6384574209;-0.0698242772216;0.0;0.0;0.0;-0.00158759475177;0.999998739771;0.000990124751183;-8.56887204745e-05;0.00305643484615;0.0;0.0;0.0;0.0;0.0;0.000689392804539;0.0;0.0;0.0;0.0;0.0;0.0;0.0;0.0;0.0;0.0;0.0;0.0;0.0;0.0;0.0;0.0;0.0;0.0;0.0;0.0;0.0;0.0;0.0;0.0;0.0;0.0;0.0
284958000000;117;284958000000;map;24.8372722916;-0.0681481355999;0.0;0.0;0.0;1.94976479465e-05;0.99999999981;0.00109024115181;-4.12524504831e-05;0.00282380802992;0.0;0.0;0.0;0.0;0.0;0.000527400395098;0.0;0.0;0.0;0.0;0.0;0.0;0.0;0.0;0.0;0.0;0.0;0.0;0.0;0.0;0.0;0.0;0.0;0.0;0.0;0.0;0.0;0.0;0.0;0.0;0.0;0.0;0.0
285355000000;118;285355000000;map;25.0460140623;-0.0657066641715;0.0;0.0;0.0;-0.000446387737921;0.999999900369;0.00107217836819;-4.22807854905e-05;0.00271884056516;0.0;0.0;0.0;0.0;0.0;0.000518819676216;0.0;0.0;0.0;0.0;0.0;0.0;0.0;0.0;0.0;0.0;0.0;0.0;0.0;0.0;0.0;0.0;0.0;0.0;0.0;0.0;0.0;0.0;0.0;0.0;0.0;0.0;0.0
285762000000;119;285762000000;map;25.2496372563;-0.0687061049865;0.0;0.0;0.0;-0.0010038995745;0.999999496093;0.00105778158695;3.63848418847e-05;0.00273299406004;0.0;0.0;0.0;0.0;0.0;0.000634396068624;0.0;0.0;0.0;0.0;0.0;0.0;0.0;0.0;0.0;0.0;0.0;0.0;0.0;0.0;0.0;0.0;0.0;0.0;0.0;0.0;0.0;0.0;0.0;0.0;0.0;0.0;0.0
286159000000;120;286159000000;map;25.4495526659;-0.0702108637744;0.0;0.0;0.0;-0.000684979586975;0.999999765401;0.00111226686374;-5.33105154665e-06;0.00240845589484;0.0;0.0;0.0;0.0;0.0;0.000616232023879;0.0;0.0;0.0;0.0;0.0;0.0;0.0;0.0;0.0;0.0;0.0;0.0;0.0;0.0;0.0;0.0;0.0;0.0;0.0;0.0;0.0;0.0;0.0;0.0;0.0;0.0;0.0
286568000000;121;286568000000;map;25.6516920992;-0.0698875310295;0.0;0.0;0.0;0.0002425190226;0.999999970592;0.00110403579083;6.37795551701e-05;0.00201219241533;0.0;0.0;0.0;0.0;0.0;0.000509478723803;0.0;0.0;0.0;0.0;0.0;0.0;0.0;0.0;0.0;0.0;0.0;0.0;0.0;0.0;0.0;0.0;0.0;0.0;0.0;0.0;0.0;0.0;0.0;0.0;0.0;0.0;0.0
286953000000;122;286953000000;map;25.8612995772;-0.0741457476241;0.0;0.0;0.0;-0.000526816606586;0.999999861232;0.00119124531011;9.5793422763e-05;0.00171989667604;0.0;0.0;0.0;0.0;0.0;0.000568200633841;0.0;0.0;0.0;0.0;0.0;0.0;0.0;0.0;0.0;0.0;0.0;0.0;0.0;0.0;0.0;0.0;0.0;0.0;0.0;0.0;0.0;0.0;0.0;0.0;0.0;0.0;0.0
287356000000;123;287356000000;map;26.0634284602;-0.074515308036;0.0;0.0;0.0;0.000173048745503;0.999999985027;0.0012478474747;9.2209777083e-05;0.00169603560134;0.0;0.0;0.0;0.0;0.0;0.000538461293608;0.0;0.0;0.0;0.0;0.0;0.0;0.0;0.0;0.0;0.0;0.0;0.0;0.0;0.0;0.0;0.0;0.0;0.0;0.0;0.0;0.0;0.0;0.0;0.0;0.0;0.0;0.0
287754000000;124;287754000000;map;26.2656117767;-0.0749963804238;0.0;0.0;0.0;-0.00113639878515;0.999999354299;0.00135423405038;0.000100123178006;0.00142062017496;0.0;0.0;0.0;0.0;0.0;0.000561268389356;0.0;0.0;0.0;0.0;0.0;0.0;0.0;0.0;0.0;0.0;0.0;0.0;0.0;0.0;0.0;0.0;0.0;0.0;0.0;0.0;0.0;0.0;0.0;0.0;0.0;0.0;0.0
288157000000;125;288157000000;map;26.4745979367;-0.0746604528549;0.0;0.0;0.0;-0.00122826564007;0.999999245681;0.00134136556551;0.000182202581062;0.00144451561099;0.0;0.0;0.0;0.0;0.0;0.000600310379932;0.0;0.0;0.0;0.0;0.0;0.0;0.0;0.0;0.0;0.0;0.0;0.0;0.0;0.0;0.0;0.0;0.0;0.0;0.0;0.0;0.0;0.0;0.0;0.0;0.0;0.0;0.0
288567000000;126;288567000000;map;26.6744566623;-0.0720988738471;0.0;0.0;0.0;-9.87273847432e-05;0.999999995126;0.00133046280996;0.000204740139327;0.00157634376848;0.0;0.0;0.0;0.0;0.0;0.00057563111702;0.0;0.0;0.0;0.0;0.0;0.0;0.0;0.0;0.0;0.0;0.0;0.0;0.0;0.0;0.0;0.0;0.0;0.0;0.0;0.0;0.0;0.0;0.0;0.0;0.0;0.0;0.0
289054000000;127;289054000000;map;26.8846566499;-0.0697873664273;0.0;0.0;0.0;1.77244321106e-05;0.999999999843;0.00145059315867;0.000268902719266;0.00150144034197;0.0;0.0;0.0;0.0;0.0;0.000656478878587;0.0;0.0;0.0;0.0;0.0;0.0;0.0;0.0;0.0;0.0;0.0;0.0;0.0;0.0;0.0;0.0;0.0;0.0;0.0;0.0;0.0;0.0;0.0;0.0;0.0;0.0;0.0
289351000000;128;289351000000;map;27.0817928691;-0.0689714160641;0.0;0.0;0.0;0.00167921172896;0.999998590123;0.00144717450485;0.00019281836233;0.00139235185929;0.0;0.0;0.0;0.0;0.0;0.00064362101392;0.0;0.0;0.0;0.0;0.0;0.0;0.0;0.0;0.0;0.0;0.0;0.0;0.0;0.0;0.0;0.0;0.0;0.0;0.0;0.0;0.0;0.0;0.0;0.0;0.0;0.0;0.0
289849000000;129;289849000000;map;27.2823757343;-0.0692971167424;0.0;0.0;0.0;0.00249085056015;0.999996897827;0.0015248446889;0.000206081002827;0.00127778586079;0.0;0.0;0.0;0.0;0.0;0.000651151244235;0.0;0.0;0.0;0.0;0.0;0.0;0.0;0.0;0.0;0.0;0.0;0.0;0.0;0.0;0.0;0.0;0.0;0.0;0.0;0.0;0.0;0.0;0.0;0.0;0.0;0.0;0.0
290253000000;130;290253000000;map;27.4889117303;-0.070587811764;0.0;0.0;0.0;0.00251268995652;0.99999684319;0.00147000107938;0.000182343991938;0.00120385925842;0.0;0.0;0.0;0.0;0.0;0.00058278776374;0.0;0.0;0.0;0.0;0.0;0.0;0.0;0.0;0.0;0.0;0.0;0.0;0.0;0.0;0.0;0.0;0.0;0.0;0.0;0.0;0.0;0.0;0.0;0.0;0.0;0.0;0.0
290665000000;131;290665000000;map;27.6903651403;-0.0695139811684;0.0;0.0;0.0;0.000800283233216;0.999999679773;0.00149411076518;9.15121859792e-05;0.00127723153452;0.0;0.0;0.0;0.0;0.0;0.00056866046507;0.0;0.0;0.0;0.0;0.0;0.0;0.0;0.0;0.0;0.0;0.0;0.0;0.0;0.0;0.0;0.0;0.0;0.0;0.0;0.0;0.0;0.0;0.0;0.0;0.0;0.0;0.0
291063000000;132;291063000000;map;27.8895899302;-0.0713461300501;0.0;0.0;0.0;0.000773067882353;0.999999701183;0.00157089486856;0.000155879349883;0.00118183393152;0.0;0.0;0.0;0.0;0.0;0.000543132847333;0.0;0.0;0.0;0.0;0.0;0.0;0.0;0.0;0.0;0.0;0.0;0.0;0.0;0.0;0.0;0.0;0.0;0.0;0.0;0.0;0.0;0.0;0.0;0.0;0.0;0.0;0.0
291457000000;133;291457000000;map;28.0932978098;-0.0713949832057;0.0;0.0;0.0;0.000653327057795;0.999999786582;0.00172358108682;0.000111137942856;0.00100970645946;0.0;0.0;0.0;0.0;0.0;0.000525258445473;0.0;0.0;0.0;0.0;0.0;0.0;0.0;0.0;0.0;0.0;0.0;0.0;0.0;0.0;0.0;0.0;0.0;0.0;0.0;0.0;0.0;0.0;0.0;0.0;0.0;0.0;0.0
291862000000;134;291862000000;map;28.301335361;-0.0729500531611;0.0;0.0;0.0;0.000725737184095;0.999999736653;0.00173436139244;1.49384213883e-05;0.000954046418302;0.0;0.0;0.0;0.0;0.0;0.000530360790943;0.0;0.0;0.0;0.0;0.0;0.0;0.0;0.0;0.0;0.0;0.0;0.0;0.0;0.0;0.0;0.0;0.0;0.0;0.0;0.0;0.0;0.0;0.0;0.0;0.0;0.0;0.0
292256000000;135;292256000000;map;28.5038023231;-0.0712709149937;0.0;0.0;0.0;0.00163760075375;0.999998659131;0.00183554800105;-1.88262392262e-05;0.00105955630683;0.0;0.0;0.0;0.0;0.0;0.000519237214957;0.0;0.0;0.0;0.0;0.0;0.0;0.0;0.0;0.0;0.0;0.0;0.0;0.0;0.0;0.0;0.0;0.0;0.0;0.0;0.0;0.0;0.0;0.0;0.0;0.0;0.0;0.0
292660400876;136;292660400876;map;28.7054677758;-0.0716549014268;0.0;0.0;0.0;0.000471230027669;0.999999888971;0.00179167363922;1.96195213999e-05;0.00100165245563;0.0;0.0;0.0;0.0;0.0;0.000518273537507;0.0;0.0;0.0;0.0;0.0;0.0;0.0;0.0;0.0;0.0;0.0;0.0;0.0;0.0;0.0;0.0;0.0;0.0;0.0;0.0;0.0;0.0;0.0;0.0;0.0;0.0;0.0
293056000000;137;293056000000;map;28.9093932098;-0.0681820915917;0.0;0.0;0.0;0.00022948997063;0.999999973667;0.00188998758085;-3.34442974115e-06;0.0011970691686;0.0;0.0;0.0;0.0;0.0;0.000566835130231;0.0;0.0;0.0;0.0;0.0;0.0;0.0;0.0;0.0;0.0;0.0;0.0;0.0;0.0;0.0;0.0;0.0;0.0;0.0;0.0;0.0;0.0;0.0;0.0;0.0;0.0;0.0
293464000000;138;293464000000;map;29.1175718768;-0.0671062053546;0.0;0.0;0.0;-0.000151928499435;0.999999988459;0.0019213678197;0.000112486458913;0.00132465379109;0.0;0.0;0.0;0.0;0.0;0.000551943433158;0.0;0.0;0.0;0.0;0.0;0.0;0.0;0.0;0.0;0.0;0.0;0.0;0.0;0.0;0.0;0.0;0.0;0.0;0.0;0.0;0.0;0.0;0.0;0.0;0.0;0.0;0.0
293957000000;139;293957000000;map;29.3285870459;-0.0642539263865;0.0;0.0;0.0;0.00121483261719;0.999999262091;0.00192452788804;9.72628023188e-05;0.00138025306028;0.0;0.0;0.0;0.0;0.0;0.000586349126722;0.0;0.0;0.0;0.0;0.0;0.0;0.0;0.0;0.0;0.0;0.0;0.0;0.0;0.0;0.0;0.0;0.0;0.0;0.0;0.0;0.0;0.0;0.0;0.0;0.0;0.0;0.0
294357000000;140;294357000000;map;29.5287994283;-0.0615522020594;0.0;0.0;0.0;0.00123852416642;0.999999233029;0.00191002770669;0.000169208571305;0.00142403182585;0.0;0.0;0.0;0.0;0.0;0.000612568255331;0.0;0.0;0.0;0.0;0.0;0.0;0.0;0.0;0.0;0.0;0.0;0.0;0.0;0.0;0.0;0.0;0.0;0.0;0.0;0.0;0.0;0.0;0.0;0.0;0.0;0.0;0.0
294760000000;141;294760000000;map;29.7303439299;-0.0549808470923;0.0;0.0;0.0;0.00281462828359;0.999996038926;0.00186085444523;9.34529657184e-05;0.00140252405345;0.0;0.0;0.0;0.0;0.0;0.000556328033493;0.0;0.0;0.0;0.0;0.0;0.0;0.0;0.0;0.0;0.0;0.0;0.0;0.0;0.0;0.0;0.0;0.0;0.0;0.0;0.0;0.0;0.0;0.0;0.0;0.0;0.0;0.0
295161000000;142;295161000000;map;29.9290499533;-0.055928056985;0.0;0.0;0.0;0.00195438763418;0.999998090183;0.00186616617077;9.26698659847e-05;0.00138731962166;0.0;0.0;0.0;0.0;0.0;0.000550663042939;0.0;0.0;0.0;0.0;0.0;0.0;0.0;0.0;0.0;0.0;0.0;0.0;0.0;0.0;0.0;0.0;0.0;0.0;0.0;0.0;0.0;0.0;0.0;0.0;0.0;0.0;0.0
295582000000;143;295582000000;map;30.1305794697;-0.0567257676865;0.0;0.0;0.0;0.00185054195162;0.999998287746;0.00192448355301;0.000139601691772;0.00140504323171;0.0;0.0;0.0;0.0;0.0;0.000493424840589;0.0;0.0;0.0;0.0;0.0;0.0;0.0;0.0;0.0;0.0;0.0;0.0;0.0;0.0;0.0;0.0;0.0;0.0;0.0;0.0;0.0;0.0;0.0;0.0;0.0;0.0;0.0
295963000000;144;295963000000;map;30.3291915309;-0.0556604135143;0.0;0.0;0.0;0.00214458173743;0.999997700382;0.00188391563779;1.72607726969e-05;0.00137890962248;0.0;0.0;0.0;0.0;0.0;0.000434687132328;0.0;0.0;0.0;0.0;0.0;0.0;0.0;0.0;0.0;0.0;0.0;0.0;0.0;0.0;0.0;0.0;0.0;0.0;0.0;0.0;0.0;0.0;0.0;0.0;0.0;0.0;0.0
296360000000;145;296360000000;map;30.5292736487;-0.0555634073487;0.0;0.0;0.0;0.001457622861;0.999998937667;0.00195560008126;1.91340917073e-05;0.00140328972077;0.0;0.0;0.0;0.0;0.0;0.00044588329981;0.0;0.0;0.0;0.0;0.0;0.0;0.0;0.0;0.0;0.0;0.0;0.0;0.0;0.0;0.0;0.0;0.0;0.0;0.0;0.0;0.0;0.0;0.0;0.0;0.0;0.0;0.0
296776000000;146;296776000000;map;30.7800658405;-0.0560881090898;0.0;0.0;0.0;0.000939595886724;0.99999955858;0.0020818788829;1.8208156368e-05;0.00159433580591;0.0;0.0;0.0;0.0;0.0;0.000581784006059;0.0;0.0;0.0;0.0;0.0;0.0;0.0;0.0;0.0;0.0;0.0;0.0;0.0;0.0;0.0;0.0;0.0;0.0;0.0;0.0;0.0;0.0;0.0;0.0;0.0;0.0;0.0
297261000000;147;297261000000;map;30.9871526518;-0.0566797997013;0.0;0.0;0.0;0.000911541799821;0.999999584546;0.00197549124277;7.41397360304e-05;0.00143636361159;0.0;0.0;0.0;0.0;0.0;0.000528383347309;0.0;0.0;0.0;0.0;0.0;0.0;0.0;0.0;0.0;0.0;0.0;0.0;0.0;0.0;0.0;0.0;0.0;0.0;0.0;0.0;0.0;0.0;0.0;0.0;0.0;0.0;0.0
297670000000;148;297670000000;map;31.1910837162;-0.0581019242258;0.0;0.0;0.0;0.0011382747937;0.999999352165;0.00192810209433;0.000108910370318;0.00149117380445;0.0;0.0;0.0;0.0;0.0;0.000559288354772;0.0;0.0;0.0;0.0;0.0;0.0;0.0;0.0;0.0;0.0;0.0;0.0;0.0;0.0;0.0;0.0;0.0;0.0;0.0;0.0;0.0;0.0;0.0;0.0;0.0;0.0;0.0
298060000000;149;298060000000;map;31.3997030167;-0.0561569093458;0.0;0.0;0.0;0.00152343836112;0.999998839567;0.00186339870163;8.50901662619e-05;0.00129843181642;0.0;0.0;0.0;0.0;0.0;0.000576953658944;0.0;0.0;0.0;0.0;0.0;0.0;0.0;0.0;0.0;0.0;0.0;0.0;0.0;0.0;0.0;0.0;0.0;0.0;0.0;0.0;0.0;0.0;0.0;0.0;0.0;0.0;0.0
298464000000;150;298464000000;map;31.6054584215;-0.0550909349787;0.0;0.0;0.0;0.00269553662668;0.999996367035;0.0016956779067;0.000200166577537;0.00115811976091;0.0;0.0;0.0;0.0;0.0;0.000485079564539;0.0;0.0;0.0;0.0;0.0;0.0;0.0;0.0;0.0;0.0;0.0;0.0;0.0;0.0;0.0;0.0;0.0;0.0;0.0;0.0;0.0;0.0;0.0;0.0;0.0;0.0;0.0
298865000000;151;298865000000;map;31.8318480824;-0.0546325821986;0.0;0.0;0.0;0.003380095047;0.999994287462;0.0015042109809;0.000218763653464;0.00123312821583;0.0;0.0;0.0;0.0;0.0;0.000547242652632;0.0;0.0;0.0;0.0;0.0;0.0;0.0;0.0;0.0;0.0;0.0;0.0;0.0;0.0;0.0;0.0;0.0;0.0;0.0;0.0;0.0;0.0;0.0;0.0;0.0;0.0;0.0
299363000000;152;299363000000;map;32.0375911105;-0.0532398542182;0.0;0.0;0.0;0.00316003821511;0.999995007067;0.00146082903984;0.00027148857788;0.00121591371394;0.0;0.0;0.0;0.0;0.0;0.000495870593137;0.0;0.0;0.0;0.0;0.0;0.0;0.0;0.0;0.0;0.0;0.0;0.0;0.0;0.0;0.0;0.0;0.0;0.0;0.0;0.0;0.0;0.0;0.0;0.0;0.0;0.0;0.0
299773000000;153;299773000000;map;32.2377838276;-0.0529729269391;0.0;0.0;0.0;0.00364044266821;0.999993373567;0.00144267991232;0.000310859853109;0.00139157583086;0.0;0.0;0.0;0.0;0.0;0.000551157796238;0.0;0.0;0.0;0.0;0.0;0.0;0.0;0.0;0.0;0.0;0.0;0.0;0.0;0.0;0.0;0.0;0.0;0.0;0.0;0.0;0.0;0.0;0.0;0.0;0.0;0.0;0.0
300162000000;154;300162000000;map;32.4490076102;-0.0539205369814;0.0;0.0;0.0;0.00335636638969;0.999994367386;0.00127378693537;0.000260022124049;0.00141900561065;0.0;0.0;0.0;0.0;0.0;0.000537125564998;0.0;0.0;0.0;0.0;0.0;0.0;0.0;0.0;0.0;0.0;0.0;0.0;0.0;0.0;0.0;0.0;0.0;0.0;0.0;0.0;0.0;0.0;0.0;0.0;0.0;0.0;0.0
300578000000;155;300578000000;map;32.6594288682;-0.0526131138459;0.0;0.0;0.0;0.00367644137324;0.999993241867;0.00129827102182;0.000234208949841;0.00147920117138;0.0;0.0;0.0;0.0;0.0;0.000555541495623;0.0;0.0;0.0;0.0;0.0;0.0;0.0;0.0;0.0;0.0;0.0;0.0;0.0;0.0;0.0;0.0;0.0;0.0;0.0;0.0;0.0;0.0;0.0;0.0;0.0;0.0;0.0
300963000000;156;300963000000;map;32.8621902258;-0.0502374822889;0.0;0.0;0.0;0.0036580950042;0.999993309148;0.00133717465496;0.000263268542695;0.00154846633827;0.0;0.0;0.0;0.0;0.0;0.000506881313223;0.0;0.0;0.0;0.0;0.0;0.0;0.0;0.0;0.0;0.0;0.0;0.0;0.0;0.0;0.0;0.0;0.0;0.0;0.0;0.0;0.0;0.0;0.0;0.0;0.0;0.0;0.0
301364000000;157;301364000000;map;33.0648116458;-0.0537553385256;0.0;0.0;0.0;0.00275110280667;0.99999621571;0.0012964430091;0.000263158782648;0.00170917408802;0.0;0.0;0.0;0.0;0.0;0.00058478377527;0.0;0.0;0.0;0.0;0.0;0.0;0.0;0.0;0.0;0.0;0.0;0.0;0.0;0.0;0.0;0.0;0.0;0.0;0.0;0.0;0.0;0.0;0.0;0.0;0.0;0.0;0.0
301769000000;158;301769000000;map;33.2678933682;-0.0564743203404;0.0;0.0;0.0;0.00139269623995;0.999999030198;0.00126951384095;0.000276967233216;0.00178462580034;0.0;0.0;0.0;0.0;0.0;0.000576408922207;0.0;0.0;0.0;0.0;0.0;0.0;0.0;0.0;0.0;0.0;0.0;0.0;0.0;0.0;0.0;0.0;0.0;0.0;0.0;0.0;0.0;0.0;0.0;0.0;0.0;0.0;0.0
302165000000;159;302165000000;map;33.4721920448;-0.0605834350946;0.0;0.0;0.0;0.00121909259198;0.999999256906;0.00123060206352;0.000281529377797;0.00178417226238;0.0;0.0;0.0;0.0;0.0;0.000589636917687;0.0;0.0;0.0;0.0;0.0;0.0;0.0;0.0;0.0;0.0;0.0;0.0;0.0;0.0;0.0;0.0;0.0;0.0;0.0;0.0;0.0;0.0;0.0;0.0;0.0;0.0;0.0
302577000000;160;302577000000;map;33.6799206561;-0.0631595564615;0.0;0.0;0.0;0.000417268671523;0.999999912943;0.0011253952614;0.000263148606492;0.00195288577186;0.0;0.0;0.0;0.0;0.0;0.000505161618785;0.0;0.0;0.0;0.0;0.0;0.0;0.0;0.0;0.0;0.0;0.0;0.0;0.0;0.0;0.0;0.0;0.0;0.0;0.0;0.0;0.0;0.0;0.0;0.0;0.0;0.0;0.0
303066000000;161;303066000000;map;33.8862975983;-0.0645249410008;0.0;0.0;0.0;0.000549029528004;0.999999849283;0.00111704543974;0.000178469808298;0.0019233847702;0.0;0.0;0.0;0.0;0.0;0.000467806102529;0.0;0.0;0.0;0.0;0.0;0.0;0.0;0.0;0.0;0.0;0.0;0.0;0.0;0.0;0.0;0.0;0.0;0.0;0.0;0.0;0.0;0.0;0.0;0.0;0.0;0.0;0.0
303461000000;162;303461000000;map;34.0857480276;-0.0679004451543;0.0;0.0;0.0;0.00027340847622;0.999999962624;0.00112507871268;0.000217618366634;0.00192654761852;0.0;0.0;0.0;0.0;0.0;0.000540435554615;0.0;0.0;0.0;0.0;0.0;0.0;0.0;0.0;0.0;0.0;0.0;0.0;0.0;0.0;0.0;0.0;0.0;0.0;0.0;0.0;0.0;0.0;0.0;0.0;0.0;0.0;0.0
303862000000;163;303862000000;map;34.2861305777;-0.0677723724926;0.0;0.0;0.0;0.000535689794109;0.999999856518;0.00114219339935;0.000226832828667;0.00186883729321;0.0;0.0;0.0;0.0;0.0;0.00056548530115;0.0;0.0;0.0;0.0;0.0;0.0;0.0;0.0;0.0;0.0;0.0;0.0;0.0;0.0;0.0;0.0;0.0;0.0;0.0;0.0;0.0;0.0;0.0;0.0;0.0;0.0;0.0
304251000000;164;304251000000;map;34.4964794426;-0.0677752126536;0.0;0.0;0.0;-0.000275394756726;0.999999962079;0.00106556205697;0.000179549023005;0.00163668724108;0.0;0.0;0.0;0.0;0.0;0.000509140763302;0.0;0.0;0.0;0.0;0.0;0.0;0.0;0.0;0.0;0.0;0.0;0.0;0.0;0.0;0.0;0.0;0.0;0.0;0.0;0.0;0.0;0.0;0.0;0.0;0.0;0.0;0.0
304669000000;165;304669000000;map;34.705935259;-0.067035319988;0.0;0.0;0.0;-0.000768738081565;0.999999704521;0.0011076978617;0.00013887609089;0.00154354284497;0.0;0.0;0.0;0.0;0.0;0.0006009837628;0.0;0.0;0.0;0.0;0.0;0.0;0.0;0.0;0.0;0.0;0.0;0.0;0.0;0.0;0.0;0.0;0.0;0.0;0.0;0.0;0.0;0.0;0.0;0.0;0.0;0.0;0.0
305059000000;166;305059000000;map;34.9056328572;-0.0662852792442;0.0;0.0;0.0;-0.000851963550636;0.999999637079;0.00102535523911;0.000115091010525;0.00164637062638;0.0;0.0;0.0;0.0;0.0;0.000693541929181;0.0;0.0;0.0;0.0;0.0;0.0;0.0;0.0;0.0;0.0;0.0;0.0;0.0;0.0;0.0;0.0;0.0;0.0;0.0;0.0;0.0;0.0;0.0;0.0;0.0;0.0;0.0
305470000000;167;305470000000;map;35.1114095547;-0.066791230491;0.0;0.0;0.0;-0.000543296614024;0.999999852414;0.00117715549936;8.84611284153e-05;0.00167484688065;0.0;0.0;0.0;0.0;0.0;0.000667741443698;0.0;0.0;0.0;0.0;0.0;0.0;0.0;0.0;0.0;0.0;0.0;0.0;0.0;0.0;0.0;0.0;0.0;0.0;0.0;0.0;0.0;0.0;0.0;0.0;0.0;0.0;0.0
305851000000;168;305851000000;map;35.3159447543;-0.0679404941766;0.0;0.0;0.0;0.000782197467438;0.999999694084;0.00112200138074;0.000195751701708;0.00173902328535;0.0;0.0;0.0;0.0;0.0;0.000645388808517;0.0;0.0;0.0;0.0;0.0;0.0;0.0;0.0;0.0;0.0;0.0;0.0;0.0;0.0;0.0;0.0;0.0;0.0;0.0;0.0;0.0;0.0;0.0;0.0;0.0;0.0;0.0
306256000000;169;306256000000;map;35.518801813;-0.0692432754055;0.0;0.0;0.0;0.00148806042034;0.999998892837;0.0010402126311;0.000222034022211;0.00176764991289;0.0;0.0;0.0;0.0;0.0;0.000557833238786;0.0;0.0;0.0;0.0;0.0;0.0;0.0;0.0;0.0;0.0;0.0;0.0;0.0;0.0;0.0;0.0;0.0;0.0;0.0;0.0;0.0;0.0;0.0;0.0;0.0;0.0;0.0
306765000000;170;306765000000;map;35.728823292;-0.0709013911809;0.0;0.0;0.0;0.000919628124093;0.999999577142;0.000948465121155;0.000258897797116;0.00187510271942;0.0;0.0;0.0;0.0;0.0;0.000631689526071;0.0;0.0;0.0;0.0;0.0;0.0;0.0;0.0;0.0;0.0;0.0;0.0;0.0;0.0;0.0;0.0;0.0;0.0;0.0;0.0;0.0;0.0;0.0;0.0;0.0;0.0;0.0
307157000000;171;307157000000;map;35.9312520825;-0.0711656369046;0.0;0.0;0.0;0.00107673639805;0.999999420319;0.000841133018412;0.000165498757363;0.00182118109904;0.0;0.0;0.0;0.0;0.0;0.00056800655909;0.0;0.0;0.0;0.0;0.0;0.0;0.0;0.0;0.0;0.0;0.0;0.0;0.0;0.0;0.0;0.0;0.0;0.0;0.0;0.0;0.0;0.0;0.0;0.0;0.0;0.0;0.0
307459000000;172;307459000000;map;36.1363364021;-0.0698787954223;0.0;0.0;0.0;0.000501245804159;0.999999874376;0.000843926493189;0.000125316793217;0.00191586583813;0.0;0.0;0.0;0.0;0.0;0.000622305295208;0.0;0.0;0.0;0.0;0.0;0.0;0.0;0.0;0.0;0.0;0.0;0.0;0.0;0.0;0.0;0.0;0.0;0.0;0.0;0.0;0.0;0.0;0.0;0.0;0.0;0.0;0.0
307953000000;173;307953000000;map;36.3377856335;-0.0707575314796;0.0;0.0;0.0;0.00075510744834;0.999999714906;0.00104504116734;0.000223335137421;0.00188514404865;0.0;0.0;0.0;0.0;0.0;0.000613154817834;0.0;0.0;0.0;0.0;0.0;0.0;0.0;0.0;0.0;0.0;0.0;0.0;0.0;0.0;0.0;0.0;0.0;0.0;0.0;0.0;0.0;0.0;0.0;0.0;0.0;0.0;0.0
308353000000;174;308353000000;map;36.5377421638;-0.0706113081395;0.0;0.0;0.0;-0.000487300691252;0.999999881269;0.00100399737721;0.000223364212176;0.00208054787979;0.0;0.0;0.0;0.0;0.0;0.000597911005575;0.0;0.0;0.0;0.0;0.0;0.0;0.0;0.0;0.0;0.0;0.0;0.0;0.0;0.0;0.0;0.0;0.0;0.0;0.0;0.0;0.0;0.0;0.0;0.0;0.0;0.0;0.0
308752000000;175;308752000000;map;36.7382503106;-0.0724816267775;0.0;0.0;0.0;-0.000224260200319;0.999999974854;0.00108436102369;0.000220479605074;0.00230423747431;0.0;0.0;0.0;0.0;0.0;0.000647776414486;0.0;0.0;0.0;0.0;0.0;0.0;0.0;0.0;0.0;0.0;0.0;0.0;0.0;0.0;0.0;0.0;0.0;0.0;0.0;0.0;0.0;0.0;0.0;0.0;0.0;0.0;0.0
309156000000;176;309156000000;map;36.9403584154;-0.0716097936004;0.0;0.0;0.0;0.000991934598302;0.999999508033;0.00113368100847;0.000211720569045;0.00232185121158;0.0;0.0;0.0;0.0;0.0;0.000639693169261;0.0;0.0;0.0;0.0;0.0;0.0;0.0;0.0;0.0;0.0;0.0;0.0;0.0;0.0;0.0;0.0;0.0;0.0;0.0;0.0;0.0;0.0;0.0;0.0;0.0;0.0;0.0
310353000000;177;310353000000;map;37.0027608276;-0.0730647299798;0.0;0.0;0.0;0.125567093491;0.992085129932;0.00114905207943;0.000306314584067;0.0021458852728;0.0;0.0;0.0;0.0;0.0;0.000717937511375;0.0;0.0;0.0;0.0;0.0;0.0;0.0;0.0;0.0;0.0;0.0;0.0;0.0;0.0;0.0;0.0;0.0;0.0;0.0;0.0;0.0;0.0;0.0;0.0;0.0;0.0;0.0
311460881024;178;311460881024;map;37.0040888412;-0.0715089868071;0.0;0.0;0.0;0.251025776606;0.967980402425;0.00117200771706;0.000385306844279;0.00189985706968;0.0;0.0;0.0;0.0;0.0;0.000609479396696;0.0;0.0;0.0;0.0;0.0;0.0;0.0;0.0;0.0;0.0;0.0;0.0;0.0;0.0;0.0;0.0;0.0;0.0;0.0;0.0;0.0;0.0;0.0;0.0;0.0;0.0;0.0
312577000000;179;312577000000;map;37.0022537256;-0.0732236664565;0.0;0.0;0.0;0.370127682069;0.928980892681;0.00114854326216;0.000370729307474;0.00171111786545;0.0;0.0;0.0;0.0;0.0;0.000644874672283;0.0;0.0;0.0;0.0;0.0;0.0;0.0;0.0;0.0;0.0;0.0;0.0;0.0;0.0;0.0;0.0;0.0;0.0;0.0;0.0;0.0;0.0;0.0;0.0;0.0;0.0;0.0
313769000000;180;313769000000;map;37.0032338633;-0.0726780676937;0.0;0.0;0.0;0.483308235218;0.875450255452;0.00133513028686;0.000471373813379;0.0016446707067;0.0;0.0;0.0;0.0;0.0;0.000605430961941;0.0;0.0;0.0;0.0;0.0;0.0;0.0;0.0;0.0;0.0;0.0;0.0;0.0;0.0;0.0;0.0;0.0;0.0;0.0;0.0;0.0;0.0;0.0;0.0;0.0;0.0;0.0
314755000000;181;314755000000;map;37.0047327316;-0.0735109532118;0.0;0.0;0.0;0.588118458866;0.808774800758;0.00145306055333;0.000526223434532;0.00164513520539;0.0;0.0;0.0;0.0;0.0;0.000590822002134;0.0;0.0;0.0;0.0;0.0;0.0;0.0;0.0;0.0;0.0;0.0;0.0;0.0;0.0;0.0;0.0;0.0;0.0;0.0;0.0;0.0;0.0;0.0;0.0;0.0;0.0;0.0
315850000000;182;315850000000;map;37.009372833;-0.0703966882609;0.0;0.0;0.0;0.684756845195;0.728771612344;0.00135018150877;0.000464527003798;0.00135989816163;0.0;0.0;0.0;0.0;0.0;0.000599626397638;0.0;0.0;0.0;0.0;0.0;0.0;0.0;0.0;0.0;0.0;0.0;0.0;0.0;0.0;0.0;0.0;0.0;0.0;0.0;0.0;0.0;0.0;0.0;0.0;0.0;0.0;0.0
317154000000;183;317154000000;map;36.9943216647;0.141351339926;0.0;0.0;0.0;0.733181328933;0.680033189561;0.0013663003906;0.000447867720608;0.00142668608508;0.0;0.0;0.0;0.0;0.0;0.000747020198585;0.0;0.0;0.0;0.0;0.0;0.0;0.0;0.0;0.0;0.0;0.0;0.0;0.0;0.0;0.0;0.0;0.0;0.0;0.0;0.0;0.0;0.0;0.0;0.0;0.0;0.0;0.0
317558000000;184;317558000000;map;36.9812824082;0.342449914052;0.0;0.0;0.0;0.733477335107;0.679713909586;0.00137956842991;0.000408335402483;0.00135938541037;0.0;0.0;0.0;0.0;0.0;0.000687891293467;0.0;0.0;0.0;0.0;0.0;0.0;0.0;0.0;0.0;0.0;0.0;0.0;0.0;0.0;0.0;0.0;0.0;0.0;0.0;0.0;0.0;0.0;0.0;0.0;0.0;0.0;0.0
317959000000;185;317959000000;map;36.9655279838;0.545501032398;0.0;0.0;0.0;0.733101278374;0.680119486301;0.00143894189819;0.000373741358473;0.00132188724505;0.0;0.0;0.0;0.0;0.0;0.000679888615936;0.0;0.0;0.0;0.0;0.0;0.0;0.0;0.0;0.0;0.0;0.0;0.0;0.0;0.0;0.0;0.0;0.0;0.0;0.0;0.0;0.0;0.0;0.0;0.0;0.0;0.0;0.0
318362000000;186;318362000000;map;36.951414052;0.749920785851;0.0;0.0;0.0;0.733790677777;0.679375626004;0.00141842025482;0.000288840545945;0.00128344633176;0.0;0.0;0.0;0.0;0.0;0.000571631025481;0.0;0.0;0.0;0.0;0.0;0.0;0.0;0.0;0.0;0.0;0.0;0.0;0.0;0.0;0.0;0.0;0.0;0.0;0.0;0.0;0.0;0.0;0.0;0.0;0.0;0.0;0.0
318758000000;187;318758000000;map;36.9356138164;0.951569037226;0.0;0.0;0.0;0.733604898342;0.67957623055;0.00152882733141;0.0001977391114;0.00115201304202;0.0;0.0;0.0;0.0;0.0;0.00058954700288;0.0;0.0;0.0;0.0;0.0;0.0;0.0;0.0;0.0;0.0;0.0;0.0;0.0;0.0;0.0;0.0;0.0;0.0;0.0;0.0;0.0;0.0;0.0;0.0;0.0;0.0;0.0
319162648620;188;319162648620;map;36.9192231111;1.16039959705;0.0;0.0;0.0;0.732852163175;0.680387909159;0.001913057107;4.96895904831e-05;0.00109431801442;0.0;0.0;0.0;0.0;0.0;0.000503805313484;0.0;0.0;0.0;0.0;0.0;0.0;0.0;0.0;0.0;0.0;0.0;0.0;0.0;0.0;0.0;0.0;0.0;0.0;0.0;0.0;0.0;0.0;0.0;0.0;0.0;0.0;0.0
319552000000;189;319552000000;map;36.9122174509;1.36518615216;0.0;0.0;0.0;0.733001739673;0.680226763393;0.00172963942941;8.60660755464e-05;0.00110478717147;0.0;0.0;0.0;0.0;0.0;0.000412203023733;0.0;0.0;0.0;0.0;0.0;0.0;0.0;0.0;0.0;0.0;0.0;0.0;0.0;0.0;0.0;0.0;0.0;0.0;0.0;0.0;0.0;0.0;0.0;0.0;0.0;0.0;0.0
319951000000;190;319951000000;map;36.9026986703;1.56738346364;0.0;0.0;0.0;0.733200379709;0.68001264929;0.00227506040005;0.000369789612577;0.00104798858806;0.0;0.0;0.0;0.0;0.0;0.000372955453029;0.0;0.0;0.0;0.0;0.0;0.0;0.0;0.0;0.0;0.0;0.0;0.0;0.0;0.0;0.0;0.0;0.0;0.0;0.0;0.0;0.0;0.0;0.0;0.0;0.0;0.0;0.0
320469000000;191;320469000000;map;36.8906641456;1.76699054787;0.0;0.0;0.0;0.733555207375;0.679629868188;0.00221472726253;0.000317719938622;0.000979905068597;0.0;0.0;0.0;0.0;0.0;0.000395024004808;0.0;0.0;0.0;0.0;0.0;0.0;0.0;0.0;0.0;0.0;0.0;0.0;0.0;0.0;0.0;0.0;0.0;0.0;0.0;0.0;0.0;0.0;0.0;0.0;0.0;0.0;0.0
320996000000;192;320996000000;map;36.8809637255;1.96871219573;0.0;0.0;0.0;0.733537277768;0.67964921991;0.00202230298851;0.000437872463024;0.000960871684247;0.0;0.0;0.0;0.0;0.0;0.000425248367319;0.0;0.0;0.0;0.0;0.0;0.0;0.0;0.0;0.0;0.0;0.0;0.0;0.0;0.0;0.0;0.0;0.0;0.0;0.0;0.0;0.0;0.0;0.0;0.0;0.0;0.0;0.0
322650000000;193;322650000000;map;36.8755843421;2.17297165714;0.0;0.0;0.0;0.701634791923;0.712536749062;0.00184070776186;0.000472586569714;0.000900246751478;0.0;0.0;0.0;0.0;0.0;0.000652841995287;0.0;0.0;0.0;0.0;0.0;0.0;0.0;0.0;0.0;0.0;0.0;0.0;0.0;0.0;0.0;0.0;0.0;0.0;0.0;0.0;0.0;0.0;0.0;0.0;0.0;0.0;0.0
323051000000;194;323051000000;map;36.8852616546;2.37509535429;0.0;0.0;0.0;0.699404545487;0.714726018662;0.00171351828158;0.000558359516972;0.00072515226838;0.0;0.0;0.0;0.0;0.0;0.000437425721495;0.0;0.0;0.0;0.0;0.0;0.0;0.0;0.0;0.0;0.0;0.0;0.0;0.0;0.0;0.0;0.0;0.0;0.0;0.0;0.0;0.0;0.0;0.0;0.0;0.0;0.0;0.0
323449000000;195;323449000000;map;36.895636773;2.57740931138;0.0;0.0;0.0;0.699477391254;0.714654727211;0.00146977606505;0.00065293415625;0.000727799657975;0.0;0.0;0.0;0.0;0.0;0.000529463323416;0.0;0.0;0.0;0.0;0.0;0.0;0.0;0.0;0.0;0.0;0.0;0.0;0.0;0.0;0.0;0.0;0.0;0.0;0.0;0.0;0.0;0.0;0.0;0.0;0.0;0.0;0.0
323854000000;196;323854000000;map;36.8936992248;2.77348912341;0.0;0.0;0.0;0.699810928345;0.714328121082;0.0012606768712;0.000558958165982;0.000637546304197;0.0;0.0;0.0;0.0;0.0;0.000660013921759;0.0;0.0;0.0;0.0;0.0;0.0;0.0;0.0;0.0;0.0;0.0;0.0;0.0;0.0;0.0;0.0;0.0;0.0;0.0;0.0;0.0;0.0;0.0;0.0;0.0;0.0;0.0
324251000000;197;324251000000;map;36.9012404171;2.9760172944;0.0;0.0;0.0;0.699255377969;0.714871958033;0.000977630796342;0.00047617267515;0.000692119354973;0.0;0.0;0.0;0.0;0.0;0.000640111919758;0.0;0.0;0.0;0.0;0.0;0.0;0.0;0.0;0.0;0.0;0.0;0.0;0.0;0.0;0.0;0.0;0.0;0.0;0.0;0.0;0.0;0.0;0.0;0.0;0.0;0.0;0.0
324659000000;198;324659000000;map;36.906013657;3.18383424969;0.0;0.0;0.0;0.699185118385;0.714940676021;0.000940391842278;0.000454464253366;0.00065607872293;0.0;0.0;0.0;0.0;0.0;0.000651177181285;0.0;0.0;0.0;0.0;0.0;0.0;0.0;0.0;0.0;0.0;0.0;0.0;0.0;0.0;0.0;0.0;0.0;0.0;0.0;0.0;0.0;0.0;0.0;0.0;0.0;0.0;0.0
325051000000;199;325051000000;map;36.9102695045;3.38410737852;0.0;0.0;0.0;0.699127941051;0.714996588832;0.000903109785668;0.000412923917423;0.000804605383946;0.0;0.0;0.0;0.0;0.0;0.000764563743282;0.0;0.0;0.0;0.0;0.0;0.0;0.0;0.0;0.0;0.0;0.0;0.0;0.0;0.0;0.0;0.0;0.0;0.0;0.0;0.0;0.0;0.0;0.0;0.0;0.0;0.0;0.0
325457000000;200;325457000000;map;36.9141675806;3.57978977758;0.0;0.0;0.0;0.699695425395;0.714441258384;0.000779599888574;0.000345706157248;0.000837382889049;0.0;0.0;0.0;0.0;0.0;0.000615485284936;0.0;0.0;0.0;0.0;0.0;0.0;0.0;0.0;0.0;0.0;0.0;0.0;0.0;0.0;0.0;0.0;0.0;0.0;0.0;0.0;0.0;0.0;0.0;0.0;0.0;0.0;0.0
325851000000;201;325851000000;map;36.9223109648;3.77911814041;0.0;0.0;0.0;0.697382734685;0.716698905652;0.000876182978345;0.000216216759355;0.000885441207084;0.0;0.0;0.0;0.0;0.0;0.000892468586002;0.0;0.0;0.0;0.0;0.0;0.0;0.0;0.0;0.0;0.0;0.0;0.0;0.0;0.0;0.0;0.0;0.0;0.0;0.0;0.0;0.0;0.0;0.0;0.0;0.0;0.0;0.0
326254000000;202;326254000000;map;36.9272527143;3.98133976449;0.0;0.0;0.0;0.697693732921;0.716396157892;0.00113899618077;0.000273568925934;0.000970744564821;0.0;0.0;0.0;0.0;0.0;0.000833905284857;0.0;0.0;0.0;0.0;0.0;0.0;0.0;0.0;0.0;0.0;0.0;0.0;0.0;0.0;0.0;0.0;0.0;0.0;0.0;0.0;0.0;0.0;0.0;0.0;0.0;0.0;0.0
326755000000;203;326755000000;map;36.9333689149;4.18462957807;0.0;0.0;0.0;0.697566621927;0.716519928525;0.0013733949479;0.000206129970366;0.000995603453454;0.0;0.0;0.0;0.0;0.0;0.000826872951469;0.0;0.0;0.0;0.0;0.0;0.0;0.0;0.0;0.0;0.0;0.0;0.0;0.0;0.0;0.0;0.0;0.0;0.0;0.0;0.0;0.0;0.0;0.0;0.0;0.0;0.0;0.0
327057000000;204;327057000000;map;36.9384490366;4.38965177005;0.0;0.0;0.0;0.697136625153;0.716938299905;0.00154648104512;0.000332372450544;0.000961034564039;0.0;0.0;0.0;0.0;0.0;0.000700639296493;0.0;0.0;0.0;0.0;0.0;0.0;0.0;0.0;0.0;0.0;0.0;0.0;0.0;0.0;0.0;0.0;0.0;0.0;0.0;0.0;0.0;0.0;0.0;0.0;0.0;0.0;0.0
327555000000;205;327555000000;map;36.9428461619;4.58865705166;0.0;0.0;0.0;0.696327216016;0.717724465401;0.00130058233322;0.000230893391461;0.00102572338432;0.0;0.0;0.0;0.0;0.0;0.000498429241688;0.0;0.0;0.0;0.0;0.0;0.0;0.0;0.0;0.0;0.0;0.0;0.0;0.0;0.0;0.0;0.0;0.0;0.0;0.0;0.0;0.0;0.0;0.0;0.0;0.0;0.0;0.0
327955000000;206;327955000000;map;36.9485768176;4.79318816618;0.0;0.0;0.0;0.697771215806;0.716320689631;0.00154263290165;0.000251623893348;0.00112646960623;0.0;0.0;0.0;0.0;0.0;0.00062267426822;0.0;0.0;0.0;0.0;0.0;0.0;0.0;0.0;0.0;0.0;0.0;0.0;0.0;0.0;0.0;0.0;0.0;0.0;0.0;0.0;0.0;0.0;0.0;0.0;0.0;0.0;0.0
328356000000;207;328356000000;map;36.9507121281;4.99501055897;0.0;0.0;0.0;0.699150435152;0.714974593274;0.00131254711755;0.000151048648007;0.00109269141964;0.0;0.0;0.0;0.0;0.0;0.000536897333755;0.0;0.0;0.0;0.0;0.0;0.0;0.0;0.0;0.0;0.0;0.0;0.0;0.0;0.0;0.0;0.0;0.0;0.0;0.0;0.0;0.0;0.0;0.0;0.0;0.0;0.0;0.0
328763054101;208;328763054101;map;36.9545184695;5.200720137;0.0;0.0;0.0;0.70048525829;0.713666871109;0.00113690018497;5.14521302364e-05;0.0011903109476;0.0;0.0;0.0;0.0;0.0;0.000528826384593;0.0;0.0;0.0;0.0;0.0;0.0;0.0;0.0;0.0;0.0;0.0;0.0;0.0;0.0;0.0;0.0;0.0;0.0;0.0;0.0;0.0;0.0;0.0;0.0;0.0;0.0;0.0
329159000000;209;329159000000;map;36.9551424085;5.40000303215;0.0;0.0;0.0;0.701335201591;0.7128316316;0.00117832960223;-0.000127049222925;0.00117330437353;0.0;0.0;0.0;0.0;0.0;0.000503228140367;0.0;0.0;0.0;0.0;0.0;0.0;0.0;0.0;0.0;0.0;0.0;0.0;0.0;0.0;0.0;0.0;0.0;0.0;0.0;0.0;0.0;0.0;0.0;0.0;0.0;0.0;0.0
329554668845;210;329554668845;map;36.9556703723;5.59879349139;0.0;0.0;0.0;0.700909664963;0.713250055423;0.00132108667231;-0.000156100973129;0.00132486893238;0.0;0.0;0.0;0.0;0.0;0.000478590551271;0.0;0.0;0.0;0.0;0.0;0.0;0.0;0.0;0.0;0.0;0.0;0.0;0.0;0.0;0.0;0.0;0.0;0.0;0.0;0.0;0.0;0.0;0.0;0.0;0.0;0.0;0.0
329953000000;211;329953000000;map;36.9566684827;5.79795436422;0.0;0.0;0.0;0.701309708751;0.712856712399;0.00151893117777;-0.000109992848337;0.00134778323937;0.0;0.0;0.0;0.0;0.0;0.000482484982691;0.0;0.0;0.0;0.0;0.0;0.0;0.0;0.0;0.0;0.0;0.0;0.0;0.0;0.0;0.0;0.0;0.0;0.0;0.0;0.0;0.0;0.0;0.0;0.0;0.0;0.0;0.0
330358000000;212;330358000000;map;36.9576783481;6.00319299017;0.0;0.0;0.0;0.701911498573;0.712264170215;0.00161930373747;-0.000172037054654;0.00134842076922;0.0;0.0;0.0;0.0;0.0;0.000558267967165;0.0;0.0;0.0;0.0;0.0;0.0;0.0;0.0;0.0;0.0;0.0;0.0;0.0;0.0;0.0;0.0;0.0;0.0;0.0;0.0;0.0;0.0;0.0;0.0;0.0;0.0;0.0
330768000000;213;330768000000;map;36.9598969226;6.21361748365;0.0;0.0;0.0;0.702428880991;0.711753937221;0.00173287129269;-0.000141908495067;0.0013584149538;0.0;0.0;0.0;0.0;0.0;0.00059201052787;0.0;0.0;0.0;0.0;0.0;0.0;0.0;0.0;0.0;0.0;0.0;0.0;0.0;0.0;0.0;0.0;0.0;0.0;0.0;0.0;0.0;0.0;0.0;0.0;0.0;0.0;0.0
331158000000;214;331158000000;map;36.9630413545;6.41252601203;0.0;0.0;0.0;0.701331803467;0.712834974904;0.00164444615712;3.04388015877e-05;0.00126355186239;0.0;0.0;0.0;0.0;0.0;0.00051827985196;0.0;0.0;0.0;0.0;0.0;0.0;0.0;0.0;0.0;0.0;0.0;0.0;0.0;0.0;0.0;0.0;0.0;0.0;0.0;0.0;0.0;0.0;0.0;0.0;0.0;0.0;0.0
331552000000;215;331552000000;map;36.9687256437;6.61151840956;0.0;0.0;0.0;0.7003467881;0.713802757348;0.00178311035666;-2.75650821209e-05;0.0011722176527;0.0;0.0;0.0;0.0;0.0;0.000459105648981;0.0;0.0;0.0;0.0;0.0;0.0;0.0;0.0;0.0;0.0;0.0;0.0;0.0;0.0;0.0;0.0;0.0;0.0;0.0;0.0;0.0;0.0;0.0;0.0;0.0;0.0;0.0
331958000000;216;331958000000;map;36.9701799343;6.82422454522;0.0;0.0;0.0;0.70094082106;0.71321943704;0.00175637476332;0.00019330681431;0.00105322067559;0.0;0.0;0.0;0.0;0.0;0.00056369634422;0.0;0.0;0.0;0.0;0.0;0.0;0.0;0.0;0.0;0.0;0.0;0.0;0.0;0.0;0.0;0.0;0.0;0.0;0.0;0.0;0.0;0.0;0.0;0.0;0.0;0.0;0.0
332357000000;217;332357000000;map;36.9739233182;7.03608472454;0.0;0.0;0.0;0.701613753447;0.712557465033;0.00161643217371;0.000208487356701;0.000943113138888;0.0;0.0;0.0;0.0;0.0;0.000610063520393;0.0;0.0;0.0;0.0;0.0;0.0;0.0;0.0;0.0;0.0;0.0;0.0;0.0;0.0;0.0;0.0;0.0;0.0;0.0;0.0;0.0;0.0;0.0;0.0;0.0;0.0;0.0
332765000000;218;332765000000;map;36.9793041312;7.2388890956;0.0;0.0;0.0;0.700935454271;0.713224711396;0.00155787577091;0.000172485727148;0.000975031234738;0.0;0.0;0.0;0.0;0.0;0.000631460108176;0.0;0.0;0.0;0.0;0.0;0.0;0.0;0.0;0.0;0.0;0.0;0.0;0.0;0.0;0.0;0.0;0.0;0.0;0.0;0.0;0.0;0.0;0.0;0.0;0.0;0.0;0.0
333148000000;219;333148000000;map;36.9832606806;7.44042118205;0.0;0.0;0.0;0.701786127639;0.712387697152;0.00192697512739;0.00030210469464;0.000997191246313;0.0;0.0;0.0;0.0;0.0;0.000733878762526;0.0;0.0;0.0;0.0;0.0;0.0;0.0;0.0;0.0;0.0;0.0;0.0;0.0;0.0;0.0;0.0;0.0;0.0;0.0;0.0;0.0;0.0;0.0;0.0;0.0;0.0;0.0
333563000000;220;333563000000;map;36.9866473148;7.6485030306;0.0;0.0;0.0;0.701271164419;0.712894630331;0.00202256106195;0.000202833167748;0.00104912128216;0.0;0.0;0.0;0.0;0.0;0.000771071014537;0.0;0.0;0.0;0.0;0.0;0.0;0.0;0.0;0.0;0.0;0.0;0.0;0.0;0.0;0.0;0.0;0.0;0.0;0.0;0.0;0.0;0.0;0.0;0.0;0.0;0.0;0.0
334058000000;221;334058000000;map;36.9936724942;7.86139216603;0.0;0.0;0.0;0.700831754782;0.713326609268;0.00203382738891;-4.33141195799e-06;0.000967704306717;0.0;0.0;0.0;0.0;0.0;0.000675473526473;0.0;0.0;0.0;0.0;0.0;0.0;0.0;0.0;0.0;0.0;0.0;0.0;0.0;0.0;0.0;0.0;0.0;0.0;0.0;0.0;0.0;0.0;0.0;0.0;0.0;0.0;0.0
334459000000;222;334459000000;map;36.9946092974;8.06156530147;0.0;0.0;0.0;0.700511142566;0.713641464;0.00203046860315;6.9481819196e-05;0.000882312263101;0.0;0.0;0.0;0.0;0.0;0.000698764434518;0.0;0.0;0.0;0.0;0.0;0.0;0.0;0.0;0.0;0.0;0.0;0.0;0.0;0.0;0.0;0.0;0.0;0.0;0.0;0.0;0.0;0.0;0.0;0.0;0.0;0.0;0.0
334859000000;223;334859000000;map;36.9957447159;8.2614004896;0.0;0.0;0.0;0.700936339547;0.713223841372;0.00204785952155;6.93282625548e-05;0.00090510937477;0.0;0.0;0.0;0.0;0.0;0.000663773765498;0.0;0.0;0.0;0.0;0.0;0.0;0.0;0.0;0.0;0.0;0.0;0.0;0.0;0.0;0.0;0.0;0.0;0.0;0.0;0.0;0.0;0.0;0.0;0.0;0.0;0.0;0.0
335260000000;224;335260000000;map;36.9989257165;8.46175091738;0.0;0.0;0.0;0.701348074592;0.712818965983;0.00219724722842;-4.21897777869e-05;0.000980357002646;0.0;0.0;0.0;0.0;0.0;0.000624516819122;0.0;0.0;0.0;0.0;0.0;0.0;0.0;0.0;0.0;0.0;0.0;0.0;0.0;0.0;0.0;0.0;0.0;0.0;0.0;0.0;0.0;0.0;0.0;0.0;0.0;0.0;0.0
335667000000;225;335667000000;map;37.000807139;8.66796234958;0.0;0.0;0.0;0.7017145244;0.71245822772;0.00227481940124;-0.000178969458261;0.00093772379455;0.0;0.0;0.0;0.0;0.0;0.000753740173627;0.0;0.0;0.0;0.0;0.0;0.0;0.0;0.0;0.0;0.0;0.0;0.0;0.0;0.0;0.0;0.0;0.0;0.0;0.0;0.0;0.0;0.0;0.0;0.0;0.0;0.0;0.0
336056000000;226;336056000000;map;37.0053365467;8.8681742374;0.0;0.0;0.0;0.700819820314;0.713338334491;0.00276648566114;-9.23869333747e-05;0.000837917601942;0.0;0.0;0.0;0.0;0.0;0.000721156545931;0.0;0.0;0.0;0.0;0.0;0.0;0.0;0.0;0.0;0.0;0.0;0.0;0.0;0.0;0.0;0.0;0.0;0.0;0.0;0.0;0.0;0.0;0.0;0.0;0.0;0.0;0.0
336457000000;227;336457000000;map;37.0079514586;9.06882938165;0.0;0.0;0.0;0.701322690404;0.712843940792;0.00279619285698;-0.000181826476364;0.000830351793155;0.0;0.0;0.0;0.0;0.0;0.000754661820761;0.0;0.0;0.0;0.0;0.0;0.0;0.0;0.0;0.0;0.0;0.0;0.0;0.0;0.0;0.0;0.0;0.0;0.0;0.0;0.0;0.0;0.0;0.0;0.0;0.0;0.0;0.0
336861000000;228;336861000000;map;37.0065593977;9.27148355531;0.0;0.0;0.0;0.701646184503;0.71252553061;0.00291866042153;-3.79715458507e-05;0.000820063535414;0.0;0.0;0.0;0.0;0.0;0.000684740419631;0.0;0.0;0.0;0.0;0.0;0.0;0.0;0.0;0.0;0.0;0.0;0.0;0.0;0.0;0.0;0.0;0.0;0.0;0.0;0.0;0.0;0.0;0.0;0.0;0.0;0.0;0.0
337260813741;229;337260813741;map;37.0116815037;9.48171398417;0.0;0.0;0.0;0.701525975483;0.712643884225;0.00296956470743;-0.000123739424964;0.000816372504914;0.0;0.0;0.0;0.0;0.0;0.000606437269471;0.0;0.0;0.0;0.0;0.0;0.0;0.0;0.0;0.0;0.0;0.0;0.0;0.0;0.0;0.0;0.0;0.0;0.0;0.0;0.0;0.0;0.0;0.0;0.0;0.0;0.0;0.0
337668000000;230;337668000000;map;37.0181229556;9.68099691756;0.0;0.0;0.0;0.700734527208;0.713422120752;0.00247926701331;1.31418786395e-05;0.000820231261869;0.0;0.0;0.0;0.0;0.0;0.00049507470911;0.0;0.0;0.0;0.0;0.0;0.0;0.0;0.0;0.0;0.0;0.0;0.0;0.0;0.0;0.0;0.0;0.0;0.0;0.0;0.0;0.0;0.0;0.0;0.0;0.0;0.0;0.0
338060000000;231;338060000000;map;37.020385484;9.89197730121;0.0;0.0;0.0;0.700238075284;0.713909404563;0.00282259097253;3.26185564177e-05;0.000742700137693;0.0;0.0;0.0;0.0;0.0;0.000617078503707;0.0;0.0;0.0;0.0;0.0;0.0;0.0;0.0;0.0;0.0;0.0;0.0;0.0;0.0;0.0;0.0;0.0;0.0;0.0;0.0;0.0;0.0;0.0;0.0;0.0;0.0;0.0
338455215640;232;338455215640;map;37.0234677987;10.0935391278;0.0;0.0;0.0;0.700641740882;0.713513245101;0.00312517790348;-5.39099092975e-05;0.000813554473012;0.0;0.0;0.0;0.0;0.0;0.000625875359173;0.0;0.0;0.0;0.0;0.0;0.0;0.0;0.0;0.0;0.0;0.0;0.0;0.0;0.0;0.0;0.0;0.0;0.0;0.0;0.0;0.0;0.0;0.0;0.0;0.0;0.0;0.0
338859000000;233;338859000000;map;37.0281515372;10.2910955809;0.0;0.0;0.0;0.701390506757;0.712777214164;0.00260645167486;5.49242763555e-05;0.000771935553146;0.0;0.0;0.0;0.0;0.0;0.000532144605358;0.0;0.0;0.0;0.0;0.0;0.0;0.0;0.0;0.0;0.0;0.0;0.0;0.0;0.0;0.0;0.0;0.0;0.0;0.0;0.0;0.0;0.0;0.0;0.0;0.0;0.0;0.0
339259000000;234;339259000000;map;37.0339912291;10.4936774763;0.0;0.0;0.0;0.70108022988;0.71308240146;0.00243421289542;9.6294258185e-05;0.000820941742731;0.0;0.0;0.0;0.0;0.0;0.0005549898665;0.0;0.0;0.0;0.0;0.0;0.0;0.0;0.0;0.0;0.0;0.0;0.0;0.0;0.0;0.0;0.0;0.0;0.0;0.0;0.0;0.0;0.0;0.0;0.0;0.0;0.0;0.0
339768000000;235;339768000000;map;37.0377220153;10.6937560449;0.0;0.0;0.0;0.700688321098;0.713467502187;0.00223493400244;0.00015669884101;0.000817414193307;0.0;0.0;0.0;0.0;0.0;0.000660544670904;0.0;0.0;0.0;0.0;0.0;0.0;0.0;0.0;0.0;0.0;0.0;0.0;0.0;0.0;0.0;0.0;0.0;0.0;0.0;0.0;0.0;0.0;0.0;0.0;0.0;0.0;0.0
340058296779;236;340058296779;map;37.0433573838;10.8964352901;0.0;0.0;0.0;0.70124426141;0.712921093698;0.00261064837423;0.000242975199797;0.000847176768957;0.0;0.0;0.0;0.0;0.0;0.000735944960407;0.0;0.0;0.0;0.0;0.0;0.0;0.0;0.0;0.0;0.0;0.0;0.0;0.0;0.0;0.0;0.0;0.0;0.0;0.0;0.0;0.0;0.0;0.0;0.0;0.0;0.0;0.0
