%time;field.header.seq;field.header.stamp;field.header.frame_id;field.pose.pose.position.x;field.pose.pose.position.y;field.pose.pose.position.z;field.pose.pose.orientation.x;field.pose.pose.orientation.y;field.pose.pose.orientation.z;field.pose.pose.orientation.w;field.pose.covariance0;field.pose.covariance1;field.pose.covariance2;field.pose.covariance3;field.pose.covariance4;field.pose.covariance5;field.pose.covariance6;field.pose.covariance7;field.pose.covariance8;field.pose.covariance9;field.pose.covariance10;field.pose.covariance11;field.pose.covariance12;field.pose.covariance13;field.pose.covariance14;field.pose.covariance15;field.pose.covariance16;field.pose.covariance17;field.pose.covariance18;field.pose.covariance19;field.pose.covariance20;field.pose.covariance21;field.pose.covariance22;field.pose.covariance23;field.pose.covariance24;field.pose.covariance25;field.pose.covariance26;field.pose.covariance27;field.pose.covariance28;field.pose.covariance29;field.pose.covariance30;field.pose.covariance31;field.pose.covariance32;field.pose.covariance33;field.pose.covariance34;field.pose.covariance35
253811000000;54;253811000000;map;9.28898638566;-0.0129734590541;0.0;0.0;0.0;0.0014790723558;0.999998906172;0.000846124569676;-0.00025572910598;0.000465902522725;0.0;0.0;0.0;0.0;0.0;0.000108603525038;0.0;0.0;0.0;0.0;0.0;0.0;0.0;0.0;0.0;0.0;0.0;0.0;0.0;0.0;0.0;0.0;0.0;0.0;0.0;0.0;0.0;0.0;0.0;0.0;0.0;0.0;0.0
254117000000;55;254117000000;map;9.39273078764;-0.0125375951924;0.0;0.0;0.0;0.0010965427581;0.999999398797;0.000968634376548;-0.000246492310819;0.000515249890252;0.0;0.0;0.0;0.0;0.0;8.85926044979e-05;0.0;0.0;0.0;0.0;0.0;0.0;0.0;0.0;0.0;0.0;0.0;0.0;0.0;0.0;0.0;0.0;0.0;0.0;0.0;0.0;0.0;0.0;0.0;0.0;0.0;0.0;0.0
254316000000;56;254316000000;map;9.49206317377;-0.0123690206309;0.0;0.0;0.0;0.0009186270542;0.999999578062;0.000815302328249;-0.00016649358616;0.000459441842338;0.0;0.0;0.0;0.0;0.0;9.00106722438e-05;0.0;0.0;0.0;0.0;0.0;0.0;0.0;0.0;0.0;0.0;0.0;0.0;0.0;0.0;0.0;0.0;0.0;0.0;0.0;0.0;0.0;0.0;0.0;0.0;0.0;0.0;0.0
254521000000;57;254521000000;map;9.60525333529;-0.0115933429029;0.0;0.0;0.0;0.00131152497086;0.999999139951;0.000810800931745;-0.000218488539482;0.000449019562172;0.0;0.0;0.0;0.0;0.0;9.86825957089e-05;0.0;0.0;0.0;0.0;0.0;0.0;0.0;0.0;0.0;0.0;0.0;0.0;0.0;0.0;0.0;0.0;0.0;0.0;0.0;0.0;0.0;0.0;0.0;0.0;0.0;0.0;0.0
254713000000;58;254713000000;map;9.70814581768;-0.0127989718418;0.0;0.0;0.0;0.00100109095658;0.999999498908;0.000818137787718;-0.000291904017535;0.000512294264377;0.0;0.0;0.0;0.0;0.0;9.8300573166e-05;0.0;0.0;0.0;0.0;0.0;0.0;0.0;0.0;0.0;0.0;0.0;0.0;0.0;0.0;0.0;0.0;0.0;0.0;0.0;0.0;0.0;0.0;0.0;0.0;0.0;0.0;0.0
254916000000;59;254916000000;map;9.82287372707;-0.0142801957463;0.0;0.0;0.0;0.000992160472556;0.999999507809;0.000840684664183;-0.000296854771623;0.000527186060193;0.0;0.0;0.0;0.0;0.0;9.54809955271e-05;0.0;0.0;0.0;0.0;0.0;0.0;0.0;0.0;0.0;0.0;0.0;0.0;0.0;0.0;0.0;0.0;0.0;0.0;0.0;0.0;0.0;0.0;0.0;0.0;0.0;0.0;0.0
255118000000;60;255118000000;map;9.92567451819;-0.0153691569096;0.0;0.0;0.0;0.000611017612055;0.999999813329;0.00104520438022;-0.000435174155718;0.000649001655669;0.0;0.0;0.0;0.0;0.0;0.000105135960603;0.0;0.0;0.0;0.0;0.0;0.0;0.0;0.0;0.0;0.0;0.0;0.0;0.0;0.0;0.0;0.0;0.0;0.0;0.0;0.0;0.0;0.0;0.0;0.0;0.0;0.0;0.0
255319000000;61;255319000000;map;10.0256408776;-0.0137094331872;0.0;0.0;0.0;0.000654682952417;0.999999785695;0.000967690667792;-0.000411733406641;0.000603114754381;0.0;0.0;0.0;0.0;0.0;0.000109448506319;0.0;0.0;0.0;0.0;0.0;0.0;0.0;0.0;0.0;0.0;0.0;0.0;0.0;0.0;0.0;0.0;0.0;0.0;0.0;0.0;0.0;0.0;0.0;0.0;0.0;0.0;0.0
255515000000;62;255515000000;map;10.1260645422;-0.013865871628;0.0;0.0;0.0;0.000275692114268;0.999999961997;0.000889706127879;-0.000348869125692;0.000600515381484;0.0;0.0;0.0;0.0;0.0;0.000114532234835;0.0;0.0;0.0;0.0;0.0;0.0;0.0;0.0;0.0;0.0;0.0;0.0;0.0;0.0;0.0;0.0;0.0;0.0;0.0;0.0;0.0;0.0;0.0;0.0;0.0;0.0;0.0
255716000000;63;255716000000;map;10.2255768751;-0.0164846549813;0.0;0.0;0.0;0.000101597557824;0.999999994839;0.000941493680799;-0.00036050611788;0.00064252165117;0.0;0.0;0.0;0.0;0.0;0.000100520686491;0.0;0.0;0.0;0.0;0.0;0.0;0.0;0.0;0.0;0.0;0.0;0.0;0.0;0.0;0.0;0.0;0.0;0.0;0.0;0.0;0.0;0.0;0.0;0.0;0.0;0.0;0.0
255912000000;64;255912000000;map;10.32767664;-0.0177255036717;0.0;0.0;0.0;0.000170505955365;0.999999985464;0.000831121553958;-0.000348500911115;0.000632294719877;0.0;0.0;0.0;0.0;0.0;0.000109933404985;0.0;0.0;0.0;0.0;0.0;0.0;0.0;0.0;0.0;0.0;0.0;0.0;0.0;0.0;0.0;0.0;0.0;0.0;0.0;0.0;0.0;0.0;0.0;0.0;0.0;0.0;0.0
256113000000;65;256113000000;map;10.4280300233;-0.0160514377458;0.0;0.0;0.0;0.000725694100339;0.999999736684;0.000698351397318;-0.000306707457824;0.000596298467779;0.0;0.0;0.0;0.0;0.0;0.000107999443471;0.0;0.0;0.0;0.0;0.0;0.0;0.0;0.0;0.0;0.0;0.0;0.0;0.0;0.0;0.0;0.0;0.0;0.0;0.0;0.0;0.0;0.0;0.0;0.0;0.0;0.0;0.0
256417000000;66;256417000000;map;10.5310184155;-0.0146864394253;0.0;0.0;0.0;0.000697455679264;0.999999756778;0.000806170787129;-0.000313763921796;0.000562958162273;0.0;0.0;0.0;0.0;0.0;0.000100778622762;0.0;0.0;0.0;0.0;0.0;0.0;0.0;0.0;0.0;0.0;0.0;0.0;0.0;0.0;0.0;0.0;0.0;0.0;0.0;0.0;0.0;0.0;0.0;0.0;0.0;0.0;0.0
256520000000;67;256520000000;map;10.6437282486;-0.0155778341331;0.0;0.0;0.0;0.000486454174374;0.999999881681;0.000725855138498;-0.000293189184791;0.000544012788183;0.0;0.0;0.0;0.0;0.0;0.000105169793732;0.0;0.0;0.0;0.0;0.0;0.0;0.0;0.0;0.0;0.0;0.0;0.0;0.0;0.0;0.0;0.0;0.0;0.0;0.0;0.0;0.0;0.0;0.0;0.0;0.0;0.0;0.0
256817000000;68;256817000000;map;10.7546466074;-0.0140782402842;0.0;0.0;0.0;0.000140977267863;0.999999990063;0.000762909738981;-0.000273061303201;0.000620524138668;0.0;0.0;0.0;0.0;0.0;0.000106072843581;0.0;0.0;0.0;0.0;0.0;0.0;0.0;0.0;0.0;0.0;0.0;0.0;0.0;0.0;0.0;0.0;0.0;0.0;0.0;0.0;0.0;0.0;0.0;0.0;0.0;0.0;0.0
257010000000;69;257010000000;map;10.859974188;-0.0152793733796;0.0;0.0;0.0;8.41395816699e-05;0.99999999646;0.00083093561544;-0.000304422764607;0.000642680442069;0.0;0.0;0.0;0.0;0.0;0.000117818645748;0.0;0.0;0.0;0.0;0.0;0.0;0.0;0.0;0.0;0.0;0.0;0.0;0.0;0.0;0.0;0.0;0.0;0.0;0.0;0.0;0.0;0.0;0.0;0.0;0.0;0.0;0.0
257212021671;70;257212021671;map;10.9696202275;-0.0155619653277;0.0;0.0;0.0;-0.000238612191987;0.999999971532;0.000827566755319;-0.000244719166634;0.000609452291412;0.0;0.0;0.0;0.0;0.0;0.000125625043855;0.0;0.0;0.0;0.0;0.0;0.0;0.0;0.0;0.0;0.0;0.0;0.0;0.0;0.0;0.0;0.0;0.0;0.0;0.0;0.0;0.0;0.0;0.0;0.0;0.0;0.0;0.0
257419000000;71;257419000000;map;11.0698513064;-0.0146291416945;0.0;0.0;0.0;-0.000187859340176;0.999999982354;0.000901686939486;-0.000247683024501;0.000563244438992;0.0;0.0;0.0;0.0;0.0;0.000121258280888;0.0;0.0;0.0;0.0;0.0;0.0;0.0;0.0;0.0;0.0;0.0;0.0;0.0;0.0;0.0;0.0;0.0;0.0;0.0;0.0;0.0;0.0;0.0;0.0;0.0;0.0;0.0
257617000000;72;257617000000;map;11.1837462523;-0.0158947132767;0.0;0.0;0.0;-0.000202528223546;0.999999979491;0.000734549177636;-0.000215923994934;0.000569809128703;0.0;0.0;0.0;0.0;0.0;0.000104220283753;0.0;0.0;0.0;0.0;0.0;0.0;0.0;0.0;0.0;0.0;0.0;0.0;0.0;0.0;0.0;0.0;0.0;0.0;0.0;0.0;0.0;0.0;0.0;0.0;0.0;0.0;0.0
257811000000;73;257811000000;map;11.2939216924;-0.0149754797545;0.0;0.0;0.0;-0.000482172865646;0.999999883755;0.000636888827671;-0.000117727987652;0.000555096073081;0.0;0.0;0.0;0.0;0.0;0.000122437708591;0.0;0.0;0.0;0.0;0.0;0.0;0.0;0.0;0.0;0.0;0.0;0.0;0.0;0.0;0.0;0.0;0.0;0.0;0.0;0.0;0.0;0.0;0.0;0.0;0.0;0.0;0.0
258019000000;74;258019000000;map;11.3971618218;-0.0155776406991;0.0;0.0;0.0;-0.000694639180553;0.999999758738;0.000595297663892;-7.79695481257e-05;0.000463243429423;0.0;0.0;0.0;0.0;0.0;0.000114873439786;0.0;0.0;0.0;0.0;0.0;0.0;0.0;0.0;0.0;0.0;0.0;0.0;0.0;0.0;0.0;0.0;0.0;0.0;0.0;0.0;0.0;0.0;0.0;0.0;0.0;0.0;0.0
258212000000;75;258212000000;map;11.4981900668;-0.0148365721224;0.0;0.0;0.0;-0.000242782205576;0.999999970528;0.000623052785528;-0.000106492404038;0.000491650752189;0.0;0.0;0.0;0.0;0.0;0.000124594439498;0.0;0.0;0.0;0.0;0.0;0.0;0.0;0.0;0.0;0.0;0.0;0.0;0.0;0.0;0.0;0.0;0.0;0.0;0.0;0.0;0.0;0.0;0.0;0.0;0.0;0.0;0.0
258514813660;76;258514813660;map;11.6085552919;-0.0144735770189;0.0;0.0;0.0;0.000170721003369;0.999999985427;0.000534429278815;-1.55856416187e-05;0.000521348428741;0.0;0.0;0.0;0.0;0.0;0.000142321594821;0.0;0.0;0.0;0.0;0.0;0.0;0.0;0.0;0.0;0.0;0.0;0.0;0.0;0.0;0.0;0.0;0.0;0.0;0.0;0.0;0.0;0.0;0.0;0.0;0.0;0.0;0.0
258714000000;77;258714000000;map;11.7105515332;-0.0138454351519;0.0;0.0;0.0;0.00101785834986;0.999999481982;0.000585014792904;-4.49579651063e-05;0.000615886199414;0.0;0.0;0.0;0.0;0.0;0.000138135169076;0.0;0.0;0.0;0.0;0.0;0.0;0.0;0.0;0.0;0.0;0.0;0.0;0.0;0.0;0.0;0.0;0.0;0.0;0.0;0.0;0.0;0.0;0.0;0.0;0.0;0.0;0.0
258915000000;78;258915000000;map;11.8202850732;-0.013354605897;0.0;0.0;0.0;0.000695022909773;0.999999758472;0.000481459719737;1.1593925371e-05;0.000566692029636;0.0;0.0;0.0;0.0;0.0;0.00013493940333;0.0;0.0;0.0;0.0;0.0;0.0;0.0;0.0;0.0;0.0;0.0;0.0;0.0;0.0;0.0;0.0;0.0;0.0;0.0;0.0;0.0;0.0;0.0;0.0;0.0;0.0;0.0
259113000000;79;259113000000;map;11.9224119713;-0.0109364109901;0.0;0.0;0.0;0.00104400175815;0.99999945503;0.000380916849224;4.19563817711e-05;0.000499660514737;0.0;0.0;0.0;0.0;0.0;9.38016810361e-05;0.0;0.0;0.0;0.0;0.0;0.0;0.0;0.0;0.0;0.0;0.0;0.0;0.0;0.0;0.0;0.0;0.0;0.0;0.0;0.0;0.0;0.0;0.0;0.0;0.0;0.0;0.0
259313000000;80;259313000000;map;12.0325539832;-0.0117025787239;0.0;0.0;0.0;0.00106515812268;0.999999432719;0.000386923130861;2.97246461495e-05;0.000555347089294;0.0;0.0;0.0;0.0;0.0;0.000101510617509;0.0;0.0;0.0;0.0;0.0;0.0;0.0;0.0;0.0;0.0;0.0;0.0;0.0;0.0;0.0;0.0;0.0;0.0;0.0;0.0;0.0;0.0;0.0;0.0;0.0;0.0;0.0
259515000000;81;259515000000;map;12.1320389765;-0.0142506291408;0.0;0.0;0.0;0.00089699252335;0.999999597702;0.000362792116846;2.63038811387e-05;0.000541275961545;0.0;0.0;0.0;0.0;0.0;9.82284047959e-05;0.0;0.0;0.0;0.0;0.0;0.0;0.0;0.0;0.0;0.0;0.0;0.0;0.0;0.0;0.0;0.0;0.0;0.0;0.0;0.0;0.0;0.0;0.0;0.0;0.0;0.0;0.0
259818000000;82;259818000000;map;12.2442912899;-0.0150023619689;0.0;0.0;0.0;0.000581296197858;0.999999831047;0.000337102000515;4.83921851339e-05;0.000728632283456;0.0;0.0;0.0;0.0;0.0;0.000105693030483;0.0;0.0;0.0;0.0;0.0;0.0;0.0;0.0;0.0;0.0;0.0;0.0;0.0;0.0;0.0;0.0;0.0;0.0;0.0;0.0;0.0;0.0;0.0;0.0;0.0;0.0;0.0
260011038311;83;260011038311;map;12.3472626996;-0.0109507226589;0.0;0.0;0.0;0.00102955878569;0.999999470004;0.000319230632101;7.51009784185e-05;0.000891526997033;0.0;0.0;0.0;0.0;0.0;0.000106680258196;0.0;0.0;0.0;0.0;0.0;0.0;0.0;0.0;0.0;0.0;0.0;0.0;0.0;0.0;0.0;0.0;0.0;0.0;0.0;0.0;0.0;0.0;0.0;0.0;0.0;0.0;0.0
260214853154;84;260214853154;map;12.458277264;-0.0122016510876;0.0;0.0;0.0;0.000849262555992;0.999999639376;0.000310626118278;9.3938368364e-05;0.00101041002446;0.0;0.0;0.0;0.0;0.0;0.000110445539134;0.0;0.0;0.0;0.0;0.0;0.0;0.0;0.0;0.0;0.0;0.0;0.0;0.0;0.0;0.0;0.0;0.0;0.0;0.0;0.0;0.0;0.0;0.0;0.0;0.0;0.0;0.0
260411000000;85;260411000000;map;12.5693603295;-0.012419922596;0.0;0.0;0.0;0.00100321334502;0.999999496781;0.000303990277956;9.89462164978e-05;0.000934800251204;0.0;0.0;0.0;0.0;0.0;0.000100070293826;0.0;0.0;0.0;0.0;0.0;0.0;0.0;0.0;0.0;0.0;0.0;0.0;0.0;0.0;0.0;0.0;0.0;0.0;0.0;0.0;0.0;0.0;0.0;0.0;0.0;0.0;0.0
260613000000;86;260613000000;map;12.6707636516;-0.0121157755244;0.0;0.0;0.0;0.00119818239877;0.999999282179;0.000336220123927;9.84299970691e-05;0.000898755984341;0.0;0.0;0.0;0.0;0.0;0.00011012654047;0.0;0.0;0.0;0.0;0.0;0.0;0.0;0.0;0.0;0.0;0.0;0.0;0.0;0.0;0.0;0.0;0.0;0.0;0.0;0.0;0.0;0.0;0.0;0.0;0.0;0.0;0.0
260814000000;87;260814000000;map;12.7754115942;-0.014464098064;0.0;0.0;0.0;0.000865661886829;0.999999625315;0.000282028436231;4.20264305345e-05;0.000877781982731;0.0;0.0;0.0;0.0;0.0;0.000112817631726;0.0;0.0;0.0;0.0;0.0;0.0;0.0;0.0;0.0;0.0;0.0;0.0;0.0;0.0;0.0;0.0;0.0;0.0;0.0;0.0;0.0;0.0;0.0;0.0;0.0;0.0;0.0
261012000000;88;261012000000;map;12.8841233277;-0.014120142206;0.0;0.0;0.0;0.000803815142054;0.999999676941;0.000288180243672;5.83097981083e-05;0.000845480267035;0.0;0.0;0.0;0.0;0.0;0.000119717345728;0.0;0.0;0.0;0.0;0.0;0.0;0.0;0.0;0.0;0.0;0.0;0.0;0.0;0.0;0.0;0.0;0.0;0.0;0.0;0.0;0.0;0.0;0.0;0.0;0.0;0.0;0.0
261212000000;89;261212000000;map;12.9888528767;-0.0118215336154;0.0;0.0;0.0;0.000946027737958;0.999999552516;0.000277584190428;8.18988681429e-05;0.000899807572214;0.0;0.0;0.0;0.0;0.0;0.000129794090671;0.0;0.0;0.0;0.0;0.0;0.0;0.0;0.0;0.0;0.0;0.0;0.0;0.0;0.0;0.0;0.0;0.0;0.0;0.0;0.0;0.0;0.0;0.0;0.0;0.0;0.0;0.0
261415000000;90;261415000000;map;13.1017201369;-0.00714380879888;0.0;0.0;0.0;0.00166344692989;0.999998616471;0.0002599136497;7.81017354456e-05;0.000962834504208;0.0;0.0;0.0;0.0;0.0;0.000144338184847;0.0;0.0;0.0;0.0;0.0;0.0;0.0;0.0;0.0;0.0;0.0;0.0;0.0;0.0;0.0;0.0;0.0;0.0;0.0;0.0;0.0;0.0;0.0;0.0;0.0;0.0;0.0
261717000000;91;261717000000;map;13.2130839898;-0.00694534202868;0.0;0.0;0.0;0.00202349114549;0.99999795274;0.000264044045565;7.29777665211e-05;0.000869625820784;0.0;0.0;0.0;0.0;0.0;0.000147428367774;0.0;0.0;0.0;0.0;0.0;0.0;0.0;0.0;0.0;0.0;0.0;0.0;0.0;0.0;0.0;0.0;0.0;0.0;0.0;0.0;0.0;0.0;0.0;0.0;0.0;0.0;0.0
261914000000;92;261914000000;map;13.3222706931;-0.00840080027648;0.0;0.0;0.0;0.00190381582086;0.999998187741;0.000272305067256;6.71093928218e-05;0.000868249728316;0.0;0.0;0.0;0.0;0.0;0.000157434088835;0.0;0.0;0.0;0.0;0.0;0.0;0.0;0.0;0.0;0.0;0.0;0.0;0.0;0.0;0.0;0.0;0.0;0.0;0.0;0.0;0.0;0.0;0.0;0.0;0.0;0.0;0.0
262113000000;93;262113000000;map;13.4235501713;-0.00967719941123;0.0;0.0;0.0;0.00171659447804;0.999998526651;0.000264425044605;8.93229860503e-05;0.000800850495609;0.0;0.0;0.0;0.0;0.0;0.000186170268856;0.0;0.0;0.0;0.0;0.0;0.0;0.0;0.0;0.0;0.0;0.0;0.0;0.0;0.0;0.0;0.0;0.0;0.0;0.0;0.0;0.0;0.0;0.0;0.0;0.0;0.0;0.0
262314000000;94;262314000000;map;13.5269527238;-0.00846846204494;0.0;0.0;0.0;0.00132690387547;0.999999119663;0.000242816415039;9.98187087715e-05;0.000863674460575;0.0;0.0;0.0;0.0;0.0;0.000176574147101;0.0;0.0;0.0;0.0;0.0;0.0;0.0;0.0;0.0;0.0;0.0;0.0;0.0;0.0;0.0;0.0;0.0;0.0;0.0;0.0;0.0;0.0;0.0;0.0;0.0;0.0;0.0
262522000000;95;262522000000;map;13.6260282523;-0.00827555177935;0.0;0.0;0.0;0.000867395585743;0.999999623812;0.000281221934671;9.52949218012e-05;0.000965501913039;0.0;0.0;0.0;0.0;0.0;0.000185364887652;0.0;0.0;0.0;0.0;0.0;0.0;0.0;0.0;0.0;0.0;0.0;0.0;0.0;0.0;0.0;0.0;0.0;0.0;0.0;0.0;0.0;0.0;0.0;0.0;0.0;0.0;0.0
262707000000;96;262707000000;map;13.7258844849;-0.00587570860677;0.0;0.0;0.0;0.000746354280833;0.999999721478;0.000270053880371;9.70605522632e-05;0.000996061158222;0.0;0.0;0.0;0.0;0.0;0.000178786852145;0.0;0.0;0.0;0.0;0.0;0.0;0.0;0.0;0.0;0.0;0.0;0.0;0.0;0.0;0.0;0.0;0.0;0.0;0.0;0.0;0.0;0.0;0.0;0.0;0.0;0.0;0.0
262917000000;97;262917000000;map;13.8355316567;-0.00874904842601;0.0;0.0;0.0;0.00081855569826;0.999999664983;0.000303573825761;0.000102190065103;0.00095152861301;0.0;0.0;0.0;0.0;0.0;0.000195751003434;0.0;0.0;0.0;0.0;0.0;0.0;0.0;0.0;0.0;0.0;0.0;0.0;0.0;0.0;0.0;0.0;0.0;0.0;0.0;0.0;0.0;0.0;0.0;0.0;0.0;0.0;0.0
263115000000;98;263115000000;map;13.9357160597;-0.00927796647693;0.0;0.0;0.0;0.000561361430969;0.999999842437;0.000308688249504;0.000104632388101;0.00105775317823;0.0;0.0;0.0;0.0;0.0;0.00019757392074;0.0;0.0;0.0;0.0;0.0;0.0;0.0;0.0;0.0;0.0;0.0;0.0;0.0;0.0;0.0;0.0;0.0;0.0;0.0;0.0;0.0;0.0;0.0;0.0;0.0;0.0;0.0
263314000000;99;263314000000;map;14.036780345;-0.010335625434;0.0;0.0;0.0;0.000936125307143;0.999999561835;0.000323364279126;0.00010324880372;0.00116710053904;0.0;0.0;0.0;0.0;0.0;0.000198573282231;0.0;0.0;0.0;0.0;0.0;0.0;0.0;0.0;0.0;0.0;0.0;0.0;0.0;0.0;0.0;0.0;0.0;0.0;0.0;0.0;0.0;0.0;0.0;0.0;0.0;0.0;0.0
263517000000;100;263517000000;map;14.1394390955;-0.00964538509285;0.0;0.0;0.0;0.00138315045794;0.999999043447;0.000280830036957;2.43629263315e-05;0.00126474382595;0.0;0.0;0.0;0.0;0.0;0.000186858491651;0.0;0.0;0.0;0.0;0.0;0.0;0.0;0.0;0.0;0.0;0.0;0.0;0.0;0.0;0.0;0.0;0.0;0.0;0.0;0.0;0.0;0.0;0.0;0.0;0.0;0.0;0.0
263721000000;101;263721000000;map;14.2478822723;-0.010224756947;0.0;0.0;0.0;0.00107066818032;0.999999426835;0.000256712979592;-4.731561071e-07;0.00138483297673;0.0;0.0;0.0;0.0;0.0;0.000196201987907;0.0;0.0;0.0;0.0;0.0;0.0;0.0;0.0;0.0;0.0;0.0;0.0;0.0;0.0;0.0;0.0;0.0;0.0;0.0;0.0;0.0;0.0;0.0;0.0;0.0;0.0;0.0
264012000000;102;264012000000;map;14.3579419806;-0.00944095425149;0.0;0.0;0.0;0.000759966443728;0.999999711225;0.00026967721891;4.06363579558e-05;0.00151445191331;0.0;0.0;0.0;0.0;0.0;0.000209121537391;0.0;0.0;0.0;0.0;0.0;0.0;0.0;0.0;0.0;0.0;0.0;0.0;0.0;0.0;0.0;0.0;0.0;0.0;0.0;0.0;0.0;0.0;0.0;0.0;0.0;0.0;0.0
264213000000;103;264213000000;map;14.4589221442;-0.00726606969508;0.0;0.0;0.0;0.000802615171865;0.999999677904;0.000277242836944;0.000123635905102;0.00143631816813;0.0;0.0;0.0;0.0;0.0;0.000174391445186;0.0;0.0;0.0;0.0;0.0;0.0;0.0;0.0;0.0;0.0;0.0;0.0;0.0;0.0;0.0;0.0;0.0;0.0;0.0;0.0;0.0;0.0;0.0;0.0;0.0;0.0;0.0
264415000000;104;264415000000;map;14.5585682632;-0.00461978986962;0.0;0.0;0.0;0.000628684277359;0.999999802378;0.000265447421071;0.000111949771121;0.00160752430041;0.0;0.0;0.0;0.0;0.0;0.000165607084263;0.0;0.0;0.0;0.0;0.0;0.0;0.0;0.0;0.0;0.0;0.0;0.0;0.0;0.0;0.0;0.0;0.0;0.0;0.0;0.0;0.0;0.0;0.0;0.0;0.0;0.0;0.0
264612000000;105;264612000000;map;14.6614119446;-0.00368349037386;0.0;0.0;0.0;0.000895652888546;0.999999598903;0.000269559446224;8.58837590676e-05;0.00158342399904;0.0;0.0;0.0;0.0;0.0;0.000145707623766;0.0;0.0;0.0;0.0;0.0;0.0;0.0;0.0;0.0;0.0;0.0;0.0;0.0;0.0;0.0;0.0;0.0;0.0;0.0;0.0;0.0;0.0;0.0;0.0;0.0;0.0;0.0
264816000000;106;264816000000;map;14.7734477667;0.000157952555339;0.0;0.0;0.0;0.000570563220466;0.999999837229;0.000283073519;6.26279062061e-05;0.0015055297568;0.0;0.0;0.0;0.0;0.0;0.000136061411636;0.0;0.0;0.0;0.0;0.0;0.0;0.0;0.0;0.0;0.0;0.0;0.0;0.0;0.0;0.0;0.0;0.0;0.0;0.0;0.0;0.0;0.0;0.0;0.0;0.0;0.0;0.0
265014000000;107;265014000000;map;14.8811740581;0.00176186908122;0.0;0.0;0.0;0.000876299116945;0.99999961605;0.000283353184869;0.000100414836118;0.00154650720942;0.0;0.0;0.0;0.0;0.0;0.000139879079495;0.0;0.0;0.0;0.0;0.0;0.0;0.0;0.0;0.0;0.0;0.0;0.0;0.0;0.0;0.0;0.0;0.0;0.0;0.0;0.0;0.0;0.0;0.0;0.0;0.0;0.0;0.0
265216000000;108;265216000000;map;14.9826325944;0.00135129748635;0.0;0.0;0.0;0.000917590488487;0.999999579014;0.000281782945024;8.40648934616e-05;0.0014477889995;0.0;0.0;0.0;0.0;0.0;0.000133549416954;0.0;0.0;0.0;0.0;0.0;0.0;0.0;0.0;0.0;0.0;0.0;0.0;0.0;0.0;0.0;0.0;0.0;0.0;0.0;0.0;0.0;0.0;0.0;0.0;0.0;0.0;0.0
265415000000;109;265415000000;map;15.089995449;-0.00195910449297;0.0;0.0;0.0;0.000801035877893;0.999999679171;0.000301061818163;0.000105222100635;0.00151688707294;0.0;0.0;0.0;0.0;0.0;0.000132854814899;0.0;0.0;0.0;0.0;0.0;0.0;0.0;0.0;0.0;0.0;0.0;0.0;0.0;0.0;0.0;0.0;0.0;0.0;0.0;0.0;0.0;0.0;0.0;0.0;0.0;0.0;0.0
265616000000;110;265616000000;map;15.1956887284;0.00235175366896;0.0;0.0;0.0;0.000970626598972;0.999999528942;0.000311956830359;0.000136416067551;0.00145593471049;0.0;0.0;0.0;0.0;0.0;0.000115908403347;0.0;0.0;0.0;0.0;0.0;0.0;0.0;0.0;0.0;0.0;0.0;0.0;0.0;0.0;0.0;0.0;0.0;0.0;0.0;0.0;0.0;0.0;0.0;0.0;0.0;0.0;0.0
265913000000;111;265913000000;map;15.2979138741;-0.00105083176917;0.0;0.0;0.0;0.000661115558793;0.999999781463;0.000302907893172;0.000124819546204;0.00165611203363;0.0;0.0;0.0;0.0;0.0;9.26072599639e-05;0.0;0.0;0.0;0.0;0.0;0.0;0.0;0.0;0.0;0.0;0.0;0.0;0.0;0.0;0.0;0.0;0.0;0.0;0.0;0.0;0.0;0.0;0.0;0.0;0.0;0.0;0.0
266114000000;112;266114000000;map;15.3999824058;-0.00103766961874;0.0;0.0;0.0;0.000428770610256;0.999999908078;0.000308502581987;0.000103785714328;0.00163537632384;0.0;0.0;0.0;0.0;0.0;0.000104456328522;0.0;0.0;0.0;0.0;0.0;0.0;0.0;0.0;0.0;0.0;0.0;0.0;0.0;0.0;0.0;0.0;0.0;0.0;0.0;0.0;0.0;0.0;0.0;0.0;0.0;0.0;0.0
266317000000;113;266317000000;map;15.5038194693;-0.00301833902297;0.0;0.0;0.0;0.0003328531845;0.999999944604;0.00027383950416;6.34204738027e-05;0.00169912570309;0.0;0.0;0.0;0.0;0.0;0.000118640055306;0.0;0.0;0.0;0.0;0.0;0.0;0.0;0.0;0.0;0.0;0.0;0.0;0.0;0.0;0.0;0.0;0.0;0.0;0.0;0.0;0.0;0.0;0.0;0.0;0.0;0.0;0.0
266423000000;114;266423000000;map;15.6055276726;-0.00816920080083;0.0;0.0;0.0;0.000386891651877;0.999999925157;0.000257294964314;2.85004119173e-05;0.00182842357807;0.0;0.0;0.0;0.0;0.0;0.000117574663101;0.0;0.0;0.0;0.0;0.0;0.0;0.0;0.0;0.0;0.0;0.0;0.0;0.0;0.0;0.0;0.0;0.0;0.0;0.0;0.0;0.0;0.0;0.0;0.0;0.0;0.0;0.0
266717000000;115;266717000000;map;15.7165612102;-0.0058848949114;0.0;0.0;0.0;0.00127333614652;0.999999189307;0.000294459379688;3.86044475217e-05;0.00179604064386;0.0;0.0;0.0;0.0;0.0;0.000119662158656;0.0;0.0;0.0;0.0;0.0;0.0;0.0;0.0;0.0;0.0;0.0;0.0;0.0;0.0;0.0;0.0;0.0;0.0;0.0;0.0;0.0;0.0;0.0;0.0;0.0;0.0;0.0
266919000000;116;266919000000;map;15.8157703621;-0.00350428085978;0.0;0.0;0.0;0.00182492826856;0.999998334817;0.0003237694863;5.75949905048e-05;0.00161580571527;0.0;0.0;0.0;0.0;0.0;0.000106873259537;0.0;0.0;0.0;0.0;0.0;0.0;0.0;0.0;0.0;0.0;0.0;0.0;0.0;0.0;0.0;0.0;0.0;0.0;0.0;0.0;0.0;0.0;0.0;0.0;0.0;0.0;0.0
267014000000;117;267014000000;map;15.9175747146;-0.0022421486886;0.0;0.0;0.0;0.00189620921166;0.999998202194;0.000307602697404;7.07877510581e-05;0.00148685525937;0.0;0.0;0.0;0.0;0.0;8.94924876259e-05;0.0;0.0;0.0;0.0;0.0;0.0;0.0;0.0;0.0;0.0;0.0;0.0;0.0;0.0;0.0;0.0;0.0;0.0;0.0;0.0;0.0;0.0;0.0;0.0;0.0;0.0;0.0
267316000000;118;267316000000;map;16.0277411986;-0.000385383215694;0.0;0.0;0.0;0.00201889452886;0.99999796203;0.000305718699224;8.28898936541e-05;0.00122821037812;0.0;0.0;0.0;0.0;0.0;8.42915500423e-05;0.0;0.0;0.0;0.0;0.0;0.0;0.0;0.0;0.0;0.0;0.0;0.0;0.0;0.0;0.0;0.0;0.0;0.0;0.0;0.0;0.0;0.0;0.0;0.0;0.0;0.0;0.0
267519000000;119;267519000000;map;16.1303715043;0.00219282585741;0.0;0.0;0.0;0.00218518855876;0.999997612473;0.000293680242237;6.07874673676e-05;0.00132702891997;0.0;0.0;0.0;0.0;0.0;8.42631934305e-05;0.0;0.0;0.0;0.0;0.0;0.0;0.0;0.0;0.0;0.0;0.0;0.0;0.0;0.0;0.0;0.0;0.0;0.0;0.0;0.0;0.0;0.0;0.0;0.0;0.0;0.0;0.0
267717000000;120;267717000000;map;16.2301505171;0.00333743106974;0.0;0.0;0.0;0.00247721440461;0.9999969317;0.000257307862853;-3.30505994141e-06;0.00148625139665;0.0;0.0;0.0;0.0;0.0;9.60555044796e-05;0.0;0.0;0.0;0.0;0.0;0.0;0.0;0.0;0.0;0.0;0.0;0.0;0.0;0.0;0.0;0.0;0.0;0.0;0.0;0.0;0.0;0.0;0.0;0.0;0.0;0.0;0.0
267918000000;121;267918000000;map;16.3308932008;0.00450902814319;0.0;0.0;0.0;0.00266784803743;0.999996441287;0.000228279244993;6.91572472849e-05;0.0016161648612;0.0;0.0;0.0;0.0;0.0;0.000101138747866;0.0;0.0;0.0;0.0;0.0;0.0;0.0;0.0;0.0;0.0;0.0;0.0;0.0;0.0;0.0;0.0;0.0;0.0;0.0;0.0;0.0;0.0;0.0;0.0;0.0;0.0;0.0
268117000000;122;268117000000;map;16.4398160191;0.00564691883462;0.0;0.0;0.0;0.00305840016422;0.999995323083;0.000237917340257;9.95338724612e-05;0.00164340278685;0.0;0.0;0.0;0.0;0.0;0.000115248740639;0.0;0.0;0.0;0.0;0.0;0.0;0.0;0.0;0.0;0.0;0.0;0.0;0.0;0.0;0.0;0.0;0.0;0.0;0.0;0.0;0.0;0.0;0.0;0.0;0.0;0.0;0.0
268314000000;123;268314000000;map;16.5399382634;0.00503206890034;0.0;0.0;0.0;0.00304507218714;0.999995363757;0.000256227393777;6.51068878129e-05;0.00178529765828;0.0;0.0;0.0;0.0;0.0;0.000124459471916;0.0;0.0;0.0;0.0;0.0;0.0;0.0;0.0;0.0;0.0;0.0;0.0;0.0;0.0;0.0;0.0;0.0;0.0;0.0;0.0;0.0;0.0;0.0;0.0;0.0;0.0;0.0
268513000000;124;268513000000;map;16.6422093826;0.0077504972402;0.0;0.0;0.0;0.00316081985723;0.999995004596;0.000263657336916;-4.76649788134e-06;0.00175678980211;0.0;0.0;0.0;0.0;0.0;0.000146162426025;0.0;0.0;0.0;0.0;0.0;0.0;0.0;0.0;0.0;0.0;0.0;0.0;0.0;0.0;0.0;0.0;0.0;0.0;0.0;0.0;0.0;0.0;0.0;0.0;0.0;0.0;0.0
268714346126;125;268714346126;map;16.7423064568;0.00704233186144;0.0;0.0;0.0;0.00243052813156;0.999997046262;0.000258131847602;-4.02582648125e-05;0.00158929776029;0.0;0.0;0.0;0.0;0.0;0.000155107651778;0.0;0.0;0.0;0.0;0.0;0.0;0.0;0.0;0.0;0.0;0.0;0.0;0.0;0.0;0.0;0.0;0.0;0.0;0.0;0.0;0.0;0.0;0.0;0.0;0.0;0.0;0.0
268918000000;126;268918000000;map;16.8453074022;0.00675689846854;0.0;0.0;0.0;0.00238771175749;0.999997149412;0.000268660841016;2.22147708654e-05;0.0013556448706;0.0;0.0;0.0;0.0;0.0;0.000163143407969;0.0;0.0;0.0;0.0;0.0;0.0;0.0;0.0;0.0;0.0;0.0;0.0;0.0;0.0;0.0;0.0;0.0;0.0;0.0;0.0;0.0;0.0;0.0;0.0;0.0;0.0;0.0
269118000000;127;269118000000;map;16.9465098207;0.00464437177835;0.0;0.0;0.0;0.00203779850538;0.999997923686;0.000301614042371;3.80614528715e-05;0.00116371716928;0.0;0.0;0.0;0.0;0.0;0.000157954545667;0.0;0.0;0.0;0.0;0.0;0.0;0.0;0.0;0.0;0.0;0.0;0.0;0.0;0.0;0.0;0.0;0.0;0.0;0.0;0.0;0.0;0.0;0.0;0.0;0.0;0.0;0.0
269316000000;128;269316000000;map;17.0468374228;0.004546412223;0.0;0.0;0.0;0.0019811770168;0.999998037467;0.00031960675733;5.28732019957e-05;0.00128014402747;0.0;0.0;0.0;0.0;0.0;0.000174560500633;0.0;0.0;0.0;0.0;0.0;0.0;0.0;0.0;0.0;0.0;0.0;0.0;0.0;0.0;0.0;0.0;0.0;0.0;0.0;0.0;0.0;0.0;0.0;0.0;0.0;0.0;0.0
269517000000;129;269517000000;map;17.1527191281;0.00317393175891;0.0;0.0;0.0;0.00145974307375;0.999998934575;0.000293203739261;4.29960369171e-05;0.0012580652874;0.0;0.0;0.0;0.0;0.0;0.00016910083638;0.0;0.0;0.0;0.0;0.0;0.0;0.0;0.0;0.0;0.0;0.0;0.0;0.0;0.0;0.0;0.0;0.0;0.0;0.0;0.0;0.0;0.0;0.0;0.0;0.0;0.0;0.0
269714000000;130;269714000000;map;17.2609859078;0.00150531817037;0.0;0.0;0.0;0.00190222363484;0.999998190771;0.000292883849681;5.10217020955e-05;0.00119366151129;0.0;0.0;0.0;0.0;0.0;0.000158766390325;0.0;0.0;0.0;0.0;0.0;0.0;0.0;0.0;0.0;0.0;0.0;0.0;0.0;0.0;0.0;0.0;0.0;0.0;0.0;0.0;0.0;0.0;0.0;0.0;0.0;0.0;0.0
269904957886;131;269904957886;map;17.3694660373;0.00138017500488;0.0;0.0;0.0;0.00210142854249;0.999997791997;0.00030047879801;4.65721679163e-05;0.00101396560409;0.0;0.0;0.0;0.0;0.0;0.000144263038799;0.0;0.0;0.0;0.0;0.0;0.0;0.0;0.0;0.0;0.0;0.0;0.0;0.0;0.0;0.0;0.0;0.0;0.0;0.0;0.0;0.0;0.0;0.0;0.0;0.0;0.0;0.0
270212000000;132;270212000000;map;17.4720176788;0.000687822100831;0.0;0.0;0.0;0.00206081961001;0.999997876509;0.000281440923857;4.49237087908e-05;0.00110492407618;0.0;0.0;0.0;0.0;0.0;0.000144790746285;0.0;0.0;0.0;0.0;0.0;0.0;0.0;0.0;0.0;0.0;0.0;0.0;0.0;0.0;0.0;0.0;0.0;0.0;0.0;0.0;0.0;0.0;0.0;0.0;0.0;0.0;0.0
270412000000;133;270412000000;map;17.5718902538;-0.000133566509581;0.0;0.0;0.0;0.00257913936316;0.999996674015;0.000248566938012;9.78732815855e-07;0.00120268059861;0.0;0.0;0.0;0.0;0.0;0.000151464988029;0.0;0.0;0.0;0.0;0.0;0.0;0.0;0.0;0.0;0.0;0.0;0.0;0.0;0.0;0.0;0.0;0.0;0.0;0.0;0.0;0.0;0.0;0.0;0.0;0.0;0.0;0.0
270611000000;134;270611000000;map;17.6741590403;-0.00333855174072;0.0;0.0;0.0;0.00206090713941;0.999997876329;0.000250131993255;-1.03020202244e-05;0.0010663035255;0.0;0.0;0.0;0.0;0.0;0.000137315434081;0.0;0.0;0.0;0.0;0.0;0.0;0.0;0.0;0.0;0.0;0.0;0.0;0.0;0.0;0.0;0.0;0.0;0.0;0.0;0.0;0.0;0.0;0.0;0.0;0.0;0.0;0.0
270811000000;135;270811000000;map;17.7791626677;-0.00410000664693;0.0;0.0;0.0;0.00219440603101;0.999997592288;0.000243983100574;-7.43720397898e-05;0.00120908598576;0.0;0.0;0.0;0.0;0.0;0.000155920504874;0.0;0.0;0.0;0.0;0.0;0.0;0.0;0.0;0.0;0.0;0.0;0.0;0.0;0.0;0.0;0.0;0.0;0.0;0.0;0.0;0.0;0.0;0.0;0.0;0.0;0.0;0.0
271012000000;136;271012000000;map;17.8788799345;-0.00762713786136;0.0;0.0;0.0;0.00155738855085;0.99999878727;0.000238144669197;-9.30422444447e-05;0.00135559475969;0.0;0.0;0.0;0.0;0.0;0.000165786489804;0.0;0.0;0.0;0.0;0.0;0.0;0.0;0.0;0.0;0.0;0.0;0.0;0.0;0.0;0.0;0.0;0.0;0.0;0.0;0.0;0.0;0.0;0.0;0.0;0.0;0.0;0.0
271209000000;137;271209000000;map;17.9909518277;-0.0067011610255;0.0;0.0;0.0;0.00142640288203;0.999998982687;0.000255367885472;-0.000128966459104;0.0014050599937;0.0;0.0;0.0;0.0;0.0;0.000159593779892;0.0;0.0;0.0;0.0;0.0;0.0;0.0;0.0;0.0;0.0;0.0;0.0;0.0;0.0;0.0;0.0;0.0;0.0;0.0;0.0;0.0;0.0;0.0;0.0;0.0;0.0;0.0
271418116951;138;271418116951;map;18.1031302226;-0.01099069528;0.0;0.0;0.0;0.00115799342569;0.999999329525;0.000243699733119;-5.35590584892e-05;0.00118312447034;0.0;0.0;0.0;0.0;0.0;0.000146444136717;0.0;0.0;0.0;0.0;0.0;0.0;0.0;0.0;0.0;0.0;0.0;0.0;0.0;0.0;0.0;0.0;0.0;0.0;0.0;0.0;0.0;0.0;0.0;0.0;0.0;0.0;0.0
271613000000;139;271613000000;map;18.2122290777;-0.00836615098356;0.0;0.0;0.0;0.00149046724294;0.999998889253;0.000267488335055;-7.38418692274e-05;0.00105981146829;0.0;0.0;0.0;0.0;0.0;0.00013285995742;0.0;0.0;0.0;0.0;0.0;0.0;0.0;0.0;0.0;0.0;0.0;0.0;0.0;0.0;0.0;0.0;0.0;0.0;0.0;0.0;0.0;0.0;0.0;0.0;0.0;0.0;0.0
271915000000;140;271915000000;map;18.3238098834;-0.0118728908227;0.0;0.0;0.0;0.000833002595073;0.999999653053;0.000313775397842;-4.02765354432e-05;0.000919715488501;0.0;0.0;0.0;0.0;0.0;0.000142017359268;0.0;0.0;0.0;0.0;0.0;0.0;0.0;0.0;0.0;0.0;0.0;0.0;0.0;0.0;0.0;0.0;0.0;0.0;0.0;0.0;0.0;0.0;0.0;0.0;0.0;0.0;0.0
272108000000;141;272108000000;map;18.4294606505;-0.00846634590488;0.0;0.0;0.0;0.00140415738242;0.999999014171;0.000370658546842;-8.25394321116e-05;0.00112374681576;0.0;0.0;0.0;0.0;0.0;0.000157927369388;0.0;0.0;0.0;0.0;0.0;0.0;0.0;0.0;0.0;0.0;0.0;0.0;0.0;0.0;0.0;0.0;0.0;0.0;0.0;0.0;0.0;0.0;0.0;0.0;0.0;0.0;0.0
272305000000;142;272305000000;map;18.5412690405;-0.00835526520639;0.0;0.0;0.0;0.00111506927232;0.99999937831;0.00037051969224;-2.92041974427e-05;0.00114938073571;0.0;0.0;0.0;0.0;0.0;0.000161456564969;0.0;0.0;0.0;0.0;0.0;0.0;0.0;0.0;0.0;0.0;0.0;0.0;0.0;0.0;0.0;0.0;0.0;0.0;0.0;0.0;0.0;0.0;0.0;0.0;0.0;0.0;0.0
272521000000;143;272521000000;map;18.6416586086;-0.00750254424067;0.0;0.0;0.0;0.000863497674335;0.999999627186;0.000384060352872;-3.47970263111e-05;0.00117219928133;0.0;0.0;0.0;0.0;0.0;0.000149513110436;0.0;0.0;0.0;0.0;0.0;0.0;0.0;0.0;0.0;0.0;0.0;0.0;0.0;0.0;0.0;0.0;0.0;0.0;0.0;0.0;0.0;0.0;0.0;0.0;0.0;0.0;0.0
272712673142;144;272712673142;map;18.7450482063;-0.00724593487243;0.0;0.0;0.0;0.000699426771862;0.999999755401;0.000369304497838;-3.93009724614e-05;0.00115494712661;0.0;0.0;0.0;0.0;0.0;0.000148584962585;0.0;0.0;0.0;0.0;0.0;0.0;0.0;0.0;0.0;0.0;0.0;0.0;0.0;0.0;0.0;0.0;0.0;0.0;0.0;0.0;0.0;0.0;0.0;0.0;0.0;0.0;0.0
272911000000;145;272911000000;map;18.8467942967;-0.0078488820745;0.0;0.0;0.0;0.000199294129335;0.999999980141;0.000386439365855;-4.29875338177e-05;0.00119217184992;0.0;0.0;0.0;0.0;0.0;0.000148187911223;0.0;0.0;0.0;0.0;0.0;0.0;0.0;0.0;0.0;0.0;0.0;0.0;0.0;0.0;0.0;0.0;0.0;0.0;0.0;0.0;0.0;0.0;0.0;0.0;0.0;0.0;0.0
273110000000;146;273110000000;map;18.9488187276;-0.0080877944325;0.0;0.0;0.0;0.000746341886675;0.999999721487;0.000386774891069;4.78156110084e-05;0.00116871544828;0.0;0.0;0.0;0.0;0.0;0.000143979807784;0.0;0.0;0.0;0.0;0.0;0.0;0.0;0.0;0.0;0.0;0.0;0.0;0.0;0.0;0.0;0.0;0.0;0.0;0.0;0.0;0.0;0.0;0.0;0.0;0.0;0.0;0.0
273313822064;147;273313822064;map;19.0494900901;-0.0125795843;0.0;0.0;0.0;0.00024374663081;0.999999970294;0.000334427567111;6.32708377437e-05;0.00117815671166;0.0;0.0;0.0;0.0;0.0;0.000131685841951;0.0;0.0;0.0;0.0;0.0;0.0;0.0;0.0;0.0;0.0;0.0;0.0;0.0;0.0;0.0;0.0;0.0;0.0;0.0;0.0;0.0;0.0;0.0;0.0;0.0;0.0;0.0
273515000000;148;273515000000;map;19.1487913292;-0.0146070559314;0.0;0.0;0.0;-0.000119558271414;0.999999992853;0.000323181284784;6.65268785056e-05;0.00105542719843;0.0;0.0;0.0;0.0;0.0;0.000142982964062;0.0;0.0;0.0;0.0;0.0;0.0;0.0;0.0;0.0;0.0;0.0;0.0;0.0;0.0;0.0;0.0;0.0;0.0;0.0;0.0;0.0;0.0;0.0;0.0;0.0;0.0;0.0
273711000000;149;273711000000;map;19.2595792285;-0.0177561937835;0.0;0.0;0.0;-0.000592170106933;0.999999824667;0.000297793580046;8.78601403684e-05;0.000882987010562;0.0;0.0;0.0;0.0;0.0;0.000167125399107;0.0;0.0;0.0;0.0;0.0;0.0;0.0;0.0;0.0;0.0;0.0;0.0;0.0;0.0;0.0;0.0;0.0;0.0;0.0;0.0;0.0;0.0;0.0;0.0;0.0;0.0;0.0
273915000000;150;273915000000;map;19.3690309086;-0.0193039258716;0.0;0.0;0.0;-0.000197529434672;0.999999980491;0.00028241793882;6.85061450681e-05;0.00089964522996;0.0;0.0;0.0;0.0;0.0;0.0001902276901;0.0;0.0;0.0;0.0;0.0;0.0;0.0;0.0;0.0;0.0;0.0;0.0;0.0;0.0;0.0;0.0;0.0;0.0;0.0;0.0;0.0;0.0;0.0;0.0;0.0;0.0;0.0
274214000000;151;274214000000;map;19.4783783111;-0.023132483991;0.0;0.0;0.0;-0.000612815486838;0.999999812229;0.000312206280114;0.000111300009109;0.000827399338599;0.0;0.0;0.0;0.0;0.0;0.000199960630422;0.0;0.0;0.0;0.0;0.0;0.0;0.0;0.0;0.0;0.0;0.0;0.0;0.0;0.0;0.0;0.0;0.0;0.0;0.0;0.0;0.0;0.0;0.0;0.0;0.0;0.0;0.0
274420000000;152;274420000000;map;19.5818138073;-0.0280928817231;0.0;0.0;0.0;-0.000902316159217;0.999999592913;0.000301249192546;9.98069006181e-05;0.000690030660932;0.0;0.0;0.0;0.0;0.0;0.000173772790767;0.0;0.0;0.0;0.0;0.0;0.0;0.0;0.0;0.0;0.0;0.0;0.0;0.0;0.0;0.0;0.0;0.0;0.0;0.0;0.0;0.0;0.0;0.0;0.0;0.0;0.0;0.0
274618000000;153;274618000000;map;19.6826646074;-0.0330710701812;0.0;0.0;0.0;-0.000946041511033;0.999999552503;0.000327077786494;0.000124486804435;0.000574040015451;0.0;0.0;0.0;0.0;0.0;0.000174036235434;0.0;0.0;0.0;0.0;0.0;0.0;0.0;0.0;0.0;0.0;0.0;0.0;0.0;0.0;0.0;0.0;0.0;0.0;0.0;0.0;0.0;0.0;0.0;0.0;0.0;0.0;0.0
274813000000;154;274813000000;map;19.792540741;-0.0323798190165;0.0;0.0;0.0;-0.0011888804546;0.999999293281;0.000333724409927;0.000148131047986;0.000619267472394;0.0;0.0;0.0;0.0;0.0;0.00020657627331;0.0;0.0;0.0;0.0;0.0;0.0;0.0;0.0;0.0;0.0;0.0;0.0;0.0;0.0;0.0;0.0;0.0;0.0;0.0;0.0;0.0;0.0;0.0;0.0;0.0;0.0;0.0
275012000000;155;275012000000;map;19.8938755925;-0.0313992563776;0.0;0.0;0.0;-0.00118999324036;0.999999291958;0.000307501661666;0.000115126345262;0.000686920616243;0.0;0.0;0.0;0.0;0.0;0.000223229295969;0.0;0.0;0.0;0.0;0.0;0.0;0.0;0.0;0.0;0.0;0.0;0.0;0.0;0.0;0.0;0.0;0.0;0.0;0.0;0.0;0.0;0.0;0.0;0.0;0.0;0.0;0.0
275216000000;156;275216000000;map;19.9949672837;-0.0323187313686;0.0;0.0;0.0;-0.0012299264941;0.99999924364;0.000284172403326;0.00010707609035;0.000725380845015;0.0;0.0;0.0;0.0;0.0;0.000228851158359;0.0;0.0;0.0;0.0;0.0;0.0;0.0;0.0;0.0;0.0;0.0;0.0;0.0;0.0;0.0;0.0;0.0;0.0;0.0;0.0;0.0;0.0;0.0;0.0;0.0;0.0;0.0
275412000000;157;275412000000;map;20.1037621321;-0.0311651254794;0.0;0.0;0.0;-0.00113373495669;0.999999357322;0.000280041832298;0.00012243061765;0.000750236418066;0.0;0.0;0.0;0.0;0.0;0.000210774214838;0.0;0.0;0.0;0.0;0.0;0.0;0.0;0.0;0.0;0.0;0.0;0.0;0.0;0.0;0.0;0.0;0.0;0.0;0.0;0.0;0.0;0.0;0.0;0.0;0.0;0.0;0.0
275611000000;158;275611000000;map;20.2289141419;-0.0303646706865;0.0;0.0;0.0;-0.00103721186527;0.999999462096;0.000295026585832;0.000181459459653;0.000795963791913;0.0;0.0;0.0;0.0;0.0;0.000237487239502;0.0;0.0;0.0;0.0;0.0;0.0;0.0;0.0;0.0;0.0;0.0;0.0;0.0;0.0;0.0;0.0;0.0;0.0;0.0;0.0;0.0;0.0;0.0;0.0;0.0;0.0;0.0
275914000000;159;275914000000;map;20.3359045338;-0.0299320079214;0.0;0.0;0.0;-0.0015654788988;0.999998774637;0.000324700763031;0.000219881966357;0.000882075500601;0.0;0.0;0.0;0.0;0.0;0.000226502860177;0.0;0.0;0.0;0.0;0.0;0.0;0.0;0.0;0.0;0.0;0.0;0.0;0.0;0.0;0.0;0.0;0.0;0.0;0.0;0.0;0.0;0.0;0.0;0.0;0.0;0.0;0.0
276111000000;160;276111000000;map;20.4356604914;-0.0328028223318;0.0;0.0;0.0;-0.00167800401272;0.99999859215;0.000339773951282;0.000290343324197;0.000907140648459;0.0;0.0;0.0;0.0;0.0;0.000222178015048;0.0;0.0;0.0;0.0;0.0;0.0;0.0;0.0;0.0;0.0;0.0;0.0;0.0;0.0;0.0;0.0;0.0;0.0;0.0;0.0;0.0;0.0;0.0;0.0;0.0;0.0;0.0
276310000000;161;276310000000;map;20.546878396;-0.033014573726;0.0;0.0;0.0;-0.00165066456283;0.999998637652;0.000325267896585;0.000309239373306;0.000958488386656;0.0;0.0;0.0;0.0;0.0;0.000241836058385;0.0;0.0;0.0;0.0;0.0;0.0;0.0;0.0;0.0;0.0;0.0;0.0;0.0;0.0;0.0;0.0;0.0;0.0;0.0;0.0;0.0;0.0;0.0;0.0;0.0;0.0;0.0
276513000000;162;276513000000;map;20.6574856845;-0.0325532330582;0.0;0.0;0.0;-0.000843407160667;0.999999644332;0.00031356183672;0.000288468098875;0.000969977155747;0.0;0.0;0.0;0.0;0.0;0.000249045466433;0.0;0.0;0.0;0.0;0.0;0.0;0.0;0.0;0.0;0.0;0.0;0.0;0.0;0.0;0.0;0.0;0.0;0.0;0.0;0.0;0.0;0.0;0.0;0.0;0.0;0.0;0.0
276706000000;163;276706000000;map;20.7592871844;-0.0350746644534;0.0;0.0;0.0;-0.000747156685398;0.999999720878;0.000310943551426;0.000259693396823;0.00108467557115;0.0;0.0;0.0;0.0;0.0;0.000293469386522;0.0;0.0;0.0;0.0;0.0;0.0;0.0;0.0;0.0;0.0;0.0;0.0;0.0;0.0;0.0;0.0;0.0;0.0;0.0;0.0;0.0;0.0;0.0;0.0;0.0;0.0;0.0
277016000000;164;277016000000;map;20.8591172147;-0.0391175580109;0.0;0.0;0.0;-0.00108516882824;0.999999411204;0.00030551212302;0.000247317837036;0.000910163918831;0.0;0.0;0.0;0.0;0.0;0.000288309413823;0.0;0.0;0.0;0.0;0.0;0.0;0.0;0.0;0.0;0.0;0.0;0.0;0.0;0.0;0.0;0.0;0.0;0.0;0.0;0.0;0.0;0.0;0.0;0.0;0.0;0.0;0.0
277212000000;165;277212000000;map;20.9664164468;-0.0376554622591;0.0;0.0;0.0;-0.00187326206471;0.999998245443;0.000308760737994;0.000261469467398;0.000922121358348;0.0;0.0;0.0;0.0;0.0;0.000236295598363;0.0;0.0;0.0;0.0;0.0;0.0;0.0;0.0;0.0;0.0;0.0;0.0;0.0;0.0;0.0;0.0;0.0;0.0;0.0;0.0;0.0;0.0;0.0;0.0;0.0;0.0;0.0
277414118633;166;277414118633;map;21.0756632413;-0.0370993861567;0.0;0.0;0.0;-0.000888079167529;0.999999605658;0.000319576834499;0.00026726785258;0.00087002974519;0.0;0.0;0.0;0.0;0.0;0.000181372051647;0.0;0.0;0.0;0.0;0.0;0.0;0.0;0.0;0.0;0.0;0.0;0.0;0.0;0.0;0.0;0.0;0.0;0.0;0.0;0.0;0.0;0.0;0.0;0.0;0.0;0.0;0.0
277611000000;167;277611000000;map;21.1814820678;-0.0368319645148;0.0;0.0;0.0;-0.00142603743962;0.999998983208;0.00028150005528;0.00019264700528;0.000891487838837;0.0;0.0;0.0;0.0;0.0;0.000203312269447;0.0;0.0;0.0;0.0;0.0;0.0;0.0;0.0;0.0;0.0;0.0;0.0;0.0;0.0;0.0;0.0;0.0;0.0;0.0;0.0;0.0;0.0;0.0;0.0;0.0;0.0;0.0
277809000000;168;277809000000;map;21.2831520165;-0.0385647775547;0.0;0.0;0.0;-0.000918396941632;0.999999578273;0.000326295884577;0.000203431604378;0.000949592066849;0.0;0.0;0.0;0.0;0.0;0.000166587639196;0.0;0.0;0.0;0.0;0.0;0.0;0.0;0.0;0.0;0.0;0.0;0.0;0.0;0.0;0.0;0.0;0.0;0.0;0.0;0.0;0.0;0.0;0.0;0.0;0.0;0.0;0.0
278007000000;169;278007000000;map;21.3914240529;-0.0406029328225;0.0;0.0;0.0;-0.000724422275624;0.999999737606;0.000357087876068;0.000283117484718;0.00109041186926;0.0;0.0;0.0;0.0;0.0;0.000168886207782;0.0;0.0;0.0;0.0;0.0;0.0;0.0;0.0;0.0;0.0;0.0;0.0;0.0;0.0;0.0;0.0;0.0;0.0;0.0;0.0;0.0;0.0;0.0;0.0;0.0;0.0;0.0
278212000000;170;278212000000;map;21.4913030396;-0.045080722957;0.0;0.0;0.0;-0.00144000429638;0.999998963193;0.000284604077535;0.000139851913516;0.000960663942364;0.0;0.0;0.0;0.0;0.0;0.000129230828238;0.0;0.0;0.0;0.0;0.0;0.0;0.0;0.0;0.0;0.0;0.0;0.0;0.0;0.0;0.0;0.0;0.0;0.0;0.0;0.0;0.0;0.0;0.0;0.0;0.0;0.0;0.0
278416000000;171;278416000000;map;21.5915770033;-0.0484482914442;0.0;0.0;0.0;-0.00153845202958;0.999998816582;0.000260551976112;0.000106062280082;0.000791211595995;0.0;0.0;0.0;0.0;0.0;0.000117070108741;0.0;0.0;0.0;0.0;0.0;0.0;0.0;0.0;0.0;0.0;0.0;0.0;0.0;0.0;0.0;0.0;0.0;0.0;0.0;0.0;0.0;0.0;0.0;0.0;0.0;0.0;0.0
278610000000;172;278610000000;map;21.6916747992;-0.0481673947383;0.0;0.0;0.0;-0.00133778135541;0.99999910517;0.000308728662162;0.000144551891078;0.000703664408041;0.0;0.0;0.0;0.0;0.0;9.17292203478e-05;0.0;0.0;0.0;0.0;0.0;0.0;0.0;0.0;0.0;0.0;0.0;0.0;0.0;0.0;0.0;0.0;0.0;0.0;0.0;0.0;0.0;0.0;0.0;0.0;0.0;0.0;0.0
278807000000;173;278807000000;map;21.793179094;-0.0487920169719;0.0;0.0;0.0;-0.00148641801592;0.99999889528;0.000309779751262;0.000138820706512;0.000744587757436;0.0;0.0;0.0;0.0;0.0;9.22189067595e-05;0.0;0.0;0.0;0.0;0.0;0.0;0.0;0.0;0.0;0.0;0.0;0.0;0.0;0.0;0.0;0.0;0.0;0.0;0.0;0.0;0.0;0.0;0.0;0.0;0.0;0.0;0.0
279011000000;174;279011000000;map;21.8932564322;-0.049671460869;0.0;0.0;0.0;-0.00195576531809;0.999998087489;0.000273835129121;0.000102904393179;0.000637563741826;0.0;0.0;0.0;0.0;0.0;7.5421184027e-05;0.0;0.0;0.0;0.0;0.0;0.0;0.0;0.0;0.0;0.0;0.0;0.0;0.0;0.0;0.0;0.0;0.0;0.0;0.0;0.0;0.0;0.0;0.0;0.0;0.0;0.0;0.0
279214000000;175;279214000000;map;21.9942333668;-0.0516753009833;0.0;0.0;0.0;-0.0022431184306;0.999997484207;0.000265996719634;0.000108727198982;0.00056671778845;0.0;0.0;0.0;0.0;0.0;7.5087473044e-05;0.0;0.0;0.0;0.0;0.0;0.0;0.0;0.0;0.0;0.0;0.0;0.0;0.0;0.0;0.0;0.0;0.0;0.0;0.0;0.0;0.0;0.0;0.0;0.0;0.0;0.0;0.0
279418000000;176;279418000000;map;22.0963097273;-0.050835688444;0.0;0.0;0.0;-0.0023459748071;0.999997248197;0.000268533304677;0.000104769927963;0.000648012328967;0.0;0.0;0.0;0.0;0.0;9.09003946392e-05;0.0;0.0;0.0;0.0;0.0;0.0;0.0;0.0;0.0;0.0;0.0;0.0;0.0;0.0;0.0;0.0;0.0;0.0;0.0;0.0;0.0;0.0;0.0;0.0;0.0;0.0;0.0
279611000000;177;279611000000;map;22.2040677418;-0.0545174464115;0.0;0.0;0.0;-0.00299599152831;0.999995512007;0.000229919627714;6.29987704666e-05;0.000644571657537;0.0;0.0;0.0;0.0;0.0;9.29094914681e-05;0.0;0.0;0.0;0.0;0.0;0.0;0.0;0.0;0.0;0.0;0.0;0.0;0.0;0.0;0.0;0.0;0.0;0.0;0.0;0.0;0.0;0.0;0.0;0.0;0.0;0.0;0.0
279811000000;178;279811000000;map;22.3066069582;-0.0548281805156;0.0;0.0;0.0;-0.00342500881631;0.99999413464;0.000229315995455;6.52503754039e-05;0.000747813655889;0.0;0.0;0.0;0.0;0.0;9.62903702164e-05;0.0;0.0;0.0;0.0;0.0;0.0;0.0;0.0;0.0;0.0;0.0;0.0;0.0;0.0;0.0;0.0;0.0;0.0;0.0;0.0;0.0;0.0;0.0;0.0;0.0;0.0;0.0
280111000000;179;280111000000;map;22.4170784295;-0.0593397195954;0.0;0.0;0.0;-0.00328930687916;0.999994590215;0.000254255447601;7.01286579452e-05;0.000599447154113;0.0;0.0;0.0;0.0;0.0;9.01910157461e-05;0.0;0.0;0.0;0.0;0.0;0.0;0.0;0.0;0.0;0.0;0.0;0.0;0.0;0.0;0.0;0.0;0.0;0.0;0.0;0.0;0.0;0.0;0.0;0.0;0.0;0.0;0.0
280310000000;180;280310000000;map;22.5250072627;-0.0596089467622;0.0;0.0;0.0;-0.00322681632082;0.999994793815;0.000244713472171;7.1118180162e-05;0.000593428222869;0.0;0.0;0.0;0.0;0.0;8.48263749851e-05;0.0;0.0;0.0;0.0;0.0;0.0;0.0;0.0;0.0;0.0;0.0;0.0;0.0;0.0;0.0;0.0;0.0;0.0;0.0;0.0;0.0;0.0;0.0;0.0;0.0;0.0;0.0
280514000000;181;280514000000;map;22.6234395565;-0.0602209343253;0.0;0.0;0.0;-0.00289497832109;0.999995809541;0.00018736600822;3.47042999573e-05;0.000483851309876;0.0;0.0;0.0;0.0;0.0;7.19535466476e-05;0.0;0.0;0.0;0.0;0.0;0.0;0.0;0.0;0.0;0.0;0.0;0.0;0.0;0.0;0.0;0.0;0.0;0.0;0.0;0.0;0.0;0.0;0.0;0.0;0.0;0.0;0.0
280709000000;182;280709000000;map;22.7242006998;-0.0615478670311;0.0;0.0;0.0;-0.00316852618454;0.999994980208;0.000193629072214;5.36849693433e-05;0.000402839382041;0.0;0.0;0.0;0.0;0.0;8.50165258688e-05;0.0;0.0;0.0;0.0;0.0;0.0;0.0;0.0;0.0;0.0;0.0;0.0;0.0;0.0;0.0;0.0;0.0;0.0;0.0;0.0;0.0;0.0;0.0;0.0;0.0;0.0;0.0
280910000000;183;280910000000;map;22.8271776403;-0.0608759404881;0.0;0.0;0.0;-0.00258715603326;0.999996653306;0.000192087676623;6.47444717012e-05;0.000303817469042;0.0;0.0;0.0;0.0;0.0;8.38775008263e-05;0.0;0.0;0.0;0.0;0.0;0.0;0.0;0.0;0.0;0.0;0.0;0.0;0.0;0.0;0.0;0.0;0.0;0.0;0.0;0.0;0.0;0.0;0.0;0.0;0.0;0.0;0.0
281108000000;184;281108000000;map;22.9262377387;-0.0622940407271;0.0;0.0;0.0;-0.00205874868894;0.999997880775;0.000188991395248;7.83195140661e-05;0.00030259147582;0.0;0.0;0.0;0.0;0.0;0.000101287035043;0.0;0.0;0.0;0.0;0.0;0.0;0.0;0.0;0.0;0.0;0.0;0.0;0.0;0.0;0.0;0.0;0.0;0.0;0.0;0.0;0.0;0.0;0.0;0.0;0.0;0.0;0.0
281309000000;185;281309000000;map;23.0267073149;-0.0638521763563;0.0;0.0;0.0;-0.00145931152118;0.999998935204;0.000181202360068;7.1384550822e-05;0.000258489268209;0.0;0.0;0.0;0.0;0.0;9.63360684953e-05;0.0;0.0;0.0;0.0;0.0;0.0;0.0;0.0;0.0;0.0;0.0;0.0;0.0;0.0;0.0;0.0;0.0;0.0;0.0;0.0;0.0;0.0;0.0;0.0;0.0;0.0;0.0
281511000000;186;281511000000;map;23.1273596879;-0.0651470366744;0.0;0.0;0.0;-0.00103988925177;0.999999459315;0.000170997587929;2.94037128523e-05;0.000264782391813;0.0;0.0;0.0;0.0;0.0;0.000104312083351;0.0;0.0;0.0;0.0;0.0;0.0;0.0;0.0;0.0;0.0;0.0;0.0;0.0;0.0;0.0;0.0;0.0;0.0;0.0;0.0;0.0;0.0;0.0;0.0;0.0;0.0;0.0
281705000000;187;281705000000;map;23.2279060795;-0.0646055315572;0.0;0.0;0.0;-0.000449739122423;0.999999898867;0.000159672244763;-2.36267139706e-05;0.000319860334681;0.0;0.0;0.0;0.0;0.0;0.000111993804591;0.0;0.0;0.0;0.0;0.0;0.0;0.0;0.0;0.0;0.0;0.0;0.0;0.0;0.0;0.0;0.0;0.0;0.0;0.0;0.0;0.0;0.0;0.0;0.0;0.0;0.0;0.0
281908000000;188;281908000000;map;23.3287466515;-0.0652251863871;0.0;0.0;0.0;-0.00118056950346;0.999999303128;0.000114703646091;-2.30361489222e-05;0.000323655884201;0.0;0.0;0.0;0.0;0.0;0.000140961318131;0.0;0.0;0.0;0.0;0.0;0.0;0.0;0.0;0.0;0.0;0.0;0.0;0.0;0.0;0.0;0.0;0.0;0.0;0.0;0.0;0.0;0.0;0.0;0.0;0.0;0.0;0.0
282111000000;189;282111000000;map;23.4378448842;-0.0647343276331;0.0;0.0;0.0;-0.00136582871631;0.999999067256;0.000103731654121;-4.39793233871e-05;0.000395467095021;0.0;0.0;0.0;0.0;0.0;0.000179557631454;0.0;0.0;0.0;0.0;0.0;0.0;0.0;0.0;0.0;0.0;0.0;0.0;0.0;0.0;0.0;0.0;0.0;0.0;0.0;0.0;0.0;0.0;0.0;0.0;0.0;0.0;0.0
282310000000;190;282310000000;map;23.539543682;-0.0643550468968;0.0;0.0;0.0;-0.00133781712912;0.999999105122;9.78858693088e-05;-4.77759413708e-05;0.000411719616753;0.0;0.0;0.0;0.0;0.0;0.000223378069371;0.0;0.0;0.0;0.0;0.0;0.0;0.0;0.0;0.0;0.0;0.0;0.0;0.0;0.0;0.0;0.0;0.0;0.0;0.0;0.0;0.0;0.0;0.0;0.0;0.0;0.0;0.0
282508000000;191;282508000000;map;23.6390641283;-0.062603764701;0.0;0.0;0.0;-0.000674626502502;0.99999977244;9.62462981988e-05;-3.57362201595e-05;0.000470612002717;0.0;0.0;0.0;0.0;0.0;0.000209196661782;0.0;0.0;0.0;0.0;0.0;0.0;0.0;0.0;0.0;0.0;0.0;0.0;0.0;0.0;0.0;0.0;0.0;0.0;0.0;0.0;0.0;0.0;0.0;0.0;0.0;0.0;0.0
282706000000;192;282706000000;map;23.7388656676;-0.0601313618094;0.0;0.0;0.0;0.000431158644513;0.999999907051;9.68473017338e-05;-3.38190958118e-05;0.000477683327978;0.0;0.0;0.0;0.0;0.0;0.000166773785926;0.0;0.0;0.0;0.0;0.0;0.0;0.0;0.0;0.0;0.0;0.0;0.0;0.0;0.0;0.0;0.0;0.0;0.0;0.0;0.0;0.0;0.0;0.0;0.0;0.0;0.0;0.0
282908000000;193;282908000000;map;23.8434961692;-0.0621157942434;0.0;0.0;0.0;0.000745504314186;0.999999722112;7.93210091388e-05;-2.91410319524e-05;0.0003773693556;0.0;0.0;0.0;0.0;0.0;0.000151436915835;0.0;0.0;0.0;0.0;0.0;0.0;0.0;0.0;0.0;0.0;0.0;0.0;0.0;0.0;0.0;0.0;0.0;0.0;0.0;0.0;0.0;0.0;0.0;0.0;0.0;0.0;0.0
283208000000;194;283208000000;map;23.9546510458;-0.0612793310828;0.0;0.0;0.0;0.000516735254711;0.999999866492;7.46327032175e-05;-4.02013938796e-05;0.000422783523524;0.0;0.0;0.0;0.0;0.0;0.00014759124301;0.0;0.0;0.0;0.0;0.0;0.0;0.0;0.0;0.0;0.0;0.0;0.0;0.0;0.0;0.0;0.0;0.0;0.0;0.0;0.0;0.0;0.0;0.0;0.0;0.0;0.0;0.0
283409000000;195;283409000000;map;24.063210961;-0.059841539695;0.0;0.0;0.0;0.000683680910577;0.99999976629;8.17227260086e-05;-1.34168020136e-05;0.000476167128555;0.0;0.0;0.0;0.0;0.0;0.00011546120124;0.0;0.0;0.0;0.0;0.0;0.0;0.0;0.0;0.0;0.0;0.0;0.0;0.0;0.0;0.0;0.0;0.0;0.0;0.0;0.0;0.0;0.0;0.0;0.0;0.0;0.0;0.0
283607000000;196;283607000000;map;24.1612815573;-0.0565165607766;0.0;0.0;0.0;0.00168472228964;0.999998580854;8.79141483665e-05;8.94499705484e-06;0.000511606727223;0.0;0.0;0.0;0.0;0.0;0.000102536664405;0.0;0.0;0.0;0.0;0.0;0.0;0.0;0.0;0.0;0.0;0.0;0.0;0.0;0.0;0.0;0.0;0.0;0.0;0.0;0.0;0.0;0.0;0.0;0.0;0.0;0.0;0.0
283811000000;197;283811000000;map;24.2623049203;-0.0543714767038;0.0;0.0;0.0;0.00246504580819;0.99999696177;8.05315179377e-05;1.01356330768e-05;0.000460584680482;0.0;0.0;0.0;0.0;0.0;0.000110079647974;0.0;0.0;0.0;0.0;0.0;0.0;0.0;0.0;0.0;0.0;0.0;0.0;0.0;0.0;0.0;0.0;0.0;0.0;0.0;0.0;0.0;0.0;0.0;0.0;0.0;0.0;0.0
284011000000;198;284011000000;map;24.3713283114;-0.0560777447663;0.0;0.0;0.0;0.00247650811901;0.999996933449;8.47220031801e-05;8.55685737777e-06;0.000479358195713;0.0;0.0;0.0;0.0;0.0;0.000139254551515;0.0;0.0;0.0;0.0;0.0;0.0;0.0;0.0;0.0;0.0;0.0;0.0;0.0;0.0;0.0;0.0;0.0;0.0;0.0;0.0;0.0;0.0;0.0;0.0;0.0;0.0;0.0
284218000000;199;284218000000;map;24.482709683;-0.0572425054267;0.0;0.0;0.0;0.00220103809324;0.999997577713;9.27060149252e-05;1.16162535535e-05;0.000524927500184;0.0;0.0;0.0;0.0;0.0;0.000140799083302;0.0;0.0;0.0;0.0;0.0;0.0;0.0;0.0;0.0;0.0;0.0;0.0;0.0;0.0;0.0;0.0;0.0;0.0;0.0;0.0;0.0;0.0;0.0;0.0;0.0;0.0;0.0
284521000000;200;284521000000;map;24.5941189205;-0.0580638918006;0.0;0.0;0.0;0.00182821805572;0.999998328808;8.91361771664e-05;1.06418825929e-06;0.00055250660429;0.0;0.0;0.0;0.0;0.0;0.000155657663317;0.0;0.0;0.0;0.0;0.0;0.0;0.0;0.0;0.0;0.0;0.0;0.0;0.0;0.0;0.0;0.0;0.0;0.0;0.0;0.0;0.0;0.0;0.0;0.0;0.0;0.0;0.0
284714000000;201;284714000000;map;24.695075199;-0.0574239059781;0.0;0.0;0.0;0.00155831306328;0.999998785829;7.03959327666e-05;-5.24830304571e-06;0.000610739136925;0.0;0.0;0.0;0.0;0.0;0.000143505255988;0.0;0.0;0.0;0.0;0.0;0.0;0.0;0.0;0.0;0.0;0.0;0.0;0.0;0.0;0.0;0.0;0.0;0.0;0.0;0.0;0.0;0.0;0.0;0.0;0.0;0.0;0.0
284915000000;202;284915000000;map;24.7953899537;-0.05524813737;0.0;0.0;0.0;0.00130028786844;0.999999154625;8.01330349987e-05;1.62187599628e-05;0.000675305722839;0.0;0.0;0.0;0.0;0.0;0.000134652109786;0.0;0.0;0.0;0.0;0.0;0.0;0.0;0.0;0.0;0.0;0.0;0.0;0.0;0.0;0.0;0.0;0.0;0.0;0.0;0.0;0.0;0.0;0.0;0.0;0.0;0.0;0.0
285118000000;203;285118000000;map;24.8950363326;-0.0501036794911;0.0;0.0;0.0;0.00166871442389;0.999998607695;8.7981824322e-05;3.39584796896e-05;0.000706522778107;0.0;0.0;0.0;0.0;0.0;0.000103229332539;0.0;0.0;0.0;0.0;0.0;0.0;0.0;0.0;0.0;0.0;0.0;0.0;0.0;0.0;0.0;0.0;0.0;0.0;0.0;0.0;0.0;0.0;0.0;0.0;0.0;0.0;0.0
285318000000;204;285318000000;map;24.9948923897;-0.0471500592695;0.0;0.0;0.0;0.0016970347483;0.999998560035;9.47155726863e-05;3.32473717557e-05;0.00070457200997;0.0;0.0;0.0;0.0;0.0;0.000104924825012;0.0;0.0;0.0;0.0;0.0;0.0;0.0;0.0;0.0;0.0;0.0;0.0;0.0;0.0;0.0;0.0;0.0;0.0;0.0;0.0;0.0;0.0;0.0;0.0;0.0;0.0;0.0
285523000000;205;285523000000;map;25.0954446893;-0.0508514963297;0.0;0.0;0.0;0.00128767051042;0.999999170952;9.2036547926e-05;3.85184674137e-05;0.000739863077478;0.0;0.0;0.0;0.0;0.0;9.51590954302e-05;0.0;0.0;0.0;0.0;0.0;0.0;0.0;0.0;0.0;0.0;0.0;0.0;0.0;0.0;0.0;0.0;0.0;0.0;0.0;0.0;0.0;0.0;0.0;0.0;0.0;0.0;0.0
285615000000;206;285615000000;map;25.1952179648;-0.0546978721529;0.0;0.0;0.0;0.00147511642583;0.999998912015;9.39357671541e-05;-3.14077995278e-06;0.000586568770835;0.0;0.0;0.0;0.0;0.0;0.000106819401622;0.0;0.0;0.0;0.0;0.0;0.0;0.0;0.0;0.0;0.0;0.0;0.0;0.0;0.0;0.0;0.0;0.0;0.0;0.0;0.0;0.0;0.0;0.0;0.0;0.0;0.0;0.0
285917000000;207;285917000000;map;25.2949110668;-0.0534198587042;0.0;0.0;0.0;0.00197668701928;0.999998046352;6.41835400756e-05;-1.05717994934e-05;0.000581676198026;0.0;0.0;0.0;0.0;0.0;7.42106912138e-05;0.0;0.0;0.0;0.0;0.0;0.0;0.0;0.0;0.0;0.0;0.0;0.0;0.0;0.0;0.0;0.0;0.0;0.0;0.0;0.0;0.0;0.0;0.0;0.0;0.0;0.0;0.0
286111000000;208;286111000000;map;25.3963117702;-0.047467459544;0.0;0.0;0.0;0.00245710291119;0.999996981318;5.12938219117e-05;2.80546530194e-05;0.000760951888919;0.0;0.0;0.0;0.0;0.0;7.82038214236e-05;0.0;0.0;0.0;0.0;0.0;0.0;0.0;0.0;0.0;0.0;0.0;0.0;0.0;0.0;0.0;0.0;0.0;0.0;0.0;0.0;0.0;0.0;0.0;0.0;0.0;0.0;0.0
286314000000;209;286314000000;map;25.4968942799;-0.0489378481294;0.0;0.0;0.0;0.00242391253148;0.99999706232;5.28778213038e-05;2.03037894881e-05;0.000721190239552;0.0;0.0;0.0;0.0;0.0;7.41584192022e-05;0.0;0.0;0.0;0.0;0.0;0.0;0.0;0.0;0.0;0.0;0.0;0.0;0.0;0.0;0.0;0.0;0.0;0.0;0.0;0.0;0.0;0.0;0.0;0.0;0.0;0.0;0.0
286521000000;210;286521000000;map;25.5976179063;-0.0515419600008;0.0;0.0;0.0;0.00241921059251;0.999997073706;5.77785909854e-05;6.57848607966e-06;0.000592442393192;0.0;0.0;0.0;0.0;0.0;8.26400616234e-05;0.0;0.0;0.0;0.0;0.0;0.0;0.0;0.0;0.0;0.0;0.0;0.0;0.0;0.0;0.0;0.0;0.0;0.0;0.0;0.0;0.0;0.0;0.0;0.0;0.0;0.0;0.0
286716000000;211;286716000000;map;25.707351709;-0.0508916885086;0.0;0.0;0.0;0.00213496519098;0.999997720959;6.81018489104e-05;6.93302077881e-06;0.000616029195891;0.0;0.0;0.0;0.0;0.0;0.000101753386126;0.0;0.0;0.0;0.0;0.0;0.0;0.0;0.0;0.0;0.0;0.0;0.0;0.0;0.0;0.0;0.0;0.0;0.0;0.0;0.0;0.0;0.0;0.0;0.0;0.0;0.0;0.0
286916000000;212;286916000000;map;25.8092483799;-0.0498906040002;0.0;0.0;0.0;0.00243009355484;0.999997047318;6.81146673287e-05;-1.27772225e-05;0.00063107434455;0.0;0.0;0.0;0.0;0.0;0.000112977244796;0.0;0.0;0.0;0.0;0.0;0.0;0.0;0.0;0.0;0.0;0.0;0.0;0.0;0.0;0.0;0.0;0.0;0.0;0.0;0.0;0.0;0.0;0.0;0.0;0.0;0.0;0.0
287117000000;213;287117000000;map;25.9099136292;-0.0496057066459;0.0;0.0;0.0;0.00248692672333;0.999996907593;8.95395852467e-05;1.35045492626e-05;0.00057199709792;0.0;0.0;0.0;0.0;0.0;0.000118601419415;0.0;0.0;0.0;0.0;0.0;0.0;0.0;0.0;0.0;0.0;0.0;0.0;0.0;0.0;0.0;0.0;0.0;0.0;0.0;0.0;0.0;0.0;0.0;0.0;0.0;0.0;0.0
287320000000;214;287320000000;map;26.0114979167;-0.0490183326245;0.0;0.0;0.0;0.00267878749295;0.999996412042;7.91009500745e-05;1.66911129613e-05;0.000584928183161;0.0;0.0;0.0;0.0;0.0;0.000140376311858;0.0;0.0;0.0;0.0;0.0;0.0;0.0;0.0;0.0;0.0;0.0;0.0;0.0;0.0;0.0;0.0;0.0;0.0;0.0;0.0;0.0;0.0;0.0;0.0;0.0;0.0;0.0
287521000000;215;287521000000;map;26.1118278815;-0.0499414678182;0.0;0.0;0.0;0.00242381424888;0.999997062558;7.10915815034e-05;1.4088556153e-05;0.000576154152606;0.0;0.0;0.0;0.0;0.0;0.000131874711138;0.0;0.0;0.0;0.0;0.0;0.0;0.0;0.0;0.0;0.0;0.0;0.0;0.0;0.0;0.0;0.0;0.0;0.0;0.0;0.0;0.0;0.0;0.0;0.0;0.0;0.0;0.0
287714000000;216;287714000000;map;26.22143496;-0.0522745550292;0.0;0.0;0.0;0.00225911146622;0.999997448204;7.18974183656e-05;3.65203620369e-05;0.00045037102266;0.0;0.0;0.0;0.0;0.0;0.00013107003127;0.0;0.0;0.0;0.0;0.0;0.0;0.0;0.0;0.0;0.0;0.0;0.0;0.0;0.0;0.0;0.0;0.0;0.0;0.0;0.0;0.0;0.0;0.0;0.0;0.0;0.0;0.0
287917000000;217;287917000000;map;26.3229268691;-0.0513042374736;0.0;0.0;0.0;0.00259574097533;0.999996631059;7.23013815787e-05;3.09044615303e-05;0.000521507649347;0.0;0.0;0.0;0.0;0.0;0.000138356503078;0.0;0.0;0.0;0.0;0.0;0.0;0.0;0.0;0.0;0.0;0.0;0.0;0.0;0.0;0.0;0.0;0.0;0.0;0.0;0.0;0.0;0.0;0.0;0.0;0.0;0.0;0.0
288118000000;218;288118000000;map;26.4218690278;-0.0530674851345;0.0;0.0;0.0;0.00271451627899;0.999996315694;0.000100551362834;2.53178680776e-05;0.000496067868987;0.0;0.0;0.0;0.0;0.0;0.000144832041064;0.0;0.0;0.0;0.0;0.0;0.0;0.0;0.0;0.0;0.0;0.0;0.0;0.0;0.0;0.0;0.0;0.0;0.0;0.0;0.0;0.0;0.0;0.0;0.0;0.0;0.0;0.0
288318000000;219;288318000000;map;26.5331780309;-0.0522179638179;0.0;0.0;0.0;0.00227332792103;0.999997415987;9.38544121709e-05;4.14824153987e-05;0.000461615511757;0.0;0.0;0.0;0.0;0.0;0.00013486985283;0.0;0.0;0.0;0.0;0.0;0.0;0.0;0.0;0.0;0.0;0.0;0.0;0.0;0.0;0.0;0.0;0.0;0.0;0.0;0.0;0.0;0.0;0.0;0.0;0.0;0.0;0.0
288520000000;220;288520000000;map;26.6348141568;-0.0521872086317;0.0;0.0;0.0;0.00137552658157;0.999999053963;8.76057514461e-05;4.36667789867e-05;0.000463568179087;0.0;0.0;0.0;0.0;0.0;8.902402973e-05;0.0;0.0;0.0;0.0;0.0;0.0;0.0;0.0;0.0;0.0;0.0;0.0;0.0;0.0;0.0;0.0;0.0;0.0;0.0;0.0;0.0;0.0;0.0;0.0;0.0;0.0;0.0
288716000000;221;288716000000;map;26.7352041331;-0.0510626549971;0.0;0.0;0.0;0.000985280348261;0.999999514611;6.65127371349e-05;4.0771660103e-05;0.000427515370261;0.0;0.0;0.0;0.0;0.0;8.07164784522e-05;0.0;0.0;0.0;0.0;0.0;0.0;0.0;0.0;0.0;0.0;0.0;0.0;0.0;0.0;0.0;0.0;0.0;0.0;0.0;0.0;0.0;0.0;0.0;0.0;0.0;0.0;0.0
289018000000;222;289018000000;map;26.8360759949;-0.0495441505689;0.0;0.0;0.0;0.00114162766924;0.999999348343;7.64304506902e-05;4.47640201398e-05;0.000458261623935;0.0;0.0;0.0;0.0;0.0;9.08755410417e-05;0.0;0.0;0.0;0.0;0.0;0.0;0.0;0.0;0.0;0.0;0.0;0.0;0.0;0.0;0.0;0.0;0.0;0.0;0.0;0.0;0.0;0.0;0.0;0.0;0.0;0.0;0.0
289221000000;223;289221000000;map;26.9382378159;-0.04865200487;0.0;0.0;0.0;0.000788694655703;0.99999968898;6.74884904583e-05;4.20860575046e-05;0.000591404461329;0.0;0.0;0.0;0.0;0.0;0.000101686954149;0.0;0.0;0.0;0.0;0.0;0.0;0.0;0.0;0.0;0.0;0.0;0.0;0.0;0.0;0.0;0.0;0.0;0.0;0.0;0.0;0.0;0.0;0.0;0.0;0.0;0.0;0.0
289421000000;224;289421000000;map;27.0479196652;-0.0492749433851;0.0;0.0;0.0;0.000892370769938;0.999999601837;6.62537080416e-05;2.42441997318e-05;0.000516029609375;0.0;0.0;0.0;0.0;0.0;0.000120060356613;0.0;0.0;0.0;0.0;0.0;0.0;0.0;0.0;0.0;0.0;0.0;0.0;0.0;0.0;0.0;0.0;0.0;0.0;0.0;0.0;0.0;0.0;0.0;0.0;0.0;0.0;0.0
289618000000;225;289618000000;map;27.1490395045;-0.0497437903517;0.0;0.0;0.0;0.000873356401806;0.999999618624;7.79289761113e-05;1.36759136686e-05;0.00051765611028;0.0;0.0;0.0;0.0;0.0;0.00012892367763;0.0;0.0;0.0;0.0;0.0;0.0;0.0;0.0;0.0;0.0;0.0;0.0;0.0;0.0;0.0;0.0;0.0;0.0;0.0;0.0;0.0;0.0;0.0;0.0;0.0;0.0;0.0
289816000000;226;289816000000;map;27.2585145441;-0.0489859783446;0.0;0.0;0.0;0.000686436263868;0.999999764403;8.68501133482e-05;2.52229791402e-05;0.000578110369016;0.0;0.0;0.0;0.0;0.0;0.000119465639401;0.0;0.0;0.0;0.0;0.0;0.0;0.0;0.0;0.0;0.0;0.0;0.0;0.0;0.0;0.0;0.0;0.0;0.0;0.0;0.0;0.0;0.0;0.0;0.0;0.0;0.0;0.0
290025000000;227;290025000000;map;27.3691382182;-0.0511395391119;0.0;0.0;0.0;0.00115603162838;0.999999331795;0.000100147441003;2.84275793874e-05;0.000571978588027;0.0;0.0;0.0;0.0;0.0;0.000134297938676;0.0;0.0;0.0;0.0;0.0;0.0;0.0;0.0;0.0;0.0;0.0;0.0;0.0;0.0;0.0;0.0;0.0;0.0;0.0;0.0;0.0;0.0;0.0;0.0;0.0;0.0;0.0
290215000000;228;290215000000;map;27.4792007027;-0.0534719753307;0.0;0.0;0.0;0.00125121522379;0.99999921723;0.000113917987051;2.88190449882e-05;0.000454043405659;0.0;0.0;0.0;0.0;0.0;0.000175093047383;0.0;0.0;0.0;0.0;0.0;0.0;0.0;0.0;0.0;0.0;0.0;0.0;0.0;0.0;0.0;0.0;0.0;0.0;0.0;0.0;0.0;0.0;0.0;0.0;0.0;0.0;0.0
290416000000;229;290416000000;map;27.5793357126;-0.0539688150132;0.0;0.0;0.0;0.00165291931102;0.999998633928;9.85180445241e-05;1.88453757883e-05;0.000411777403621;0.0;0.0;0.0;0.0;0.0;0.000114827009426;0.0;0.0;0.0;0.0;0.0;0.0;0.0;0.0;0.0;0.0;0.0;0.0;0.0;0.0;0.0;0.0;0.0;0.0;0.0;0.0;0.0;0.0;0.0;0.0;0.0;0.0;0.0
290620000000;230;290620000000;map;27.6903523579;-0.0536323557168;0.0;0.0;0.0;0.00108578951368;0.99999941053;0.000107772142997;8.18149021531e-06;0.000564562344892;0.0;0.0;0.0;0.0;0.0;0.000109526422106;0.0;0.0;0.0;0.0;0.0;0.0;0.0;0.0;0.0;0.0;0.0;0.0;0.0;0.0;0.0;0.0;0.0;0.0;0.0;0.0;0.0;0.0;0.0;0.0;0.0;0.0;0.0
290820000000;231;290820000000;map;27.797083162;-0.0556796370693;0.0;0.0;0.0;0.0010067244783;0.999999493253;0.000118511794426;1.8860873543e-05;0.000541053813984;0.0;0.0;0.0;0.0;0.0;9.06185654319e-05;0.0;0.0;0.0;0.0;0.0;0.0;0.0;0.0;0.0;0.0;0.0;0.0;0.0;0.0;0.0;0.0;0.0;0.0;0.0;0.0;0.0;0.0;0.0;0.0;0.0;0.0;0.0
291115000000;232;291115000000;map;27.9037540921;-0.0538382765858;0.0;0.0;0.0;0.00114308143402;0.999999346682;0.000103196161263;1.09054652098e-05;0.000563672458968;0.0;0.0;0.0;0.0;0.0;8.27666091196e-05;0.0;0.0;0.0;0.0;0.0;0.0;0.0;0.0;0.0;0.0;0.0;0.0;0.0;0.0;0.0;0.0;0.0;0.0;0.0;0.0;0.0;0.0;0.0;0.0;0.0;0.0;0.0
291317000000;233;291317000000;map;28.0074173286;-0.0538073332732;0.0;0.0;0.0;0.00110646781745;0.999999387864;0.000128784526964;1.45731595858e-06;0.000527989620927;0.0;0.0;0.0;0.0;0.0;0.000106570322348;0.0;0.0;0.0;0.0;0.0;0.0;0.0;0.0;0.0;0.0;0.0;0.0;0.0;0.0;0.0;0.0;0.0;0.0;0.0;0.0;0.0;0.0;0.0;0.0;0.0;0.0;0.0
291525000000;234;291525000000;map;28.1086009966;-0.054113646204;0.0;0.0;0.0;0.00109648993573;0.999999398855;0.000138614972229;-6.79810038329e-06;0.000532119850331;0.0;0.0;0.0;0.0;0.0;0.000104664918133;0.0;0.0;0.0;0.0;0.0;0.0;0.0;0.0;0.0;0.0;0.0;0.0;0.0;0.0;0.0;0.0;0.0;0.0;0.0;0.0;0.0;0.0;0.0;0.0;0.0;0.0;0.0
291720000000;235;291720000000;map;28.2184845942;-0.0563911797001;0.0;0.0;0.0;0.00209909486808;0.999997796898;0.000140079576113;-1.89136712749e-05;0.000488463732041;0.0;0.0;0.0;0.0;0.0;0.000109799070897;0.0;0.0;0.0;0.0;0.0;0.0;0.0;0.0;0.0;0.0;0.0;0.0;0.0;0.0;0.0;0.0;0.0;0.0;0.0;0.0;0.0;0.0;0.0;0.0;0.0;0.0;0.0
291919000000;236;291919000000;map;28.3281470424;-0.0566896135317;0.0;0.0;0.0;0.0024322276954;0.99999704213;0.000147084497826;-1.50392332399e-05;0.000425477424121;0.0;0.0;0.0;0.0;0.0;0.000107649442277;0.0;0.0;0.0;0.0;0.0;0.0;0.0;0.0;0.0;0.0;0.0;0.0;0.0;0.0;0.0;0.0;0.0;0.0;0.0;0.0;0.0;0.0;0.0;0.0;0.0;0.0;0.0
292116000000;237;292116000000;map;28.4303455172;-0.0562558421148;0.0;0.0;0.0;0.00245384523541;0.999996989317;0.000142905534972;-2.35899324728e-05;0.000464321500663;0.0;0.0;0.0;0.0;0.0;0.000105321028352;0.0;0.0;0.0;0.0;0.0;0.0;0.0;0.0;0.0;0.0;0.0;0.0;0.0;0.0;0.0;0.0;0.0;0.0;0.0;0.0;0.0;0.0;0.0;0.0;0.0;0.0;0.0
292320000000;238;292320000000;map;28.5306501207;-0.0560211421432;0.0;0.0;0.0;0.0030454571921;0.999995362584;0.000153753378754;2.47013575305e-06;0.000477681769165;0.0;0.0;0.0;0.0;0.0;0.000111434778619;0.0;0.0;0.0;0.0;0.0;0.0;0.0;0.0;0.0;0.0;0.0;0.0;0.0;0.0;0.0;0.0;0.0;0.0;0.0;0.0;0.0;0.0;0.0;0.0;0.0;0.0;0.0
292518432056;239;292518432056;map;28.6313985382;-0.0542628801491;0.0;0.0;0.0;0.00288015363006;0.999995852349;0.000160153027309;2.39415309355e-07;0.00044094480083;0.0;0.0;0.0;0.0;0.0;0.00010919564779;0.0;0.0;0.0;0.0;0.0;0.0;0.0;0.0;0.0;0.0;0.0;0.0;0.0;0.0;0.0;0.0;0.0;0.0;0.0;0.0;0.0;0.0;0.0;0.0;0.0;0.0;0.0
292720000000;240;292720000000;map;28.7503804765;-0.0550083939553;0.0;0.0;0.0;0.00275831314757;0.999996195847;0.000186722434023;6.35675984699e-05;0.000495672004108;0.0;0.0;0.0;0.0;0.0;0.000111092577445;0.0;0.0;0.0;0.0;0.0;0.0;0.0;0.0;0.0;0.0;0.0;0.0;0.0;0.0;0.0;0.0;0.0;0.0;0.0;0.0;0.0;0.0;0.0;0.0;0.0;0.0;0.0
293019000000;241;293019000000;map;28.8606633487;-0.0524446771855;0.0;0.0;0.0;0.00240411660672;0.999997110107;0.000181374237172;3.08100457354e-05;0.00054191591391;0.0;0.0;0.0;0.0;0.0;0.000110050625692;0.0;0.0;0.0;0.0;0.0;0.0;0.0;0.0;0.0;0.0;0.0;0.0;0.0;0.0;0.0;0.0;0.0;0.0;0.0;0.0;0.0;0.0;0.0;0.0;0.0;0.0;0.0
293214000000;242;293214000000;map;28.959500154;-0.0540101534846;0.0;0.0;0.0;0.00138817208361;0.999999036489;0.00017862396669;2.57294882007e-05;0.000467004797864;0.0;0.0;0.0;0.0;0.0;0.000106347330829;0.0;0.0;0.0;0.0;0.0;0.0;0.0;0.0;0.0;0.0;0.0;0.0;0.0;0.0;0.0;0.0;0.0;0.0;0.0;0.0;0.0;0.0;0.0;0.0;0.0;0.0;0.0
293416000000;243;293416000000;map;29.0654949482;-0.0561376647976;0.0;0.0;0.0;0.00126016224774;0.999999205995;0.000175790456069;1.78732363676e-05;0.0005147054905;0.0;0.0;0.0;0.0;0.0;0.000111139645629;0.0;0.0;0.0;0.0;0.0;0.0;0.0;0.0;0.0;0.0;0.0;0.0;0.0;0.0;0.0;0.0;0.0;0.0;0.0;0.0;0.0;0.0;0.0;0.0;0.0;0.0;0.0
