%time;field.header.seq;field.header.stamp;field.header.frame_id;field.pose.pose.position.x;field.pose.pose.position.y;field.pose.pose.position.z;field.pose.pose.orientation.x;field.pose.pose.orientation.y;field.pose.pose.orientation.z;field.pose.pose.orientation.w;field.pose.covariance0;field.pose.covariance1;field.pose.covariance2;field.pose.covariance3;field.pose.covariance4;field.pose.covariance5;field.pose.covariance6;field.pose.covariance7;field.pose.covariance8;field.pose.covariance9;field.pose.covariance10;field.pose.covariance11;field.pose.covariance12;field.pose.covariance13;field.pose.covariance14;field.pose.covariance15;field.pose.covariance16;field.pose.covariance17;field.pose.covariance18;field.pose.covariance19;field.pose.covariance20;field.pose.covariance21;field.pose.covariance22;field.pose.covariance23;field.pose.covariance24;field.pose.covariance25;field.pose.covariance26;field.pose.covariance27;field.pose.covariance28;field.pose.covariance29;field.pose.covariance30;field.pose.covariance31;field.pose.covariance32;field.pose.covariance33;field.pose.covariance34;field.pose.covariance35
267972000000;65;267972000000;map;16.3134281936;-0.0232790118423;0.0;0.0;0.0;0.00260775668671;0.999996599797;0.00917556013189;-0.000166664989694;0.0;0.0;0.0;0.0;-0.000166664989694;0.00479989713055;0.0;0.0;0.0;0.0;0.0;0.0;0.0;0.0;0.0;0.0;0.0;0.0;0.0;0.0;0.0;0.0;0.0;0.0;0.0;0.0;0.0;0.0;0.0;0.0;0.0;0.0;0.0;0.00159230762825
268473000000;66;268473000000;map;16.5683482828;-0.0230951203824;0.0;0.0;0.0;0.00243154858914;0.999997043781;0.00927753738699;-0.000279686080823;0.0;0.0;0.0;0.0;-0.000279686080823;0.00509665794285;0.0;0.0;0.0;0.0;0.0;0.0;0.0;0.0;0.0;0.0;0.0;0.0;0.0;0.0;0.0;0.0;0.0;0.0;0.0;0.0;0.0;0.0;0.0;0.0;0.0;0.0;0.0;0.00161250935488
268981000000;67;268981000000;map;16.8287996673;-0.0238320177513;0.0;0.0;0.0;0.00192418384822;0.999998148757;0.00911036921821;-0.00026652679162;0.0;0.0;0.0;0.0;-0.00026652679162;0.00541476493494;0.0;0.0;0.0;0.0;0.0;0.0;0.0;0.0;0.0;0.0;0.0;0.0;0.0;0.0;0.0;0.0;0.0;0.0;0.0;0.0;0.0;0.0;0.0;0.0;0.0;0.0;0.0;0.00169118673689
269494000000;68;269494000000;map;17.0932644693;-0.0238795060247;0.0;0.0;0.0;0.00184525920776;0.999998297508;0.00900977024367;-0.000250602838104;0.0;0.0;0.0;0.0;-0.000250602838104;0.00553589539217;0.0;0.0;0.0;0.0;0.0;0.0;0.0;0.0;0.0;0.0;0.0;0.0;0.0;0.0;0.0;0.0;0.0;0.0;0.0;0.0;0.0;0.0;0.0;0.0;0.0;0.0;0.0;0.00165930161268
269996000000;69;269996000000;map;17.3493569078;-0.0242545995558;0.0;0.0;0.0;0.00193219508007;0.999998133309;0.00898161036963;-0.000329854571191;0.0;0.0;0.0;0.0;-0.000329854571191;0.00568466160921;0.0;0.0;0.0;0.0;0.0;0.0;0.0;0.0;0.0;0.0;0.0;0.0;0.0;0.0;0.0;0.0;0.0;0.0;0.0;0.0;0.0;0.0;0.0;0.0;0.0;0.0;0.0;0.00162536487986
270496000000;70;270496000000;map;17.606650896;-0.0246425843911;0.0;0.0;0.0;0.00176655062136;0.999998439648;0.00870562981464;-0.00033808283018;0.0;0.0;0.0;0.0;-0.00033808283018;0.00579296725682;0.0;0.0;0.0;0.0;0.0;0.0;0.0;0.0;0.0;0.0;0.0;0.0;0.0;0.0;0.0;0.0;0.0;0.0;0.0;0.0;0.0;0.0;0.0;0.0;0.0;0.0;0.0;0.00158412780898
271011000000;71;271011000000;map;17.8699593887;-0.0275270783756;0.0;0.0;0.0;0.00104063359118;0.999999458541;0.00841822822878;-0.000362134308619;0.0;0.0;0.0;0.0;-0.000362134308619;0.00595306994891;0.0;0.0;0.0;0.0;0.0;0.0;0.0;0.0;0.0;0.0;0.0;0.0;0.0;0.0;0.0;0.0;0.0;0.0;0.0;0.0;0.0;0.0;0.0;0.0;0.0;0.0;0.0;0.00157422591479
271532000000;72;271532000000;map;18.1370301596;-0.0309735006171;0.0;0.0;0.0;0.000387025768575;0.999999925106;0.00802557729401;-0.000242314175932;0.0;0.0;0.0;0.0;-0.000242314175932;0.00593198045715;0.0;0.0;0.0;0.0;0.0;0.0;0.0;0.0;0.0;0.0;0.0;0.0;0.0;0.0;0.0;0.0;0.0;0.0;0.0;0.0;0.0;0.0;0.0;0.0;0.0;0.0;0.0;0.00153254483204
272037000000;73;272037000000;map;18.3940561731;-0.0349493567066;0.0;0.0;0.0;-0.000500909658467;0.999999874545;0.00760503935902;-0.000166427554308;0.0;0.0;0.0;0.0;-0.000166427554309;0.00586623183559;0.0;0.0;0.0;0.0;0.0;0.0;0.0;0.0;0.0;0.0;0.0;0.0;0.0;0.0;0.0;0.0;0.0;0.0;0.0;0.0;0.0;0.0;0.0;0.0;0.0;0.0;0.0;0.00143804634211
272542000000;74;272542000000;map;18.6499749027;-0.0404262898232;0.0;0.0;0.0;-0.0015689420287;0.99999876921;0.00762276593844;-7.64102512337e-05;0.0;0.0;0.0;0.0;-7.64102512339e-05;0.00559745469239;0.0;0.0;0.0;0.0;0.0;0.0;0.0;0.0;0.0;0.0;0.0;0.0;0.0;0.0;0.0;0.0;0.0;0.0;0.0;0.0;0.0;0.0;0.0;0.0;0.0;0.0;0.0;0.00137866409995
273048000000;75;273048000000;map;18.9043781021;-0.0465992457434;0.0;0.0;0.0;-0.00252149618599;0.999996821023;0.00767274384123;1.20265160701e-05;0.0;0.0;0.0;0.0;1.20265160701e-05;0.00553968268425;0.0;0.0;0.0;0.0;0.0;0.0;0.0;0.0;0.0;0.0;0.0;0.0;0.0;0.0;0.0;0.0;0.0;0.0;0.0;0.0;0.0;0.0;0.0;0.0;0.0;0.0;0.0;0.00132910173607
273550000000;76;273550000000;map;19.1561997594;-0.0511134202924;0.0;0.0;0.0;-0.00303439340047;0.999995396218;0.00767800293397;3.88956952635e-06;0.0;0.0;0.0;0.0;3.88956952635e-06;0.00541363376615;0.0;0.0;0.0;0.0;0.0;0.0;0.0;0.0;0.0;0.0;0.0;0.0;0.0;0.0;0.0;0.0;0.0;0.0;0.0;0.0;0.0;0.0;0.0;0.0;0.0;0.0;0.0;0.00135623286073
274070000000;77;274070000000;map;19.4145814469;-0.0571759376033;0.0;0.0;0.0;-0.00390251065238;0.999992385176;0.00769137052583;2.99716039711e-05;0.0;0.0;0.0;0.0;2.99716039711e-05;0.00509270877127;0.0;0.0;0.0;0.0;0.0;0.0;0.0;0.0;0.0;0.0;0.0;0.0;0.0;0.0;0.0;0.0;0.0;0.0;0.0;0.0;0.0;0.0;0.0;0.0;0.0;0.0;0.0;0.00138843113642
274579000000;78;274579000000;map;19.6693972623;-0.0636842943532;0.0;0.0;0.0;-0.00433372357624;0.999990609376;0.00781814084456;9.95451292216e-05;0.0;0.0;0.0;0.0;9.95451292216e-05;0.00471811385597;0.0;0.0;0.0;0.0;0.0;0.0;0.0;0.0;0.0;0.0;0.0;0.0;0.0;0.0;0.0;0.0;0.0;0.0;0.0;0.0;0.0;0.0;0.0;0.0;0.0;0.0;0.0;0.00144702631031
275087000000;79;275087000000;map;19.9231311152;-0.0681585555034;0.0;0.0;0.0;-0.00431314926729;0.999990698328;0.00810222137085;0.000280155782415;0.0;0.0;0.0;0.0;0.000280155782415;0.00458653156441;0.0;0.0;0.0;0.0;0.0;0.0;0.0;0.0;0.0;0.0;0.0;0.0;0.0;0.0;0.0;0.0;0.0;0.0;0.0;0.0;0.0;0.0;0.0;0.0;0.0;0.0;0.0;0.00150124983219
275605000000;80;275605000000;map;20.1824833991;-0.074058143152;0.0;0.0;0.0;-0.00485253838988;0.999988226366;0.00801787551063;0.000326874855948;0.0;0.0;0.0;0.0;0.000326874855948;0.00467427436157;0.0;0.0;0.0;0.0;0.0;0.0;0.0;0.0;0.0;0.0;0.0;0.0;0.0;0.0;0.0;0.0;0.0;0.0;0.0;0.0;0.0;0.0;0.0;0.0;0.0;0.0;0.0;0.00161219265406
276109000000;81;276109000000;map;20.4343866148;-0.0796265494568;0.0;0.0;0.0;-0.00566323976858;0.999983963729;0.00774523040354;0.00040443719445;0.0;0.0;0.0;0.0;0.00040443719445;0.00464845934863;0.0;0.0;0.0;0.0;0.0;0.0;0.0;0.0;0.0;0.0;0.0;0.0;0.0;0.0;0.0;0.0;0.0;0.0;0.0;0.0;0.0;0.0;0.0;0.0;0.0;0.0;0.0;0.00162858225628
276617000000;82;276617000000;map;20.688115614;-0.08400720344;0.0;0.0;0.0;-0.00598591943258;0.999982084224;0.00769621487552;0.000359176110119;0.0;0.0;0.0;0.0;0.000359176110118;0.00461923867404;0.0;0.0;0.0;0.0;0.0;0.0;0.0;0.0;0.0;0.0;0.0;0.0;0.0;0.0;0.0;0.0;0.0;0.0;0.0;0.0;0.0;0.0;0.0;0.0;0.0;0.0;0.0;0.00172009253449
277120000000;83;277120000000;map;20.9402933655;-0.0875529542013;0.0;0.0;0.0;-0.00661528084589;0.99997811879;0.00773453921158;0.000467755211657;0.0;0.0;0.0;0.0;0.000467755211657;0.00466188827349;0.0;0.0;0.0;0.0;0.0;0.0;0.0;0.0;0.0;0.0;0.0;0.0;0.0;0.0;0.0;0.0;0.0;0.0;0.0;0.0;0.0;0.0;0.0;0.0;0.0;0.0;0.0;0.00179245419939
277640000000;84;277640000000;map;21.2010513679;-0.0926632387875;0.0;0.0;0.0;-0.00726663884752;0.999973597631;0.00783112785825;0.000459926338095;0.0;0.0;0.0;0.0;0.000459926338095;0.00481696195451;0.0;0.0;0.0;0.0;0.0;0.0;0.0;0.0;0.0;0.0;0.0;0.0;0.0;0.0;0.0;0.0;0.0;0.0;0.0;0.0;0.0;0.0;0.0;0.0;0.0;0.0;0.0;0.00184876007751
278165000000;85;278165000000;map;21.4645142213;-0.0982095580583;0.0;0.0;0.0;-0.00761534870762;0.999971002812;0.0076891014582;0.000455078463026;0.0;0.0;0.0;0.0;0.000455078463026;0.00480825415604;0.0;0.0;0.0;0.0;0.0;0.0;0.0;0.0;0.0;0.0;0.0;0.0;0.0;0.0;0.0;0.0;0.0;0.0;0.0;0.0;0.0;0.0;0.0;0.0;0.0;0.0;0.0;0.0018982652637
278667000000;86;278667000000;map;21.7164656773;-0.103494368765;0.0;0.0;0.0;-0.00800476991499;0.999967961316;0.00784046390226;0.000501118863806;0.0;0.0;0.0;0.0;0.000501118863806;0.00505505112268;0.0;0.0;0.0;0.0;0.0;0.0;0.0;0.0;0.0;0.0;0.0;0.0;0.0;0.0;0.0;0.0;0.0;0.0;0.0;0.0;0.0;0.0;0.0;0.0;0.0;0.0;0.0;0.00192440674217
279175000000;87;279175000000;map;21.9694058655;-0.107675388967;0.0;0.0;0.0;-0.00832199434359;0.999965371606;0.00807804373522;0.000536677208235;0.0;0.0;0.0;0.0;0.000536677208236;0.00526574218134;0.0;0.0;0.0;0.0;0.0;0.0;0.0;0.0;0.0;0.0;0.0;0.0;0.0;0.0;0.0;0.0;0.0;0.0;0.0;0.0;0.0;0.0;0.0;0.0;0.0;0.0;0.0;0.00200475784399
279679000000;88;279679000000;map;22.2223061588;-0.114579715205;0.0;0.0;0.0;-0.00889445633009;0.999960443541;0.00799578721495;0.000516323174262;0.0;0.0;0.0;0.0;0.000516323174262;0.00546797570222;0.0;0.0;0.0;0.0;0.0;0.0;0.0;0.0;0.0;0.0;0.0;0.0;0.0;0.0;0.0;0.0;0.0;0.0;0.0;0.0;0.0;0.0;0.0;0.0;0.0;0.0;0.0;0.00197659008183
280185000000;89;280185000000;map;22.4791329;-0.120156459937;0.0;0.0;0.0;-0.00942415266488;0.999955591687;0.00798643650438;0.000599342108868;0.0;0.0;0.0;0.0;0.000599342108868;0.00564374393252;0.0;0.0;0.0;0.0;0.0;0.0;0.0;0.0;0.0;0.0;0.0;0.0;0.0;0.0;0.0;0.0;0.0;0.0;0.0;0.0;0.0;0.0;0.0;0.0;0.0;0.0;0.0;0.00191017753592
280690000000;90;280690000000;map;22.7316804865;-0.12475093438;0.0;0.0;0.0;-0.00991919783965;0.999950803547;0.00816614779285;0.000680725404933;0.0;0.0;0.0;0.0;0.000680725404933;0.00568826316971;0.0;0.0;0.0;0.0;0.0;0.0;0.0;0.0;0.0;0.0;0.0;0.0;0.0;0.0;0.0;0.0;0.0;0.0;0.0;0.0;0.0;0.0;0.0;0.0;0.0;0.0;0.0;0.0018500039702
281193000000;91;281193000000;map;22.9831402345;-0.131186224514;0.0;0.0;0.0;-0.0102552090987;0.999947413961;0.0082838071495;0.000688557045868;0.0;0.0;0.0;0.0;0.000688557045868;0.00567272100182;0.0;0.0;0.0;0.0;0.0;0.0;0.0;0.0;0.0;0.0;0.0;0.0;0.0;0.0;0.0;0.0;0.0;0.0;0.0;0.0;0.0;0.0;0.0;0.0;0.0;0.0;0.0;0.00182373821055
281700000000;92;281700000000;map;23.238026648;-0.136287400803;0.0;0.0;0.0;-0.010026836272;0.999949730014;0.00837767229791;0.000843074361002;0.0;0.0;0.0;0.0;0.000843074361002;0.00571051247856;0.0;0.0;0.0;0.0;0.0;0.0;0.0;0.0;0.0;0.0;0.0;0.0;0.0;0.0;0.0;0.0;0.0;0.0;0.0;0.0;0.0;0.0;0.0;0.0;0.0;0.0;0.0;0.00179623864826
282204000000;93;282204000000;map;23.489837809;-0.141666786903;0.0;0.0;0.0;-0.00986439794116;0.999951345643;0.00839928852997;0.000884611363172;0.0;0.0;0.0;0.0;0.000884611363172;0.00568043841661;0.0;0.0;0.0;0.0;0.0;0.0;0.0;0.0;0.0;0.0;0.0;0.0;0.0;0.0;0.0;0.0;0.0;0.0;0.0;0.0;0.0;0.0;0.0;0.0;0.0;0.0;0.0;0.00175632708048
282708000000;94;282708000000;map;23.7396703293;-0.146039745;0.0;0.0;0.0;-0.00946709856762;0.999955186018;0.00863443179549;0.000812407836253;0.0;0.0;0.0;0.0;0.000812407836253;0.00557127778762;0.0;0.0;0.0;0.0;0.0;0.0;0.0;0.0;0.0;0.0;0.0;0.0;0.0;0.0;0.0;0.0;0.0;0.0;0.0;0.0;0.0;0.0;0.0;0.0;0.0;0.0;0.0;0.00173184426766
283216000000;95;283216000000;map;23.9933763234;-0.149154288934;0.0;0.0;0.0;-0.00869103731097;0.999962232222;0.00877622237624;0.000864033605877;0.0;0.0;0.0;0.0;0.000864033605877;0.0055469385314;0.0;0.0;0.0;0.0;0.0;0.0;0.0;0.0;0.0;0.0;0.0;0.0;0.0;0.0;0.0;0.0;0.0;0.0;0.0;0.0;0.0;0.0;0.0;0.0;0.0;0.0;0.0;0.00164146833662
283718000000;96;283718000000;map;24.2453392968;-0.151391646034;0.0;0.0;0.0;-0.00787177041779;0.999969017135;0.00884147457816;0.000812326013586;0.0;0.0;0.0;0.0;0.000812326013585;0.00551564642519;0.0;0.0;0.0;0.0;0.0;0.0;0.0;0.0;0.0;0.0;0.0;0.0;0.0;0.0;0.0;0.0;0.0;0.0;0.0;0.0;0.0;0.0;0.0;0.0;0.0;0.0;0.0;0.00165511548244
284238000000;97;284238000000;map;24.506608954;-0.154937576239;0.0;0.0;0.0;-0.00714102094506;0.999974502585;0.00904379615486;0.000859583737627;0.0;0.0;0.0;0.0;0.000859583737628;0.00552687470831;0.0;0.0;0.0;0.0;0.0;0.0;0.0;0.0;0.0;0.0;0.0;0.0;0.0;0.0;0.0;0.0;0.0;0.0;0.0;0.0;0.0;0.0;0.0;0.0;0.0;0.0;0.0;0.00169615222146
284742000000;98;284742000000;map;24.7565943477;-0.157344223444;0.0;0.0;0.0;-0.00663008918983;0.999978020717;0.00893058907411;0.000795370026034;0.0;0.0;0.0;0.0;0.000795370026034;0.00543435677204;0.0;0.0;0.0;0.0;0.0;0.0;0.0;0.0;0.0;0.0;0.0;0.0;0.0;0.0;0.0;0.0;0.0;0.0;0.0;0.0;0.0;0.0;0.0;0.0;0.0;0.0;0.0;0.00159181391708
285261000000;99;285261000000;map;25.0138716106;-0.158778209659;0.0;0.0;0.0;-0.00617648435558;0.999980925339;0.00921566953696;0.00091038707963;0.0;0.0;0.0;0.0;0.00091038707963;0.00536134925657;0.0;0.0;0.0;0.0;0.0;0.0;0.0;0.0;0.0;0.0;0.0;0.0;0.0;0.0;0.0;0.0;0.0;0.0;0.0;0.0;0.0;0.0;0.0;0.0;0.0;0.0;0.0;0.0015568971621
285770000000;100;285770000000;map;25.2691196939;-0.159399102967;0.0;0.0;0.0;-0.00523540475286;0.999986295175;0.00927923698612;0.00100491528177;0.0;0.0;0.0;0.0;0.00100491528177;0.00534106744417;0.0;0.0;0.0;0.0;0.0;0.0;0.0;0.0;0.0;0.0;0.0;0.0;0.0;0.0;0.0;0.0;0.0;0.0;0.0;0.0;0.0;0.0;0.0;0.0;0.0;0.0;0.0;0.00156428445778
286274000000;101;286274000000;map;25.5203999063;-0.160000956393;0.0;0.0;0.0;-0.00433026090027;0.999990624376;0.00934617085159;0.00106648103703;0.0;0.0;0.0;0.0;0.00106648103703;0.0052115085739;0.0;0.0;0.0;0.0;0.0;0.0;0.0;0.0;0.0;0.0;0.0;0.0;0.0;0.0;0.0;0.0;0.0;0.0;0.0;0.0;0.0;0.0;0.0;0.0;0.0;0.0;0.0;0.00152041076809
286779000000;102;286779000000;map;25.7728353552;-0.160682943726;0.0;0.0;0.0;-0.00413243839432;0.99999146144;0.00953358162394;0.00117571532904;0.0;0.0;0.0;0.0;0.00117571532904;0.00514925495046;0.0;0.0;0.0;0.0;0.0;0.0;0.0;0.0;0.0;0.0;0.0;0.0;0.0;0.0;0.0;0.0;0.0;0.0;0.0;0.0;0.0;0.0;0.0;0.0;0.0;0.0;0.0;0.00152102121028
287282000000;103;287282000000;map;26.0243341982;-0.160342609384;0.0;0.0;0.0;-0.0035924881489;0.999993546994;0.00985305148458;0.00123770662798;0.0;0.0;0.0;0.0;0.00123770662798;0.00507811337111;0.0;0.0;0.0;0.0;0.0;0.0;0.0;0.0;0.0;0.0;0.0;0.0;0.0;0.0;0.0;0.0;0.0;0.0;0.0;0.0;0.0;0.0;0.0;0.0;0.0;0.0;0.0;0.00150391993624
287785000000;104;287785000000;map;26.2756002543;-0.160793150207;0.0;0.0;0.0;-0.00304879111513;0.999995352426;0.00985208428369;0.00129425545671;0.0;0.0;0.0;0.0;0.00129425545671;0.00509785669413;0.0;0.0;0.0;0.0;0.0;0.0;0.0;0.0;0.0;0.0;0.0;0.0;0.0;0.0;0.0;0.0;0.0;0.0;0.0;0.0;0.0;0.0;0.0;0.0;0.0;0.0;0.0;0.00153020797827
288287000000;105;288287000000;map;26.5280110588;-0.159682757219;0.0;0.0;0.0;-0.00225856021452;0.99999744945;0.0099630563285;0.0013164017007;0.0;0.0;0.0;0.0;0.0013164017007;0.00510405146525;0.0;0.0;0.0;0.0;0.0;0.0;0.0;0.0;0.0;0.0;0.0;0.0;0.0;0.0;0.0;0.0;0.0;0.0;0.0;0.0;0.0;0.0;0.0;0.0;0.0;0.0;0.0;0.00150574901448
288808000000;106;288808000000;map;26.7892209086;-0.157906548803;0.0;0.0;0.0;-0.00148632685589;0.999998895416;0.0098361918001;0.00126436487162;0.0;0.0;0.0;0.0;0.00126436487162;0.00501528302163;0.0;0.0;0.0;0.0;0.0;0.0;0.0;0.0;0.0;0.0;0.0;0.0;0.0;0.0;0.0;0.0;0.0;0.0;0.0;0.0;0.0;0.0;0.0;0.0;0.0;0.0;0.0;0.00156286381606
289327000000;107;289327000000;map;27.0468528528;-0.156583917996;0.0;0.0;0.0;-0.00101855940311;0.999999481268;0.0098429183613;0.0011932561203;0.0;0.0;0.0;0.0;0.0011932561203;0.00509279837807;0.0;0.0;0.0;0.0;0.0;0.0;0.0;0.0;0.0;0.0;0.0;0.0;0.0;0.0;0.0;0.0;0.0;0.0;0.0;0.0;0.0;0.0;0.0;0.0;0.0;0.0;0.0;0.00159930625268
289832000000;108;289832000000;map;27.3006406961;-0.155936470072;0.0;0.0;0.0;-0.000719721744151;0.999999741;0.00985471662625;0.00126037373654;0.0;0.0;0.0;0.0;0.00126037373654;0.00498755868304;0.0;0.0;0.0;0.0;0.0;0.0;0.0;0.0;0.0;0.0;0.0;0.0;0.0;0.0;0.0;0.0;0.0;0.0;0.0;0.0;0.0;0.0;0.0;0.0;0.0;0.0;0.0;0.00154277427619
290333000000;109;290333000000;map;27.5522616265;-0.155593572146;0.0;0.0;0.0;-0.000451801163049;0.999999897938;0.00997178327009;0.0012187539754;0.0;0.0;0.0;0.0;0.0012187539754;0.0050672745971;0.0;0.0;0.0;0.0;0.0;0.0;0.0;0.0;0.0;0.0;0.0;0.0;0.0;0.0;0.0;0.0;0.0;0.0;0.0;0.0;0.0;0.0;0.0;0.0;0.0;0.0;0.0;0.00149372282295
290834000000;110;290834000000;map;27.8037355746;-0.153958353826;0.0;0.0;0.0;-0.000270865647872;0.999999963316;0.00989836391761;0.00128877206357;0.0;0.0;0.0;0.0;0.00128877206357;0.00518233681781;0.0;0.0;0.0;0.0;0.0;0.0;0.0;0.0;0.0;0.0;0.0;0.0;0.0;0.0;0.0;0.0;0.0;0.0;0.0;0.0;0.0;0.0;0.0;0.0;0.0;0.0;0.0;0.00153832959287
291351000000;111;291351000000;map;28.0629440763;-0.15422769776;0.0;0.0;0.0;-0.000111853901223;0.999999993744;0.00979364005468;0.00144119484571;0.0;0.0;0.0;0.0;0.00144119484571;0.00522214532625;0.0;0.0;0.0;0.0;0.0;0.0;0.0;0.0;0.0;0.0;0.0;0.0;0.0;0.0;0.0;0.0;0.0;0.0;0.0;0.0;0.0;0.0;0.0;0.0;0.0;0.0;0.0;0.00157169650706
291870000000;112;291870000000;map;28.3228515874;-0.153246613494;0.0;0.0;0.0;-0.000166697336224;0.999999986106;0.00998761265612;0.00143077899321;0.0;0.0;0.0;0.0;0.00143077899321;0.00526563661593;0.0;0.0;0.0;0.0;0.0;0.0;0.0;0.0;0.0;0.0;0.0;0.0;0.0;0.0;0.0;0.0;0.0;0.0;0.0;0.0;0.0;0.0;0.0;0.0;0.0;0.0;0.0;0.00160006175952
292376000000;113;292376000000;map;28.5758166301;-0.152081239385;0.0;0.0;0.0;0.00012510052741;0.999999992175;0.010059275952;0.00142502990565;0.0;0.0;0.0;0.0;0.00142502990565;0.00535199414799;0.0;0.0;0.0;0.0;0.0;0.0;0.0;0.0;0.0;0.0;0.0;0.0;0.0;0.0;0.0;0.0;0.0;0.0;0.0;0.0;0.0;0.0;0.0;0.0;0.0;0.0;0.0;0.00153838262757
292886000000;114;292886000000;map;28.8317920212;-0.150820896648;0.0;0.0;0.0;0.000501534084623;0.999999874232;0.010151373422;0.00149258739167;0.0;0.0;0.0;0.0;0.00149258739167;0.00537451986808;0.0;0.0;0.0;0.0;0.0;0.0;0.0;0.0;0.0;0.0;0.0;0.0;0.0;0.0;0.0;0.0;0.0;0.0;0.0;0.0;0.0;0.0;0.0;0.0;0.0;0.0;0.0;0.00148001818589
293398000000;115;293398000000;map;29.0874993066;-0.149170682077;0.0;0.0;0.0;0.000589496799343;0.999999826247;0.0102004081732;0.00147673774596;0.0;0.0;0.0;0.0;0.00147673774596;0.00547924379384;0.0;0.0;0.0;0.0;0.0;0.0;0.0;0.0;0.0;0.0;0.0;0.0;0.0;0.0;0.0;0.0;0.0;0.0;0.0;0.0;0.0;0.0;0.0;0.0;0.0;0.0;0.0;0.00150886116734
293918000000;116;293918000000;map;29.3486068845;-0.146516966842;0.0;0.0;0.0;0.000814658235614;0.999999668166;0.0102000499003;0.00127783180989;0.0;0.0;0.0;0.0;0.00127783180989;0.00541800283024;0.0;0.0;0.0;0.0;0.0;0.0;0.0;0.0;0.0;0.0;0.0;0.0;0.0;0.0;0.0;0.0;0.0;0.0;0.0;0.0;0.0;0.0;0.0;0.0;0.0;0.0;0.0;0.00151780470782
294420000000;117;294420000000;map;29.6012796754;-0.144343848944;0.0;0.0;0.0;0.00071584866314;0.99999974378;0.0106457647676;0.00133706742788;0.0;0.0;0.0;0.0;0.00133706742788;0.00541340562783;0.0;0.0;0.0;0.0;0.0;0.0;0.0;0.0;0.0;0.0;0.0;0.0;0.0;0.0;0.0;0.0;0.0;0.0;0.0;0.0;0.0;0.0;0.0;0.0;0.0;0.0;0.0;0.00148190529874
294940000000;118;294940000000;map;29.8600045114;-0.143733735288;0.0;0.0;0.0;0.00101206215632;0.999999487865;0.0106263171672;0.00125307526144;0.0;0.0;0.0;0.0;0.00125307526144;0.00547013704426;0.0;0.0;0.0;0.0;0.0;0.0;0.0;0.0;0.0;0.0;0.0;0.0;0.0;0.0;0.0;0.0;0.0;0.0;0.0;0.0;0.0;0.0;0.0;0.0;0.0;0.0;0.0;0.00152464719183
295441000000;119;295441000000;map;30.1112519385;-0.143216220453;0.0;0.0;0.0;0.000831920197578;0.999999653954;0.0104623756725;0.00113547141129;0.0;0.0;0.0;0.0;0.00113547141129;0.00548341361462;0.0;0.0;0.0;0.0;0.0;0.0;0.0;0.0;0.0;0.0;0.0;0.0;0.0;0.0;0.0;0.0;0.0;0.0;0.0;0.0;0.0;0.0;0.0;0.0;0.0;0.0;0.0;0.00145521875452
295943000000;120;295943000000;map;30.3622358972;-0.141670146176;0.0;0.0;0.0;0.000693883075928;0.999999759263;0.010648833469;0.00111808126052;0.0;0.0;0.0;0.0;0.00111808126052;0.0055143573659;0.0;0.0;0.0;0.0;0.0;0.0;0.0;0.0;0.0;0.0;0.0;0.0;0.0;0.0;0.0;0.0;0.0;0.0;0.0;0.0;0.0;0.0;0.0;0.0;0.0;0.0;0.0;0.00150605559964
296452000000;121;296452000000;map;30.6177785711;-0.140508832893;0.0;0.0;0.0;0.00086018874788;0.999999630038;0.0107954181907;0.00116596242843;0.0;0.0;0.0;0.0;0.00116596242843;0.00556106378439;0.0;0.0;0.0;0.0;0.0;0.0;0.0;0.0;0.0;0.0;0.0;0.0;0.0;0.0;0.0;0.0;0.0;0.0;0.0;0.0;0.0;0.0;0.0;0.0;0.0;0.0;0.0;0.00157541532442
296959000000;122;296959000000;map;30.8739733693;-0.137954934382;0.0;0.0;0.0;0.000445267466791;0.999999900868;0.0110675015434;0.00125759295349;0.0;0.0;0.0;0.0;0.00125759295349;0.00559237410126;0.0;0.0;0.0;0.0;0.0;0.0;0.0;0.0;0.0;0.0;0.0;0.0;0.0;0.0;0.0;0.0;0.0;0.0;0.0;0.0;0.0;0.0;0.0;0.0;0.0;0.0;0.0;0.00152564992926
297461000000;123;297461000000;map;31.12485672;-0.135757195263;0.0;0.0;0.0;0.000544591265782;0.99999985171;0.0111401107649;0.00125620087953;0.0;0.0;0.0;0.0;0.00125620087953;0.00568066125181;0.0;0.0;0.0;0.0;0.0;0.0;0.0;0.0;0.0;0.0;0.0;0.0;0.0;0.0;0.0;0.0;0.0;0.0;0.0;0.0;0.0;0.0;0.0;0.0;0.0;0.0;0.0;0.00146761566435
297964000000;124;297964000000;map;31.3769290575;-0.132125378604;0.0;0.0;0.0;0.00125304503507;0.999999214939;0.0113565609697;0.00120790189457;0.0;0.0;0.0;0.0;0.00120790189457;0.00557774438061;0.0;0.0;0.0;0.0;0.0;0.0;0.0;0.0;0.0;0.0;0.0;0.0;0.0;0.0;0.0;0.0;0.0;0.0;0.0;0.0;0.0;0.0;0.0;0.0;0.0;0.0;0.0;0.00143467664275
298474000000;125;298474000000;map;31.6324731922;-0.131138436247;0.0;0.0;0.0;0.0013961749697;0.999999025347;0.0115729266831;0.00127027602249;0.0;0.0;0.0;0.0;0.00127027602249;0.00552576550793;0.0;0.0;0.0;0.0;0.0;0.0;0.0;0.0;0.0;0.0;0.0;0.0;0.0;0.0;0.0;0.0;0.0;0.0;0.0;0.0;0.0;0.0;0.0;0.0;0.0;0.0;0.0;0.0014940752145
298980000000;126;298980000000;map;31.8853165347;-0.129489889385;0.0;0.0;0.0;0.00153164478435;0.999998827031;0.0118732415334;0.00129734849827;0.0;0.0;0.0;0.0;0.00129734849827;0.00557215480285;0.0;0.0;0.0;0.0;0.0;0.0;0.0;0.0;0.0;0.0;0.0;0.0;0.0;0.0;0.0;0.0;0.0;0.0;0.0;0.0;0.0;0.0;0.0;0.0;0.0;0.0;0.0;0.00153337562354
299499000000;127;299499000000;map;32.1456827916;-0.128648455607;0.0;0.0;0.0;0.00115519904802;0.999999332757;0.0120650700705;0.00125955911257;0.0;0.0;0.0;0.0;0.00125955911257;0.00544873942757;0.0;0.0;0.0;0.0;0.0;0.0;0.0;0.0;0.0;0.0;0.0;0.0;0.0;0.0;0.0;0.0;0.0;0.0;0.0;0.0;0.0;0.0;0.0;0.0;0.0;0.0;0.0;0.00157405271308
300000000000;128;300000000000;map;32.3970649067;-0.127583795558;0.0;0.0;0.0;0.00132322246404;0.999999124541;0.0123353743522;0.00116820562479;0.0;0.0;0.0;0.0;0.00116820562479;0.00540699874037;0.0;0.0;0.0;0.0;0.0;0.0;0.0;0.0;0.0;0.0;0.0;0.0;0.0;0.0;0.0;0.0;0.0;0.0;0.0;0.0;0.0;0.0;0.0;0.0;0.0;0.0;0.0;0.00155748817641
300502000000;129;300502000000;map;32.6488707709;-0.127487173064;0.0;0.0;0.0;0.00116191024325;0.999999324982;0.0124414320264;0.00113861871996;0.0;0.0;0.0;0.0;0.00113861871996;0.00549452728829;0.0;0.0;0.0;0.0;0.0;0.0;0.0;0.0;0.0;0.0;0.0;0.0;0.0;0.0;0.0;0.0;0.0;0.0;0.0;0.0;0.0;0.0;0.0;0.0;0.0;0.0;0.0;0.00156065972299
301006000000;130;301006000000;map;32.9034072969;-0.127095352438;0.0;0.0;0.0;0.00122460150113;0.999999250175;0.0126582210196;0.00106483624647;0.0;0.0;0.0;0.0;0.00106483624647;0.00547635733235;0.0;0.0;0.0;0.0;0.0;0.0;0.0;0.0;0.0;0.0;0.0;0.0;0.0;0.0;0.0;0.0;0.0;0.0;0.0;0.0;0.0;0.0;0.0;0.0;0.0;0.0;0.0;0.00155102560702
301515000000;131;301515000000;map;33.1580306543;-0.125673933504;0.0;0.0;0.0;0.000901901285666;0.999999593287;0.0127754227331;0.000994395764628;0.0;0.0;0.0;0.0;0.000994395764628;0.00533263168029;0.0;0.0;0.0;0.0;0.0;0.0;0.0;0.0;0.0;0.0;0.0;0.0;0.0;0.0;0.0;0.0;0.0;0.0;0.0;0.0;0.0;0.0;0.0;0.0;0.0;0.0;0.0;0.00154046432567
302018000000;132;302018000000;map;33.408656966;-0.124944285973;0.0;0.0;0.0;0.00094335771838;0.999999555038;0.0127040644898;0.000942263335163;0.0;0.0;0.0;0.0;0.000942263335163;0.00526908489942;0.0;0.0;0.0;0.0;0.0;0.0;0.0;0.0;0.0;0.0;0.0;0.0;0.0;0.0;0.0;0.0;0.0;0.0;0.0;0.0;0.0;0.0;0.0;0.0;0.0;0.0;0.0;0.00152859789303
302529000000;133;302529000000;map;33.6647075425;-0.124226486444;0.0;0.0;0.0;0.00101372079849;0.999999486185;0.0126815669578;0.000769078642662;0.0;0.0;0.0;0.0;0.000769078642662;0.00517364652542;0.0;0.0;0.0;0.0;0.0;0.0;0.0;0.0;0.0;0.0;0.0;0.0;0.0;0.0;0.0;0.0;0.0;0.0;0.0;0.0;0.0;0.0;0.0;0.0;0.0;0.0;0.0;0.00154946563843
303031000000;134;303031000000;map;33.9156778024;-0.122614504244;0.0;0.0;0.0;0.000850445733138;0.999999638371;0.0125536100857;0.000736257061567;0.0;0.0;0.0;0.0;0.000736257061567;0.00517322459109;0.0;0.0;0.0;0.0;0.0;0.0;0.0;0.0;0.0;0.0;0.0;0.0;0.0;0.0;0.0;0.0;0.0;0.0;0.0;0.0;0.0;0.0;0.0;0.0;0.0;0.0;0.0;0.0015527685276
303533000000;135;303533000000;map;34.1670662179;-0.121385693357;0.0;0.0;0.0;0.00101909778078;0.99999948072;0.012922113325;0.0007962694638;0.0;0.0;0.0;0.0;0.0007962694638;0.00521851250234;0.0;0.0;0.0;0.0;0.0;0.0;0.0;0.0;0.0;0.0;0.0;0.0;0.0;0.0;0.0;0.0;0.0;0.0;0.0;0.0;0.0;0.0;0.0;0.0;0.0;0.0;0.0;0.00163667817876
304033000000;136;304033000000;map;34.415683974;-0.12071753386;0.0;0.0;0.0;0.000437257602456;0.999999904403;0.0131089288236;0.000562434495394;0.0;0.0;0.0;0.0;0.000562434495394;0.00513824588633;0.0;0.0;0.0;0.0;0.0;0.0;0.0;0.0;0.0;0.0;0.0;0.0;0.0;0.0;0.0;0.0;0.0;0.0;0.0;0.0;0.0;0.0;0.0;0.0;0.0;0.0;0.0;0.00158373565262
304537000000;137;304537000000;map;34.6674260909;-0.119781046566;0.0;0.0;0.0;0.000527569262586;0.999999860835;0.0134017352409;0.000570346872923;0.0;0.0;0.0;0.0;0.000570346872923;0.00523218738206;0.0;0.0;0.0;0.0;0.0;0.0;0.0;0.0;0.0;0.0;0.0;0.0;0.0;0.0;0.0;0.0;0.0;0.0;0.0;0.0;0.0;0.0;0.0;0.0;0.0;0.0;0.0;0.00161767869852
305043000000;138;305043000000;map;34.9219921736;-0.117587092378;0.0;0.0;0.0;0.000703633880808;0.99999975245;0.0134253412609;0.000508643903262;0.0;0.0;0.0;0.0;0.000508643903262;0.00529309399867;0.0;0.0;0.0;0.0;0.0;0.0;0.0;0.0;0.0;0.0;0.0;0.0;0.0;0.0;0.0;0.0;0.0;0.0;0.0;0.0;0.0;0.0;0.0;0.0;0.0;0.0;0.0;0.00157312210272
305545000000;139;305545000000;map;35.1747561883;-0.11498421483;0.0;0.0;0.0;0.000697384232907;0.999999756828;0.0136184336732;0.000581372872566;0.0;0.0;0.0;0.0;0.000581372872566;0.00522107473229;0.0;0.0;0.0;0.0;0.0;0.0;0.0;0.0;0.0;0.0;0.0;0.0;0.0;0.0;0.0;0.0;0.0;0.0;0.0;0.0;0.0;0.0;0.0;0.0;0.0;0.0;0.0;0.00161466553555
306048000000;140;306048000000;map;35.4262855157;-0.113479051685;0.0;0.0;0.0;0.000842543548474;0.99999964506;0.013373119071;0.000716975022052;0.0;0.0;0.0;0.0;0.000716975022052;0.00525084412288;0.0;0.0;0.0;0.0;0.0;0.0;0.0;0.0;0.0;0.0;0.0;0.0;0.0;0.0;0.0;0.0;0.0;0.0;0.0;0.0;0.0;0.0;0.0;0.0;0.0;0.0;0.0;0.00157248944406
306549000000;141;306549000000;map;35.6809103328;-0.112835390311;0.0;0.0;0.0;0.000807651943903;0.999999673849;0.0133670118355;0.00070375961529;0.0;0.0;0.0;0.0;0.000703759615291;0.00531873134481;0.0;0.0;0.0;0.0;0.0;0.0;0.0;0.0;0.0;0.0;0.0;0.0;0.0;0.0;0.0;0.0;0.0;0.0;0.0;0.0;0.0;0.0;0.0;0.0;0.0;0.0;0.0;0.00163293243335
307055000000;142;307055000000;map;35.9337594705;-0.111353395823;0.0;0.0;0.0;0.000794324358211;0.999999684524;0.0130633143267;0.000806418161711;0.0;0.0;0.0;0.0;0.000806418161712;0.00547915716734;0.0;0.0;0.0;0.0;0.0;0.0;0.0;0.0;0.0;0.0;0.0;0.0;0.0;0.0;0.0;0.0;0.0;0.0;0.0;0.0;0.0;0.0;0.0;0.0;0.0;0.0;0.0;0.00165004782902
307556000000;143;307556000000;map;36.1862633227;-0.109573049683;0.0;0.0;0.0;0.00121209217211;0.999999265416;0.0131267585646;0.000914683030617;0.0;0.0;0.0;0.0;0.000914683030617;0.00547594769206;0.0;0.0;0.0;0.0;0.0;0.0;0.0;0.0;0.0;0.0;0.0;0.0;0.0;0.0;0.0;0.0;0.0;0.0;0.0;0.0;0.0;0.0;0.0;0.0;0.0;0.0;0.0;0.00170148620979
308056000000;144;308056000000;map;36.435936566;-0.10844485068;0.0;0.0;0.0;0.00108266684034;0.999999413916;0.0130487455119;0.00101349992196;0.0;0.0;0.0;0.0;0.00101349992196;0.00572226132215;0.0;0.0;0.0;0.0;0.0;0.0;0.0;0.0;0.0;0.0;0.0;0.0;0.0;0.0;0.0;0.0;0.0;0.0;0.0;0.0;0.0;0.0;0.0;0.0;0.0;0.0;0.0;0.00171843874355
308564000000;145;308564000000;map;36.6907311927;-0.10577610852;0.0;0.0;0.0;0.00106746611943;0.999999430258;0.0129826829104;0.00101063232709;0.0;0.0;0.0;0.0;0.00101063232709;0.00581910099823;0.0;0.0;0.0;0.0;0.0;0.0;0.0;0.0;0.0;0.0;0.0;0.0;0.0;0.0;0.0;0.0;0.0;0.0;0.0;0.0;0.0;0.0;0.0;0.0;0.0;0.0;0.0;0.00167955125405
309073000000;146;309073000000;map;36.9476541864;-0.103621914093;0.0;0.0;0.0;0.0014764459374;0.999998910053;0.0127234403487;0.00102802494149;0.0;0.0;0.0;0.0;0.00102802494149;0.00587897907006;0.0;0.0;0.0;0.0;0.0;0.0;0.0;0.0;0.0;0.0;0.0;0.0;0.0;0.0;0.0;0.0;0.0;0.0;0.0;0.0;0.0;0.0;0.0;0.0;0.0;0.0;0.0;0.00165815295679
310040000000;147;310040000000;map;37.0006947865;-0.103178230199;0.0;0.0;0.0;0.101981666974;0.994786278354;0.0123282743762;0.000987964739461;0.0;0.0;0.0;0.0;0.000987964739461;0.00536834279213;0.0;0.0;0.0;0.0;0.0;0.0;0.0;0.0;0.0;0.0;0.0;0.0;0.0;0.0;0.0;0.0;0.0;0.0;0.0;0.0;0.0;0.0;0.0;0.0;0.0;0.0;0.0;0.00145753661965
310925000000;148;310925000000;map;37.0011961921;-0.103465271427;0.0;0.0;0.0;0.203135117443;0.979150715703;0.0123173283732;0.00083049438368;0.0;0.0;0.0;0.0;0.00083049438368;0.0047185376941;0.0;0.0;0.0;0.0;0.0;0.0;0.0;0.0;0.0;0.0;0.0;0.0;0.0;0.0;0.0;0.0;0.0;0.0;0.0;0.0;0.0;0.0;0.0;0.0;0.0;0.0;0.0;0.00131073008874
311829000000;149;311829000000;map;37.0015402277;-0.101970526789;0.0;0.0;0.0;0.301827630343;0.953362513193;0.0121512770261;0.000863661397226;0.0;0.0;0.0;0.0;0.000863661397226;0.00426692422563;0.0;0.0;0.0;0.0;0.0;0.0;0.0;0.0;0.0;0.0;0.0;0.0;0.0;0.0;0.0;0.0;0.0;0.0;0.0;0.0;0.0;0.0;0.0;0.0;0.0;0.0;0.0;0.00117441654783
312721000000;150;312721000000;map;37.0045043668;-0.100687347922;0.0;0.0;0.0;0.39565160693;0.918400678317;0.0120825394367;0.000838624502452;0.0;0.0;0.0;0.0;0.000838624502452;0.00383419787368;0.0;0.0;0.0;0.0;0.0;0.0;0.0;0.0;0.0;0.0;0.0;0.0;0.0;0.0;0.0;0.0;0.0;0.0;0.0;0.0;0.0;0.0;0.0;0.0;0.0;0.0;0.0;0.00107030463579
313619000000;151;313619000000;map;37.0056668819;-0.0995395612361;0.0;0.0;0.0;0.486769813118;0.873530279405;0.0119977508809;0.000820242702819;0.0;0.0;0.0;0.0;0.000820242702819;0.00363730763174;0.0;0.0;0.0;0.0;0.0;0.0;0.0;0.0;0.0;0.0;0.0;0.0;0.0;0.0;0.0;0.0;0.0;0.0;0.0;0.0;0.0;0.0;0.0;0.0;0.0;0.0;0.0;0.000987901103446
314483000000;152;314483000000;map;37.008109671;-0.097352562668;0.0;0.0;0.0;0.573467168246;0.81922854378;0.0119161033917;0.00078042033049;0.0;0.0;0.0;0.0;0.00078042033049;0.00354583161545;0.0;0.0;0.0;0.0;0.0;0.0;0.0;0.0;0.0;0.0;0.0;0.0;0.0;0.0;0.0;0.0;0.0;0.0;0.0;0.0;0.0;0.0;0.0;0.0;0.0;0.0;0.0;0.000955365996921
315346000000;153;315346000000;map;37.0097060047;-0.0952473361729;0.0;0.0;0.0;0.654018069052;0.756478925915;0.0118561812196;0.000763680458977;0.0;0.0;0.0;0.0;0.000763680458977;0.0034242563445;0.0;0.0;0.0;0.0;0.0;0.0;0.0;0.0;0.0;0.0;0.0;0.0;0.0;0.0;0.0;0.0;0.0;0.0;0.0;0.0;0.0;0.0;0.0;0.0;0.0;0.0;0.0;0.000906075358269
316210000000;154;316210000000;map;37.0125786766;-0.0919070925202;0.0;0.0;0.0;0.727838353158;0.685748738003;0.0119767775041;0.00076956130752;0.0;0.0;0.0;0.0;0.00076956130752;0.00320245395394;0.0;0.0;0.0;0.0;0.0;0.0;0.0;0.0;0.0;0.0;0.0;0.0;0.0;0.0;0.0;0.0;0.0;0.0;0.0;0.0;0.0;0.0;0.0;0.0;0.0;0.0;0.0;0.000907270297008
317157000000;155;317157000000;map;36.9939541236;0.169753755769;0.0;0.0;0.0;0.735985081487;0.676997754671;0.0113832538459;0.00054561163713;0.0;0.0;0.0;0.0;0.000545611637131;0.00323181128869;0.0;0.0;0.0;0.0;0.0;0.0;0.0;0.0;0.0;0.0;0.0;0.0;0.0;0.0;0.0;0.0;0.0;0.0;0.0;0.0;0.0;0.0;0.0;0.0;0.0;0.0;0.0;0.00112446195851
317666000000;156;317666000000;map;36.9760474746;0.424803369658;0.0;0.0;0.0;0.735836021126;0.677159766978;0.0113287967381;0.000451756076767;0.0;0.0;0.0;0.0;0.000451756076767;0.00329344643508;0.0;0.0;0.0;0.0;0.0;0.0;0.0;0.0;0.0;0.0;0.0;0.0;0.0;0.0;0.0;0.0;0.0;0.0;0.0;0.0;0.0;0.0;0.0;0.0;0.0;0.0;0.0;0.00125052947705
318168000000;157;318168000000;map;36.9590589631;0.676115800353;0.0;0.0;0.0;0.735720226254;0.677285573951;0.0114542043382;0.000385331920555;0.0;0.0;0.0;0.0;0.000385331920548;0.00333813050804;0.0;0.0;0.0;0.0;0.0;0.0;0.0;0.0;0.0;0.0;0.0;0.0;0.0;0.0;0.0;0.0;0.0;0.0;0.0;0.0;0.0;0.0;0.0;0.0;0.0;0.0;0.0;0.00136921731434
318674000000;158;318674000000;map;36.9417573993;0.929963008254;0.0;0.0;0.0;0.735487049685;0.67753878099;0.0115776220157;0.000341888892585;0.0;0.0;0.0;0.0;0.000341888892585;0.00339824581414;0.0;0.0;0.0;0.0;0.0;0.0;0.0;0.0;0.0;0.0;0.0;0.0;0.0;0.0;0.0;0.0;0.0;0.0;0.0;0.0;0.0;0.0;0.0;0.0;0.0;0.0;0.0;0.00139776403105
319177000000;159;319177000000;map;36.9246772795;1.18166963087;0.0;0.0;0.0;0.735021248544;0.678044072453;0.0119136861679;0.000347195957062;0.0;0.0;0.0;0.0;0.000347195957062;0.0033372347282;0.0;0.0;0.0;0.0;0.0;0.0;0.0;0.0;0.0;0.0;0.0;0.0;0.0;0.0;0.0;0.0;0.0;0.0;0.0;0.0;0.0;0.0;0.0;0.0;0.0;0.0;0.0;0.00144768110955
319680000000;160;319680000000;map;36.9059834101;1.43371443226;0.0;0.0;0.0;0.73489831841;0.678177308378;0.0122850804239;0.000415674909853;0.0;0.0;0.0;0.0;0.000415674909839;0.00328112604099;0.0;0.0;0.0;0.0;0.0;0.0;0.0;0.0;0.0;0.0;0.0;0.0;0.0;0.0;0.0;0.0;0.0;0.0;0.0;0.0;0.0;0.0;0.0;0.0;0.0;0.0;0.0;0.00140200579375
320184000000;161;320184000000;map;36.8885459404;1.68786689386;0.0;0.0;0.0;0.73489013091;0.678186180551;0.0124783639137;0.000426303928833;0.0;0.0;0.0;0.0;0.000426303928833;0.00320746741268;0.0;0.0;0.0;0.0;0.0;0.0;0.0;0.0;0.0;0.0;0.0;0.0;0.0;0.0;0.0;0.0;0.0;0.0;0.0;0.0;0.0;0.0;0.0;0.0;0.0;0.0;0.0;0.00140564454771
320687000000;162;320687000000;map;36.873592245;1.93982689474;0.0;0.0;0.0;0.73454175629;0.678563488751;0.0126679624286;0.000377464679957;0.0;0.0;0.0;0.0;0.000377464679943;0.00318405165231;0.0;0.0;0.0;0.0;0.0;0.0;0.0;0.0;0.0;0.0;0.0;0.0;0.0;0.0;0.0;0.0;0.0;0.0;0.0;0.0;0.0;0.0;0.0;0.0;0.0;0.0;0.0;0.00140859392714
322655000000;163;322655000000;map;36.8696244139;2.19267233339;0.0;0.0;0.0;0.702006159748;0.712170872527;0.0126602230685;0.000348881742255;0.0;0.0;0.0;0.0;0.000348881742241;0.00316865493089;0.0;0.0;0.0;0.0;0.0;0.0;0.0;0.0;0.0;0.0;0.0;0.0;0.0;0.0;0.0;0.0;0.0;0.0;0.0;0.0;0.0;0.0;0.0;0.0;0.0;0.0;0.0;0.00142521709794
323163000000;164;323163000000;map;36.8781448366;2.4476856844;0.0;0.0;0.0;0.701988533211;0.712188247053;0.0124253527727;0.000340782635462;0.0;0.0;0.0;0.0;0.000340782635448;0.00318249818561;0.0;0.0;0.0;0.0;0.0;0.0;0.0;0.0;0.0;0.0;0.0;0.0;0.0;0.0;0.0;0.0;0.0;0.0;0.0;0.0;0.0;0.0;0.0;0.0;0.0;0.0;0.0;0.00137922080352
323682000000;165;323682000000;map;36.8846195213;2.70750312029;0.0;0.0;0.0;0.702040991698;0.712136536049;0.0121486481492;0.000276086158337;0.0;0.0;0.0;0.0;0.000276086158337;0.00320788949669;0.0;0.0;0.0;0.0;0.0;0.0;0.0;0.0;0.0;0.0;0.0;0.0;0.0;0.0;0.0;0.0;0.0;0.0;0.0;0.0;0.0;0.0;0.0;0.0;0.0;0.0;0.0;0.0013643367834
324185000000;166;324185000000;map;36.8908968731;2.96051581236;0.0;0.0;0.0;0.702123793001;0.712054899079;0.0117886599928;0.000308497623706;0.0;0.0;0.0;0.0;0.000308497623692;0.0031778912927;0.0;0.0;0.0;0.0;0.0;0.0;0.0;0.0;0.0;0.0;0.0;0.0;0.0;0.0;0.0;0.0;0.0;0.0;0.0;0.0;0.0;0.0;0.0;0.0;0.0;0.0;0.0;0.00135211401173
324687000000;167;324687000000;map;36.8962071892;3.21349517999;0.0;0.0;0.0;0.70223730533;0.711942952071;0.0119237674439;0.000150102893883;0.0;0.0;0.0;0.0;0.000150102893883;0.00321748480928;0.0;0.0;0.0;0.0;0.0;0.0;0.0;0.0;0.0;0.0;0.0;0.0;0.0;0.0;0.0;0.0;0.0;0.0;0.0;0.0;0.0;0.0;0.0;0.0;0.0;0.0;0.0;0.00129960183558
325208000000;168;325208000000;map;36.9033423619;3.47529600093;0.0;0.0;0.0;0.702528700179;0.711655411997;0.0115677641959;9.59195613461e-05;0.0;0.0;0.0;0.0;9.59195613461e-05;0.00323866329614;0.0;0.0;0.0;0.0;0.0;0.0;0.0;0.0;0.0;0.0;0.0;0.0;0.0;0.0;0.0;0.0;0.0;0.0;0.0;0.0;0.0;0.0;0.0;0.0;0.0;0.0;0.0;0.0012559204116
325727000000;169;325727000000;map;36.9082529617;3.73649296638;0.0;0.0;0.0;0.702331580741;0.711849949564;0.0111771163122;4.33357642464e-05;0.0;0.0;0.0;0.0;4.33357642464e-05;0.00328109604081;0.0;0.0;0.0;0.0;0.0;0.0;0.0;0.0;0.0;0.0;0.0;0.0;0.0;0.0;0.0;0.0;0.0;0.0;0.0;0.0;0.0;0.0;0.0;0.0;0.0;0.0;0.0;0.00127143088479
326229000000;170;326229000000;map;36.9140762586;3.98857916921;0.0;0.0;0.0;0.702343249507;0.711838436636;0.0109497741657;2.04133737327e-05;0.0;0.0;0.0;0.0;2.04133737327e-05;0.00334432829205;0.0;0.0;0.0;0.0;0.0;0.0;0.0;0.0;0.0;0.0;0.0;0.0;0.0;0.0;0.0;0.0;0.0;0.0;0.0;0.0;0.0;0.0;0.0;0.0;0.0;0.0;0.0;0.00126063794692
326738000000;171;326738000000;map;36.9192678004;4.24423993827;0.0;0.0;0.0;0.702487983059;0.711695604636;0.0109036041072;-2.39103508761e-05;0.0;0.0;0.0;0.0;-2.39103508761e-05;0.0033723629654;0.0;0.0;0.0;0.0;0.0;0.0;0.0;0.0;0.0;0.0;0.0;0.0;0.0;0.0;0.0;0.0;0.0;0.0;0.0;0.0;0.0;0.0;0.0;0.0;0.0;0.0;0.0;0.00132086434752
327258000000;172;327258000000;map;36.924420788;4.50618587143;0.0;0.0;0.0;0.702797224097;0.71139023173;0.0109343367531;7.14594487761e-05;0.0;0.0;0.0;0.0;7.14594487761e-05;0.00343288823092;0.0;0.0;0.0;0.0;0.0;0.0;0.0;0.0;0.0;0.0;0.0;0.0;0.0;0.0;0.0;0.0;0.0;0.0;0.0;0.0;0.0;0.0;0.0;0.0;0.0;0.0;0.0;0.00135827725608
327763000000;173;327763000000;map;36.9294511161;4.76053493448;0.0;0.0;0.0;0.703154455161;0.711037138402;0.0108197854654;8.42994896288e-05;0.0;0.0;0.0;0.0;8.42994896288e-05;0.0034601302863;0.0;0.0;0.0;0.0;0.0;0.0;0.0;0.0;0.0;0.0;0.0;0.0;0.0;0.0;0.0;0.0;0.0;0.0;0.0;0.0;0.0;0.0;0.0;0.0;0.0;0.0;0.0;0.00138842821227
328282000000;174;328282000000;map;36.932765664;5.0219043744;0.0;0.0;0.0;0.703172346759;0.711019444709;0.0107687267816;5.71467966779e-05;0.0;0.0;0.0;0.0;5.71467967063e-05;0.00345068728089;0.0;0.0;0.0;0.0;0.0;0.0;0.0;0.0;0.0;0.0;0.0;0.0;0.0;0.0;0.0;0.0;0.0;0.0;0.0;0.0;0.0;0.0;0.0;0.0;0.0;0.0;0.0;0.00142593193227
328787000000;175;328787000000;map;36.9372270937;5.27459828927;0.0;0.0;0.0;0.70331682653;0.710876530432;0.01051704981;-4.1740233371e-05;0.0;0.0;0.0;0.0;-4.1740233371e-05;0.00344414107101;0.0;0.0;0.0;0.0;0.0;0.0;0.0;0.0;0.0;0.0;0.0;0.0;0.0;0.0;0.0;0.0;0.0;0.0;0.0;0.0;0.0;0.0;0.0;0.0;0.0;0.0;0.0;0.00143894392644
329288000000;176;329288000000;map;36.9399286483;5.5257586777;0.0;0.0;0.0;0.703475796017;0.7107192163;0.0105572453601;-0.000119855161387;0.0;0.0;0.0;0.0;-0.000119855161358;0.00345964573994;0.0;0.0;0.0;0.0;0.0;0.0;0.0;0.0;0.0;0.0;0.0;0.0;0.0;0.0;0.0;0.0;0.0;0.0;0.0;0.0;0.0;0.0;0.0;0.0;0.0;0.0;0.0;0.00146274885325
329789000000;177;329789000000;map;36.9451653884;5.77607397994;0.0;0.0;0.0;0.703298586543;0.710894575986;0.0105748112019;1.20317312735e-06;0.0;0.0;0.0;0.0;1.20317315577e-06;0.00352131950459;0.0;0.0;0.0;0.0;0.0;0.0;0.0;0.0;0.0;0.0;0.0;0.0;0.0;0.0;0.0;0.0;0.0;0.0;0.0;0.0;0.0;0.0;0.0;0.0;0.0;0.0;0.0;0.00155849784134
330294000000;178;330294000000;map;36.9490199067;6.02815554571;0.0;0.0;0.0;0.703523202736;0.710672289605;0.0106771183212;4.4052618307e-05;0.0;0.0;0.0;0.0;4.4052618307e-05;0.0034709166727;0.0;0.0;0.0;0.0;0.0;0.0;0.0;0.0;0.0;0.0;0.0;0.0;0.0;0.0;0.0;0.0;0.0;0.0;0.0;0.0;0.0;0.0;0.0;0.0;0.0;0.0;0.0;0.00163290420159
330815000000;179;330815000000;map;36.9497876977;6.28851550831;0.0;0.0;0.0;0.703673529937;0.710523443151;0.0111848030742;6.71824657275e-05;0.0;0.0;0.0;0.0;6.71824657275e-05;0.00361354675566;0.0;0.0;0.0;0.0;0.0;0.0;0.0;0.0;0.0;0.0;0.0;0.0;0.0;0.0;0.0;0.0;0.0;0.0;0.0;0.0;0.0;0.0;0.0;0.0;0.0;0.0;0.0;0.00171256989618
331319000000;180;331319000000;map;36.9555299919;6.53935554184;0.0;0.0;0.0;0.703467874179;0.710727057314;0.0114582377976;-0.000109680520495;0.0;0.0;0.0;0.0;-0.000109680520552;0.003616788539;0.0;0.0;0.0;0.0;0.0;0.0;0.0;0.0;0.0;0.0;0.0;0.0;0.0;0.0;0.0;0.0;0.0;0.0;0.0;0.0;0.0;0.0;0.0;0.0;0.0;0.0;0.0;0.00180286813947
331838000000;181;331838000000;map;36.9606855687;6.79814839603;0.0;0.0;0.0;0.703628496504;0.710568039605;0.0114966246333;-0.000179730763534;0.0;0.0;0.0;0.0;-0.000179730763534;0.00380026080259;0.0;0.0;0.0;0.0;0.0;0.0;0.0;0.0;0.0;0.0;0.0;0.0;0.0;0.0;0.0;0.0;0.0;0.0;0.0;0.0;0.0;0.0;0.0;0.0;0.0;0.0;0.0;0.0019380265893
332339000000;182;332339000000;map;36.9626090949;7.04871435384;0.0;0.0;0.0;0.703783738283;0.710414280353;0.0120083624383;-0.000119949148882;0.0;0.0;0.0;0.0;-0.000119949148882;0.00379400937208;0.0;0.0;0.0;0.0;0.0;0.0;0.0;0.0;0.0;0.0;0.0;0.0;0.0;0.0;0.0;0.0;0.0;0.0;0.0;0.0;0.0;0.0;0.0;0.0;0.0;0.0;0.0;0.00207780820438
332841000000;183;332841000000;map;36.9654283977;7.29932802123;0.0;0.0;0.0;0.703901534917;0.710297563801;0.0121899631692;-0.000192810479177;0.0;0.0;0.0;0.0;-0.000192810479177;0.00386151861478;0.0;0.0;0.0;0.0;0.0;0.0;0.0;0.0;0.0;0.0;0.0;0.0;0.0;0.0;0.0;0.0;0.0;0.0;0.0;0.0;0.0;0.0;0.0;0.0;0.0;0.0;0.0;0.00213058046103
333350000000;184;333350000000;map;36.9695919454;7.55349983631;0.0;0.0;0.0;0.704471146577;0.709732628276;0.0123088032999;-3.98580324372e-05;0.0;0.0;0.0;0.0;-3.98580324372e-05;0.00395291306434;0.0;0.0;0.0;0.0;0.0;0.0;0.0;0.0;0.0;0.0;0.0;0.0;0.0;0.0;0.0;0.0;0.0;0.0;0.0;0.0;0.0;0.0;0.0;0.0;0.0;0.0;0.0;0.00216751525914
333851000000;185;333851000000;map;36.9742117203;7.80259968559;0.0;0.0;0.0;0.704149594517;0.710051652024;0.0123218387146;3.24684568227e-05;0.0;0.0;0.0;0.0;3.24684568227e-05;0.00395020588959;0.0;0.0;0.0;0.0;0.0;0.0;0.0;0.0;0.0;0.0;0.0;0.0;0.0;0.0;0.0;0.0;0.0;0.0;0.0;0.0;0.0;0.0;0.0;0.0;0.0;0.0;0.0;0.00207650096972
334352000000;186;334352000000;map;36.9793013586;8.05162429244;0.0;0.0;0.0;0.70408297342;0.710117713158;0.0120328339958;0.000150115086512;0.0;0.0;0.0;0.0;0.000150115086512;0.00408722833062;0.0;0.0;0.0;0.0;0.0;0.0;0.0;0.0;0.0;0.0;0.0;0.0;0.0;0.0;0.0;0.0;0.0;0.0;0.0;0.0;0.0;0.0;0.0;0.0;0.0;0.0;0.0;0.00201900676373
334857000000;187;334857000000;map;36.982817139;8.30297014518;0.0;0.0;0.0;0.703907191989;0.710291957625;0.0121363995659;-6.60276568851e-05;0.0;0.0;0.0;0.0;-6.6027656942e-05;0.0041742367271;0.0;0.0;0.0;0.0;0.0;0.0;0.0;0.0;0.0;0.0;0.0;0.0;0.0;0.0;0.0;0.0;0.0;0.0;0.0;0.0;0.0;0.0;0.0;0.0;0.0;0.0;0.0;0.00197616157434
335361000000;188;335361000000;map;36.9855161433;8.55411370658;0.0;0.0;0.0;0.703758795442;0.710438989525;0.0118629436072;2.48277444825e-05;0.0;0.0;0.0;0.0;2.48277444825e-05;0.00427118832522;0.0;0.0;0.0;0.0;0.0;0.0;0.0;0.0;0.0;0.0;0.0;0.0;0.0;0.0;0.0;0.0;0.0;0.0;0.0;0.0;0.0;0.0;0.0;0.0;0.0;0.0;0.0;0.00186002909376
335864000000;189;335864000000;map;36.9883113799;8.80444805386;0.0;0.0;0.0;0.704143425432;0.710057769777;0.0117741691975;-3.12718672717e-05;0.0;0.0;0.0;0.0;-3.12718672149e-05;0.0044688912124;0.0;0.0;0.0;0.0;0.0;0.0;0.0;0.0;0.0;0.0;0.0;0.0;0.0;0.0;0.0;0.0;0.0;0.0;0.0;0.0;0.0;0.0;0.0;0.0;0.0;0.0;0.0;0.00187968265033
336367000000;190;336367000000;map;36.9882108828;9.05483839221;0.0;0.0;0.0;0.704491468815;0.709712456117;0.0120617296159;6.34612447925e-05;0.0;0.0;0.0;0.0;6.34612447925e-05;0.00459248118807;0.0;0.0;0.0;0.0;0.0;0.0;0.0;0.0;0.0;0.0;0.0;0.0;0.0;0.0;0.0;0.0;0.0;0.0;0.0;0.0;0.0;0.0;0.0;0.0;0.0;0.0;0.0;0.00186783520159
336871000000;191;336871000000;map;36.9904739364;9.30701400732;0.0;0.0;0.0;0.704669924445;0.709535268738;0.0120176723417;0.000133436155352;0.0;0.0;0.0;0.0;0.000133436155352;0.00480225694089;0.0;0.0;0.0;0.0;0.0;0.0;0.0;0.0;0.0;0.0;0.0;0.0;0.0;0.0;0.0;0.0;0.0;0.0;0.0;0.0;0.0;0.0;0.0;0.0;0.0;0.0;0.0;0.00183014770017
337391000000;192;337391000000;map;36.9944376336;9.56669758755;0.0;0.0;0.0;0.704538068846;0.70966619586;0.0118269906131;0.000239564389119;0.0;0.0;0.0;0.0;0.000239564389062;0.00495954050645;0.0;0.0;0.0;0.0;0.0;0.0;0.0;0.0;0.0;0.0;0.0;0.0;0.0;0.0;0.0;0.0;0.0;0.0;0.0;0.0;0.0;0.0;0.0;0.0;0.0;0.0;0.0;0.00187368273323
337892000000;193;337892000000;map;36.9965275879;9.81577719971;0.0;0.0;0.0;0.704604155266;0.709600580878;0.0116766755555;0.000152526326417;0.0;0.0;0.0;0.0;0.000152526326417;0.00509250414873;0.0;0.0;0.0;0.0;0.0;0.0;0.0;0.0;0.0;0.0;0.0;0.0;0.0;0.0;0.0;0.0;0.0;0.0;0.0;0.0;0.0;0.0;0.0;0.0;0.0;0.0;0.0;0.0018022362804
338393000000;194;338393000000;map;36.9987018521;10.0633981588;0.0;0.0;0.0;0.704776795923;0.709429114097;0.0114736371006;6.594186749e-05;0.0;0.0;0.0;0.0;6.594186749e-05;0.00522762448655;0.0;0.0;0.0;0.0;0.0;0.0;0.0;0.0;0.0;0.0;0.0;0.0;0.0;0.0;0.0;0.0;0.0;0.0;0.0;0.0;0.0;0.0;0.0;0.0;0.0;0.0;0.0;0.00178916508016
338895000000;195;338895000000;map;37.0008393147;10.3137360356;0.0;0.0;0.0;0.704776732928;0.709429176679;0.0115257020511;3.67543782431e-06;0.0;0.0;0.0;0.0;3.67543788116e-06;0.00529026892987;0.0;0.0;0.0;0.0;0.0;0.0;0.0;0.0;0.0;0.0;0.0;0.0;0.0;0.0;0.0;0.0;0.0;0.0;0.0;0.0;0.0;0.0;0.0;0.0;0.0;0.0;0.0;0.00172171464858
339397000000;196;339397000000;map;37.0013270289;10.5626133652;0.0;0.0;0.0;0.704813996333;0.709392155703;0.0113948428325;-9.26122015699e-05;0.0;0.0;0.0;0.0;-9.26122015699e-05;0.00524419135301;0.0;0.0;0.0;0.0;0.0;0.0;0.0;0.0;0.0;0.0;0.0;0.0;0.0;0.0;0.0;0.0;0.0;0.0;0.0;0.0;0.0;0.0;0.0;0.0;0.0;0.0;0.0;0.0016950093734
339908000000;197;339908000000;map;37.0057290458;10.817296694;0.0;0.0;0.0;0.704487759541;0.709716138084;0.0114864146394;-0.00015036344638;0.0;0.0;0.0;0.0;-0.00015036344638;0.00542166965276;0.0;0.0;0.0;0.0;0.0;0.0;0.0;0.0;0.0;0.0;0.0;0.0;0.0;0.0;0.0;0.0;0.0;0.0;0.0;0.0;0.0;0.0;0.0;0.0;0.0;0.0;0.0;0.00167310468387
340411000000;198;340411000000;map;37.0084602544;11.0678825361;0.0;0.0;0.0;0.70453684033;0.709667415497;0.0113834871145;-0.000221027050259;0.0;0.0;0.0;0.0;-0.000221027050259;0.00545458960107;0.0;0.0;0.0;0.0;0.0;0.0;0.0;0.0;0.0;0.0;0.0;0.0;0.0;0.0;0.0;0.0;0.0;0.0;0.0;0.0;0.0;0.0;0.0;0.0;0.0;0.0;0.0;0.00161638737574
340916000000;199;340916000000;map;37.0105056811;11.318587431;0.0;0.0;0.0;0.704477764179;0.709726059672;0.011098158765;-0.00030474405105;0.0;0.0;0.0;0.0;-0.00030474405105;0.00546748701493;0.0;0.0;0.0;0.0;0.0;0.0;0.0;0.0;0.0;0.0;0.0;0.0;0.0;0.0;0.0;0.0;0.0;0.0;0.0;0.0;0.0;0.0;0.0;0.0;0.0;0.0;0.0;0.00155026313917
341418000000;200;341418000000;map;37.012489929;11.5692953227;0.0;0.0;0.0;0.704475069975;0.709728733943;0.0109664799111;-0.000399493188979;0.0;0.0;0.0;0.0;-0.000399493189093;0.00550723519436;0.0;0.0;0.0;0.0;0.0;0.0;0.0;0.0;0.0;0.0;0.0;0.0;0.0;0.0;0.0;0.0;0.0;0.0;0.0;0.0;0.0;0.0;0.0;0.0;0.0;0.0;0.0;0.0015230537717
341925000000;201;341925000000;map;37.0159819437;11.8217995305;0.0;0.0;0.0;0.704626305608;0.709578585813;0.0108978831529;-0.000374299689895;0.0;0.0;0.0;0.0;-0.000374299689895;0.00565279817016;0.0;0.0;0.0;0.0;0.0;0.0;0.0;0.0;0.0;0.0;0.0;0.0;0.0;0.0;0.0;0.0;0.0;0.0;0.0;0.0;0.0;0.0;0.0;0.0;0.0;0.0;0.0;0.00149577083722
342444000000;202;342444000000;map;37.0192045811;12.0807970466;0.0;0.0;0.0;0.704443590356;0.709759979152;0.0109122189924;-0.000521076690916;0.0;0.0;0.0;0.0;-0.000521076690859;0.00563944382736;0.0;0.0;0.0;0.0;0.0;0.0;0.0;0.0;0.0;0.0;0.0;0.0;0.0;0.0;0.0;0.0;0.0;0.0;0.0;0.0;0.0;0.0;0.0;0.0;0.0;0.0;0.0;0.00149054236239
342945000000;203;342945000000;map;37.021742319;12.3309580475;0.0;0.0;0.0;0.704403330316;0.709799935362;0.0107701790639;-0.000429929517168;0.0;0.0;0.0;0.0;-0.000429929517168;0.00571420782259;0.0;0.0;0.0;0.0;0.0;0.0;0.0;0.0;0.0;0.0;0.0;0.0;0.0;0.0;0.0;0.0;0.0;0.0;0.0;0.0;0.0;0.0;0.0;0.0;0.0;0.0;0.0;0.00143449037551
343447000000;204;343447000000;map;37.026447751;12.5801141564;0.0;0.0;0.0;0.703874695322;0.710324160708;0.0109194109573;-0.000435070518961;0.0;0.0;0.0;0.0;-0.000435070518961;0.00583193366651;0.0;0.0;0.0;0.0;0.0;0.0;0.0;0.0;0.0;0.0;0.0;0.0;0.0;0.0;0.0;0.0;0.0;0.0;0.0;0.0;0.0;0.0;0.0;0.0;0.0;0.0;0.0;0.00143449276293
343950000000;205;343950000000;map;37.0308629607;12.8299812953;0.0;0.0;0.0;0.703700860313;0.710496375216;0.0108261056955;-0.000389044986491;0.0;0.0;0.0;0.0;-0.000389044986491;0.00584604623964;0.0;0.0;0.0;0.0;0.0;0.0;0.0;0.0;0.0;0.0;0.0;0.0;0.0;0.0;0.0;0.0;0.0;0.0;0.0;0.0;0.0;0.0;0.0;0.0;0.0;0.0;0.0;0.00141943297589
345787000000;206;345787000000;map;37.0322315242;12.9770248271;0.0;0.0;0.0;0.771257423801;0.636523358747;0.0106724992534;-0.000340628713275;0.0;0.0;0.0;0.0;-0.000340628713275;0.00598400868705;0.0;0.0;0.0;0.0;0.0;0.0;0.0;0.0;0.0;0.0;0.0;0.0;0.0;0.0;0.0;0.0;0.0;0.0;0.0;0.0;0.0;0.0;0.0;0.0;0.0;0.0;0.0;0.00128667831731
346660000000;207;346660000000;map;37.0347444297;12.9780488928;0.0;0.0;0.0;0.831120056546;0.556093024239;0.0100317170986;-0.000284948724072;0.0;0.0;0.0;0.0;-0.000284948724072;0.00590408543951;0.0;0.0;0.0;0.0;0.0;0.0;0.0;0.0;0.0;0.0;0.0;0.0;0.0;0.0;0.0;0.0;0.0;0.0;0.0;0.0;0.0;0.0;0.0;0.0;0.0;0.0;0.0;0.00110942015251
347548000000;208;347548000000;map;37.0350739955;12.9784621639;0.0;0.0;0.0;0.883184050835;0.469026579579;0.00945561591789;-0.000274346832441;0.0;0.0;0.0;0.0;-0.000274346832441;0.00588363835715;0.0;0.0;0.0;0.0;0.0;0.0;0.0;0.0;0.0;0.0;0.0;0.0;0.0;0.0;0.0;0.0;0.0;0.0;0.0;0.0;0.0;0.0;0.0;0.0;0.0;0.0;0.0;0.000970436852307
348470000000;209;348470000000;map;37.0335892597;12.9798231862;0.0;0.0;0.0;0.926713530686;0.375768588421;0.00878730838463;-0.000300477777728;0.0;0.0;0.0;0.0;-0.000300477777728;0.00577818211255;0.0;0.0;0.0;0.0;0.0;0.0;0.0;0.0;0.0;0.0;0.0;0.0;0.0;0.0;0.0;0.0;0.0;0.0;0.0;0.0;0.0;0.0;0.0;0.0;0.0;0.0;0.0;0.000873348265627
349393000000;210;349393000000;map;37.0346247792;12.9832416533;0.0;0.0;0.0;0.960138383402;0.279525105704;0.00863263726364;-0.000326658783308;0.0;0.0;0.0;0.0;-0.000326658783308;0.00560554026916;0.0;0.0;0.0;0.0;0.0;0.0;0.0;0.0;0.0;0.0;0.0;0.0;0.0;0.0;0.0;0.0;0.0;0.0;0.0;0.0;0.0;0.0;0.0;0.0;0.0;0.0;0.0;0.000785095424883
350260000000;211;350260000000;map;37.035104645;12.9868080329;0.0;0.0;0.0;0.98336890379;0.181619379636;0.00806848417142;-0.000198162784102;0.0;0.0;0.0;0.0;-0.000198162784102;0.00536169733681;0.0;0.0;0.0;0.0;0.0;0.0;0.0;0.0;0.0;0.0;0.0;0.0;0.0;0.0;0.0;0.0;0.0;0.0;0.0;0.0;0.0;0.0;0.0;0.0;0.0;0.0;0.0;0.000737740967061
351120000000;212;351120000000;map;37.0348541009;12.9896894798;0.0;0.0;0.0;0.99673782701;0.0807075226214;0.00811867287371;-0.000214812804643;0.0;0.0;0.0;0.0;-0.0002148128047;0.00503783448147;0.0;0.0;0.0;0.0;0.0;0.0;0.0;0.0;0.0;0.0;0.0;0.0;0.0;0.0;0.0;0.0;0.0;0.0;0.0;0.0;0.0;0.0;0.0;0.0;0.0;0.0;0.0;0.000678274236005
351962000000;213;351962000000;map;37.0343367651;12.9945203516;0.0;0.0;0.0;-0.999814849711;0.0192423049078;0.00811687919031;-0.00016908392422;0.0;0.0;0.0;0.0;-0.00016908392422;0.00467015338165;0.0;0.0;0.0;0.0;0.0;0.0;0.0;0.0;0.0;0.0;0.0;0.0;0.0;0.0;0.0;0.0;0.0;0.0;0.0;0.0;0.0;0.0;0.0;0.0;0.0;0.0;0.0;0.000635308928734
353388000000;214;353388000000;map;36.7799021256;12.9815826117;0.0;0.0;0.0;-0.999586117967;0.0287679121264;0.00798491098726;-4.93159776624e-05;0.0;0.0;0.0;0.0;-4.93159776624e-05;0.00428477244117;0.0;0.0;0.0;0.0;0.0;0.0;0.0;0.0;0.0;0.0;0.0;0.0;0.0;0.0;0.0;0.0;0.0;0.0;0.0;0.0;0.0;0.0;0.0;0.0;0.0;0.0;0.0;0.000831476883916
353890000000;215;353890000000;map;36.5279088952;12.9712278518;0.0;0.0;0.0;-0.999605959375;0.0280700192602;0.00798148437252;7.31503721454e-05;0.0;0.0;0.0;0.0;7.31503721454e-05;0.00407390233866;0.0;0.0;0.0;0.0;0.0;0.0;0.0;0.0;0.0;0.0;0.0;0.0;0.0;0.0;0.0;0.0;0.0;0.0;0.0;0.0;0.0;0.0;0.0;0.0;0.0;0.0;0.0;0.000955320169621
354395000000;216;354395000000;map;36.2750782077;12.9596616252;0.0;0.0;0.0;-0.999623018071;0.0274558143644;0.00778262717017;5.0806004424e-05;0.0;0.0;0.0;0.0;5.08060043103e-05;0.00392170977915;0.0;0.0;0.0;0.0;0.0;0.0;0.0;0.0;0.0;0.0;0.0;0.0;0.0;0.0;0.0;0.0;0.0;0.0;0.0;0.0;0.0;0.0;0.0;0.0;0.0;0.0;0.0;0.00107615539312
354917000000;217;354917000000;map;36.0122795508;12.9478495443;0.0;0.0;0.0;-0.999627450695;0.0272939520298;0.00765629449529;9.3571142088e-05;0.0;0.0;0.0;0.0;9.35711421448e-05;0.00391830170122;0.0;0.0;0.0;0.0;0.0;0.0;0.0;0.0;0.0;0.0;0.0;0.0;0.0;0.0;0.0;0.0;0.0;0.0;0.0;0.0;0.0;0.0;0.0;0.0;0.0;0.0;0.0;0.00114839060896
355438000000;218;355438000000;map;35.7515245069;12.9362183267;0.0;0.0;0.0;-0.999645228651;0.0266348800599;0.00742617811807;0.000204379383433;0.0;0.0;0.0;0.0;0.00020437938349;0.00391474476123;0.0;0.0;0.0;0.0;0.0;0.0;0.0;0.0;0.0;0.0;0.0;0.0;0.0;0.0;0.0;0.0;0.0;0.0;0.0;0.0;0.0;0.0;0.0;0.0;0.0;0.0;0.0;0.00118823914779
355947000000;219;355947000000;map;35.4971860599;12.9247540296;0.0;0.0;0.0;-0.999660351213;0.0260611245384;0.00744923254138;0.000187443175662;0.0;0.0;0.0;0.0;0.000187443175662;0.00405715790129;0.0;0.0;0.0;0.0;0.0;0.0;0.0;0.0;0.0;0.0;0.0;0.0;0.0;0.0;0.0;0.0;0.0;0.0;0.0;0.0;0.0;0.0;0.0;0.0;0.0;0.0;0.0;0.00122435754407
356448000000;220;356448000000;map;35.2472490128;12.9135112787;0.0;0.0;0.0;-0.999662986814;0.0259598304126;0.00746843840943;0.000118634607986;0.0;0.0;0.0;0.0;0.000118634607986;0.00411053186883;0.0;0.0;0.0;0.0;0.0;0.0;0.0;0.0;0.0;0.0;0.0;0.0;0.0;0.0;0.0;0.0;0.0;0.0;0.0;0.0;0.0;0.0;0.0;0.0;0.0;0.0;0.0;0.00124504164415
356949000000;221;356949000000;map;34.9956022636;12.9025104403;0.0;0.0;0.0;-0.999673937815;0.0255346441912;0.00756009566817;3.85929541835e-06;0.0;0.0;0.0;0.0;3.85929541835e-06;0.0040853442294;0.0;0.0;0.0;0.0;0.0;0.0;0.0;0.0;0.0;0.0;0.0;0.0;0.0;0.0;0.0;0.0;0.0;0.0;0.0;0.0;0.0;0.0;0.0;0.0;0.0;0.0;0.0;0.00123969787293
358155000000;222;358155000000;map;34.7386991948;12.8998348903;0.0;0.0;0.0;0.999880793694;0.015440155485;0.00774862467551;-3.83593121001e-05;0.0;0.0;0.0;0.0;-3.83593121001e-05;0.00412668768192;0.0;0.0;0.0;0.0;0.0;0.0;0.0;0.0;0.0;0.0;0.0;0.0;0.0;0.0;0.0;0.0;0.0;0.0;0.0;0.0;0.0;0.0;0.0;0.0;0.0;0.0;0.0;0.00128266192678
358673000000;223;358673000000;map;34.4779466702;12.9082702286;0.0;0.0;0.0;0.999884407259;0.015204345422;0.00778046959545;7.12013085717e-05;0.0;0.0;0.0;0.0;7.12013085149e-05;0.00424377156972;0.0;0.0;0.0;0.0;0.0;0.0;0.0;0.0;0.0;0.0;0.0;0.0;0.0;0.0;0.0;0.0;0.0;0.0;0.0;0.0;0.0;0.0;0.0;0.0;0.0;0.0;0.0;0.00130851127205
359177000000;224;359177000000;map;34.224846814;12.9138036486;0.0;0.0;0.0;0.999888342787;0.0149432914268;0.00767701719042;0.000154999553615;0.0;0.0;0.0;0.0;0.000154999553615;0.00430425510868;0.0;0.0;0.0;0.0;0.0;0.0;0.0;0.0;0.0;0.0;0.0;0.0;0.0;0.0;0.0;0.0;0.0;0.0;0.0;0.0;0.0;0.0;0.0;0.0;0.0;0.0;0.0;0.00127955407243
359696000000;225;359696000000;map;33.9647366484;12.922596819;0.0;0.0;0.0;0.999888484152;0.0149338293754;0.00767501189534;0.00018037953555;0.0;0.0;0.0;0.0;0.00018037953555;0.00438166887412;0.0;0.0;0.0;0.0;0.0;0.0;0.0;0.0;0.0;0.0;0.0;0.0;0.0;0.0;0.0;0.0;0.0;0.0;0.0;0.0;0.0;0.0;0.0;0.0;0.0;0.0;0.0;0.00132799869624
360198000000;226;360198000000;map;33.7134536199;12.9303795779;0.0;0.0;0.0;0.999888874595;0.0149076645436;0.00784144000249;0.000161816114257;0.0;0.0;0.0;0.0;0.000161816114257;0.0045380117742;0.0;0.0;0.0;0.0;0.0;0.0;0.0;0.0;0.0;0.0;0.0;0.0;0.0;0.0;0.0;0.0;0.0;0.0;0.0;0.0;0.0;0.0;0.0;0.0;0.0;0.0;0.0;0.0013314435882
360706000000;227;360706000000;map;33.4611237466;12.9396400436;0.0;0.0;0.0;0.999895623682;0.0144478974848;0.00772758575704;9.64781881976e-05;0.0;0.0;0.0;0.0;9.64781881976e-05;0.00471488127721;0.0;0.0;0.0;0.0;0.0;0.0;0.0;0.0;0.0;0.0;0.0;0.0;0.0;0.0;0.0;0.0;0.0;0.0;0.0;0.0;0.0;0.0;0.0;0.0;0.0;0.0;0.0;0.00130840101647
361225000000;228;361225000000;map;33.2019751225;12.9466039798;0.0;0.0;0.0;0.999898377777;0.0142560204204;0.00758956326376;0.000130322189477;0.0;0.0;0.0;0.0;0.000130322189364;0.00486340947052;0.0;0.0;0.0;0.0;0.0;0.0;0.0;0.0;0.0;0.0;0.0;0.0;0.0;0.0;0.0;0.0;0.0;0.0;0.0;0.0;0.0;0.0;0.0;0.0;0.0;0.0;0.0;0.00136402276325
361727000000;229;361727000000;map;32.9502355178;12.9543879797;0.0;0.0;0.0;0.999900843461;0.0140820185626;0.00750123345188;0.000108840555697;0.0;0.0;0.0;0.0;0.000108840555697;0.00497490289069;0.0;0.0;0.0;0.0;0.0;0.0;0.0;0.0;0.0;0.0;0.0;0.0;0.0;0.0;0.0;0.0;0.0;0.0;0.0;0.0;0.0;0.0;0.0;0.0;0.0;0.0;0.0;0.00135029273958
362242000000;230;362242000000;map;32.6911326237;12.962728402;0.0;0.0;0.0;0.999895824798;0.0144339721638;0.0074785748684;3.67647570556e-05;0.0;0.0;0.0;0.0;3.67647570556e-05;0.00496460901979;0.0;0.0;0.0;0.0;0.0;0.0;0.0;0.0;0.0;0.0;0.0;0.0;0.0;0.0;0.0;0.0;0.0;0.0;0.0;0.0;0.0;0.0;0.0;0.0;0.0;0.0;0.0;0.00131238391953
362746000000;231;362746000000;map;32.436978868;12.9709595207;0.0;0.0;0.0;0.999893085378;0.0146225104744;0.00755531294612;-6.57815507452e-05;0.0;0.0;0.0;0.0;-6.57815507452e-05;0.00500677724688;0.0;0.0;0.0;0.0;0.0;0.0;0.0;0.0;0.0;0.0;0.0;0.0;0.0;0.0;0.0;0.0;0.0;0.0;0.0;0.0;0.0;0.0;0.0;0.0;0.0;0.0;0.0;0.00124912544307
363267000000;232;363267000000;map;32.1752456576;12.9788392565;0.0;0.0;0.0;0.999892976457;0.0146299566352;0.00781552462126;-5.14207299034e-05;0.0;0.0;0.0;0.0;-5.14207299034e-05;0.00506169417287;0.0;0.0;0.0;0.0;0.0;0.0;0.0;0.0;0.0;0.0;0.0;0.0;0.0;0.0;0.0;0.0;0.0;0.0;0.0;0.0;0.0;0.0;0.0;0.0;0.0;0.0;0.0;0.00130491624872
363770000000;233;363770000000;map;31.921928271;12.98537899;0.0;0.0;0.0;0.999896322151;0.0143994773891;0.00780303224815;1.8568153962e-05;0.0;0.0;0.0;0.0;1.85681540188e-05;0.00482801080267;0.0;0.0;0.0;0.0;0.0;0.0;0.0;0.0;0.0;0.0;0.0;0.0;0.0;0.0;0.0;0.0;0.0;0.0;0.0;0.0;0.0;0.0;0.0;0.0;0.0;0.0;0.0;0.00126948375816
364273000000;234;364273000000;map;31.6691260913;12.9926783101;0.0;0.0;0.0;0.999897263438;0.014333965608;0.0075604878383;3.56510053621e-05;0.0;0.0;0.0;0.0;3.56510054189e-05;0.00464685876639;0.0;0.0;0.0;0.0;0.0;0.0;0.0;0.0;0.0;0.0;0.0;0.0;0.0;0.0;0.0;0.0;0.0;0.0;0.0;0.0;0.0;0.0;0.0;0.0;0.0;0.0;0.0;0.00119547729329
364794000000;235;364794000000;map;31.4068769427;13.0005948582;0.0;0.0;0.0;0.999902998972;0.0139281242776;0.00762659897271;2.91910047281e-05;0.0;0.0;0.0;0.0;2.91910047281e-05;0.00456544921502;0.0;0.0;0.0;0.0;0.0;0.0;0.0;0.0;0.0;0.0;0.0;0.0;0.0;0.0;0.0;0.0;0.0;0.0;0.0;0.0;0.0;0.0;0.0;0.0;0.0;0.0;0.0;0.00123869793116
365297000000;236;365297000000;map;31.1548061151;13.0070192621;0.0;0.0;0.0;0.999905995833;0.0137112908764;0.00777129639437;5.27482404777e-06;0.0;0.0;0.0;0.0;5.27482404777e-06;0.00439789551075;0.0;0.0;0.0;0.0;0.0;0.0;0.0;0.0;0.0;0.0;0.0;0.0;0.0;0.0;0.0;0.0;0.0;0.0;0.0;0.0;0.0;0.0;0.0;0.0;0.0;0.0;0.0;0.00121615352743
365800000000;237;365800000000;map;30.9037988453;13.0148826206;0.0;0.0;0.0;0.999909335827;0.0134655161891;0.00813578967222;-0.000122757317968;0.0;0.0;0.0;0.0;-0.000122757317968;0.00426150025768;0.0;0.0;0.0;0.0;0.0;0.0;0.0;0.0;0.0;0.0;0.0;0.0;0.0;0.0;0.0;0.0;0.0;0.0;0.0;0.0;0.0;0.0;0.0;0.0;0.0;0.0;0.0;0.00117721431664
366304000000;238;366304000000;map;30.6522824247;13.0219515985;0.0;0.0;0.0;0.99991053868;0.013375897615;0.0083539221182;-3.50962263269e-05;0.0;0.0;0.0;0.0;-3.50962263269e-05;0.0039976867827;0.0;0.0;0.0;0.0;0.0;0.0;0.0;0.0;0.0;0.0;0.0;0.0;0.0;0.0;0.0;0.0;0.0;0.0;0.0;0.0;0.0;0.0;0.0;0.0;0.0;0.0;0.0;0.00117396208285
366823000000;239;366823000000;map;30.3914436462;13.0296438227;0.0;0.0;0.0;0.999909491569;0.0134539462506;0.00844151388014;-2.76961796999e-05;0.0;0.0;0.0;0.0;-2.76961796999e-05;0.00396728816995;0.0;0.0;0.0;0.0;0.0;0.0;0.0;0.0;0.0;0.0;0.0;0.0;0.0;0.0;0.0;0.0;0.0;0.0;0.0;0.0;0.0;0.0;0.0;0.0;0.0;0.0;0.0;0.00120000221034
367334000000;240;367334000000;map;30.1348127192;13.0369467931;0.0;0.0;0.0;0.999909701096;0.0134383649884;0.00847621235812;-1.96115398694e-05;0.0;0.0;0.0;0.0;-1.96115399831e-05;0.0037049877306;0.0;0.0;0.0;0.0;0.0;0.0;0.0;0.0;0.0;0.0;0.0;0.0;0.0;0.0;0.0;0.0;0.0;0.0;0.0;0.0;0.0;0.0;0.0;0.0;0.0;0.0;0.0;0.00122536901703
367854000000;241;367854000000;map;29.874071416;13.0423801998;0.0;0.0;0.0;0.999911462159;0.0133066841716;0.0085685532091;-0.000133260525843;0.0;0.0;0.0;0.0;-0.000133260525899;0.00354885964811;0.0;0.0;0.0;0.0;0.0;0.0;0.0;0.0;0.0;0.0;0.0;0.0;0.0;0.0;0.0;0.0;0.0;0.0;0.0;0.0;0.0;0.0;0.0;0.0;0.0;0.0;0.0;0.00125703322529
368358000000;242;368358000000;map;29.621807552;13.050185808;0.0;0.0;0.0;0.99991268812;0.0132142399423;0.00851322816072;-0.000160550466433;0.0;0.0;0.0;0.0;-0.000160550466433;0.00348571816397;0.0;0.0;0.0;0.0;0.0;0.0;0.0;0.0;0.0;0.0;0.0;0.0;0.0;0.0;0.0;0.0;0.0;0.0;0.0;0.0;0.0;0.0;0.0;0.0;0.0;0.0;0.0;0.0012530487656
368861000000;243;368861000000;map;29.3691952114;13.0571523526;0.0;0.0;0.0;0.999912282934;0.0132448645499;0.00852414956;-0.000128125413426;0.0;0.0;0.0;0.0;-0.000128125413426;0.00342833377312;0.0;0.0;0.0;0.0;0.0;0.0;0.0;0.0;0.0;0.0;0.0;0.0;0.0;0.0;0.0;0.0;0.0;0.0;0.0;0.0;0.0;0.0;0.0;0.0;0.0;0.0;0.0;0.00134343140052
369371000000;244;369371000000;map;29.1145489984;13.0646516571;0.0;0.0;0.0;0.999910678411;0.0133654479777;0.00857517142401;-9.94163235077e-05;0.0;0.0;0.0;0.0;-9.94163235077e-05;0.00343147128507;0.0;0.0;0.0;0.0;0.0;0.0;0.0;0.0;0.0;0.0;0.0;0.0;0.0;0.0;0.0;0.0;0.0;0.0;0.0;0.0;0.0;0.0;0.0;0.0;0.0;0.0;0.0;0.0013760396235
369874000000;245;369874000000;map;28.8623826354;13.0727510315;0.0;0.0;0.0;0.999906019833;0.0137095405129;0.00850915606088;-5.45606938545e-05;0.0;0.0;0.0;0.0;-5.45606938545e-05;0.00340576888223;0.0;0.0;0.0;0.0;0.0;0.0;0.0;0.0;0.0;0.0;0.0;0.0;0.0;0.0;0.0;0.0;0.0;0.0;0.0;0.0;0.0;0.0;0.0;0.0;0.0;0.0;0.0;0.00139566492567
370390000000;246;370390000000;map;28.602918924;13.0804218485;0.0;0.0;0.0;0.999904874082;0.0137928527821;0.00876673516541;-5.19275316151e-05;0.0;0.0;0.0;0.0;-5.19275316151e-05;0.00353323260433;0.0;0.0;0.0;0.0;0.0;0.0;0.0;0.0;0.0;0.0;0.0;0.0;0.0;0.0;0.0;0.0;0.0;0.0;0.0;0.0;0.0;0.0;0.0;0.0;0.0;0.0;0.0;0.00146161299038
370904000000;247;370904000000;map;28.3443867212;13.0878331965;0.0;0.0;0.0;0.999908234073;0.0135470821201;0.00885679873363;7.89527530287e-06;0.0;0.0;0.0;0.0;7.89527530287e-06;0.00365711942376;0.0;0.0;0.0;0.0;0.0;0.0;0.0;0.0;0.0;0.0;0.0;0.0;0.0;0.0;0.0;0.0;0.0;0.0;0.0;0.0;0.0;0.0;0.0;0.0;0.0;0.0;0.0;0.00149806564947
371426000000;248;371426000000;map;28.082117668;13.0950075437;0.0;0.0;0.0;0.999903222579;0.0139120622736;0.00885701979507;0.000108885140946;0.0;0.0;0.0;0.0;0.000108885140946;0.00384891859045;0.0;0.0;0.0;0.0;0.0;0.0;0.0;0.0;0.0;0.0;0.0;0.0;0.0;0.0;0.0;0.0;0.0;0.0;0.0;0.0;0.0;0.0;0.0;0.0;0.0;0.0;0.0;0.00156046139833
371927000000;249;371927000000;map;27.830443669;13.1041495183;0.0;0.0;0.0;0.999899584298;0.0141711439415;0.00874530124861;0.00017639924539;0.0;0.0;0.0;0.0;0.00017639924539;0.00389348730539;0.0;0.0;0.0;0.0;0.0;0.0;0.0;0.0;0.0;0.0;0.0;0.0;0.0;0.0;0.0;0.0;0.0;0.0;0.0;0.0;0.0;0.0;0.0;0.0;0.0;0.0;0.0;0.00150896637583
372448000000;250;372448000000;map;27.5679531634;13.1138512974;0.0;0.0;0.0;0.99989730414;0.0143311260413;0.00878397184226;0.000222358177552;0.0;0.0;0.0;0.0;0.000222358177552;0.00388207973324;0.0;0.0;0.0;0.0;0.0;0.0;0.0;0.0;0.0;0.0;0.0;0.0;0.0;0.0;0.0;0.0;0.0;0.0;0.0;0.0;0.0;0.0;0.0;0.0;0.0;0.0;0.0;0.0014645575665
