%time,field.header.seq,field.header.stamp,field.header.frame_id,field.child_frame_id,field.pose.pose.position.x,field.pose.pose.position.y,field.pose.pose.position.z,field.pose.pose.orientation.x,field.pose.pose.orientation.y,field.pose.pose.orientation.z,field.pose.pose.orientation.w,field.pose.covariance0,field.pose.covariance1,field.pose.covariance2,field.pose.covariance3,field.pose.covariance4,field.pose.covariance5,field.pose.covariance6,field.pose.covariance7,field.pose.covariance8,field.pose.covariance9,field.pose.covariance10,field.pose.covariance11,field.pose.covariance12,field.pose.covariance13,field.pose.covariance14,field.pose.covariance15,field.pose.covariance16,field.pose.covariance17,field.pose.covariance18,field.pose.covariance19,field.pose.covariance20,field.pose.covariance21,field.pose.covariance22,field.pose.covariance23,field.pose.covariance24,field.pose.covariance25,field.pose.covariance26,field.pose.covariance27,field.pose.covariance28,field.pose.covariance29,field.pose.covariance30,field.pose.covariance31,field.pose.covariance32,field.pose.covariance33,field.pose.covariance34,field.pose.covariance35,field.twist.twist.linear.x,field.twist.twist.linear.y,field.twist.twist.linear.z,field.twist.twist.angular.x,field.twist.twist.angular.y,field.twist.twist.angular.z,field.twist.covariance0,field.twist.covariance1,field.twist.covariance2,field.twist.covariance3,field.twist.covariance4,field.twist.covariance5,field.twist.covariance6,field.twist.covariance7,field.twist.covariance8,field.twist.covariance9,field.twist.covariance10,field.twist.covariance11,field.twist.covariance12,field.twist.covariance13,field.twist.covariance14,field.twist.covariance15,field.twist.covariance16,field.twist.covariance17,field.twist.covariance18,field.twist.covariance19,field.twist.covariance20,field.twist.covariance21,field.twist.covariance22,field.twist.covariance23,field.twist.covariance24,field.twist.covariance25,field.twist.covariance26,field.twist.covariance27,field.twist.covariance28,field.twist.covariance29,field.twist.covariance30,field.twist.covariance31,field.twist.covariance32,field.twist.covariance33,field.twist.covariance34,field.twist.covariance35
239549000000,11958,239549000000,odom,base_link,2.23167645489,-0.000260335308697,0.0,0.0,0.0,-5.71636728955e-05,0.999999998366,11.9635606377,0.00825476601682,0.0,0.0,0.0,0.00371182708493,0.00825476601682,82.4856113197,0.0,0.0,0.0,31.7131577019,0.0,0.0,9.98153276815e-07,8.22609067823e-24,-1.53022591093e-14,0.0,0.0,0.0,8.22609067823e-24,9.96316749061e-07,6.81676733386e-29,0.0,0.0,0.0,-1.53022591093e-14,6.81676960877e-29,9.9631674906e-07,0.0,0.00371182708493,31.7131577019,0.0,0.0,0.0,14.3502817382,0.500380840676,0.0,0.0,0.0,0.0,-5.91876222827e-08,0.000506229475915,0.0,0.0,0.0,0.0,0.0,0.0,0.000506229475915,0.0,0.0,0.0,0.0,0.0,0.0,9.97233744246e-07,1.05567167782e-27,-9.23376170131e-24,0.0,0.0,0.0,1.05567167782e-27,9.89070770402e-07,3.4152719309e-32,0.0,0.0,0.0,-9.23376170131e-24,3.41527241676e-32,9.89070770402e-07,0.0,0.0,0.0,0.0,0.0,0.0,0.000178927429417
239569000000,11959,239569000000,odom,base_link,2.24167650595,-0.000261478605317,0.0,0.0,0.0,-5.71648612899e-05,0.999999998366,11.964561069,0.00832838952781,0.0,0.0,0.0,0.00372825253571,0.00832838952781,83.1230378972,0.0,0.0,0.0,31.8568274526,0.0,0.0,9.98153276815e-07,1.99429075932e-23,-1.53019957334e-14,0.0,0.0,0.0,1.99429075932e-23,9.96316749061e-07,1.65250185456e-28,0.0,0.0,0.0,-1.53019957334e-14,1.65250188176e-28,9.9631674906e-07,0.0,0.00372825253571,31.8568274526,0.0,0.0,0.0,14.3514817502,0.500376042111,0.0,0.0,0.0,0.0,-1.43750951173e-07,0.000506229475913,0.0,0.0,0.0,0.0,0.0,0.0,0.000506229475913,0.0,0.0,0.0,0.0,0.0,0.0,9.97233744246e-07,1.05567544557e-27,-9.23360277706e-24,0.0,0.0,0.0,1.05567544557e-27,9.89070770402e-07,3.41521467819e-32,0.0,0.0,0.0,-9.23360277706e-24,3.41523975171e-32,9.89070770402e-07,0.0,0.0,0.0,0.0,0.0,0.0,0.000178927429417
239589000000,11960,239589000000,odom,base_link,2.25167655614,-0.000262621921967,0.0,0.0,0.0,-5.71645381003e-05,0.999999998366,11.9655615003,0.00840234152677,0.0,0.0,0.0,0.00374467941765,0.00840234152677,83.7633320662,0.0,0.0,0.0,32.0005071526,0.0,0.0,9.98153276815e-07,-1.5007229547e-23,-1.53017356606e-14,0.0,0.0,0.0,-1.5007229547e-23,9.96316749061e-07,-1.24347335828e-28,0.0,0.0,0.0,-1.53017356606e-14,-1.24347333187e-28,9.9631674906e-07,0.0,0.00374467941765,32.0005071526,0.0,0.0,0.0,14.3526817621,0.500371303492,0.0,0.0,0.0,0.0,1.08526368856e-07,0.000506229475911,0.0,0.0,0.0,0.0,0.0,0.0,0.000506229475911,0.0,0.0,0.0,0.0,0.0,0.0,9.97233744246e-07,1.05565128673e-27,-9.23344584599e-24,0.0,0.0,0.0,1.05565128673e-27,9.89070770402e-07,3.41510629763e-32,0.0,0.0,0.0,-9.23344584599e-24,3.4151119087e-32,9.89070770402e-07,0.0,0.0,0.0,0.0,0.0,0.0,0.000178927429417
239609000000,11961,239609000000,odom,base_link,2.26167660548,-0.000263765226953,0.0,0.0,0.0,-5.71641108656e-05,0.999999998366,11.9665619317,0.0084766210296,0.0,0.0,0.0,0.00376110727844,0.0084766210296,84.4064940589,0.0,0.0,0.0,32.1441968274,0.0,0.0,9.98153276815e-07,-1.93842059203e-24,-1.53014788456e-14,0.0,0.0,0.0,-1.93842059203e-24,9.96316749061e-07,-1.60631171942e-29,0.0,0.0,0.0,-1.53014788456e-14,-1.6063120759e-29,9.9631674906e-07,0.0,0.00376110727844,32.1441968274,0.0,0.0,0.0,14.3538817741,0.500366624019,0.0,0.0,0.0,0.0,1.42020543131e-08,0.000506229475909,0.0,0.0,0.0,0.0,0.0,0.0,0.000506229475909,0.0,0.0,0.0,0.0,0.0,0.0,9.97233744246e-07,1.05562566097e-27,-9.23329088072e-24,0.0,0.0,0.0,1.05562566097e-27,9.89070770402e-07,3.41495378721e-32,0.0,0.0,0.0,-9.23329088072e-24,3.41497559325e-32,9.89070770402e-07,0.0,0.0,0.0,0.0,0.0,0.0,0.000178927429417
239629000000,11962,239629000000,odom,base_link,2.27167665396,-0.000264908517513,0.0,0.0,0.0,-5.71614439303e-05,0.999999998366,11.9675623631,0.00855122796849,0.0,0.0,0.0,0.00377753608103,0.00855122796849,85.0525241083,0.0,0.0,0.0,32.2878965021,0.0,0.0,9.98153276815e-07,-5.18645550431e-23,-1.53012252461e-14,0.0,0.0,0.0,-5.18645550431e-23,9.96316749061e-07,-4.29734375216e-28,0.0,0.0,0.0,-1.53012252461e-14,-4.29734359179e-28,9.9631674906e-07,0.0,0.00377753608103,32.2878965021,0.0,0.0,0.0,14.355081786,0.50036200294,0.0,0.0,0.0,0.0,3.74589608193e-07,0.000506229475907,0.0,0.0,0.0,0.0,0.0,0.0,0.000506229475907,0.0,0.0,0.0,0.0,0.0,0.0,9.97233744246e-07,1.05555854889e-27,-9.23313785573e-24,0.0,0.0,0.0,1.05555854889e-27,9.89070770402e-07,3.41467136782e-32,0.0,0.0,0.0,-9.23313785573e-24,3.41466319982e-32,9.89070770402e-07,0.0,0.0,0.0,0.0,0.0,0.0,0.000178927429417
239649000000,11963,239649000000,odom,base_link,2.28167670158,-0.000266051741843,0.0,0.0,0.0,-5.71568593244e-05,0.999999998367,11.9685627945,0.0086261606829,0.0,0.0,0.0,0.00379396508403,0.0086261606829,85.7014224476,0.0,0.0,0.0,32.4316062016,0.0,0.0,9.98153276815e-07,-6.81625515805e-23,-1.53009748214e-14,0.0,0.0,0.0,-6.81625515805e-23,9.96316749061e-07,-5.64771010568e-28,0.0,0.0,0.0,-1.53009748214e-14,-5.64771005314e-28,9.9631674906e-07,0.0,0.00379396508403,32.4316062016,0.0,0.0,0.0,14.3562817979,0.500357439536,0.0,0.0,0.0,0.0,4.92245547512e-07,0.000506229475906,0.0,0.0,0.0,0.0,0.0,0.0,0.000506229475906,0.0,0.0,0.0,0.0,0.0,0.0,9.97233744246e-07,1.0554562953e-27,-9.23298674641e-24,0.0,0.0,0.0,1.0554562953e-27,9.89070770402e-07,3.41428085185e-32,0.0,0.0,0.0,-9.23298674641e-24,3.41429552722e-32,9.89070770402e-07,0.0,0.0,0.0,0.0,0.0,0.0,0.000178927429417
239669000000,11964,239669000000,odom,base_link,2.29167674835,-0.000267194875135,0.0,0.0,0.0,-5.71532621575e-05,0.999999998367,11.969563226,0.00870141836223,0.0,0.0,0.0,0.00381039393348,0.00870141836223,86.353189311,0.0,0.0,0.0,32.5753259504,0.0,0.0,9.98153276815e-07,-4.15901810513e-23,-1.5300727532e-14,0.0,0.0,0.0,-4.15901810513e-23,9.96316749061e-07,-3.44600163228e-28,0.0,0.0,0.0,-1.5300727532e-14,-3.44600171209e-28,9.9631674906e-07,0.0,0.00381039393348,32.5753259504,0.0,0.0,0.0,14.3574818099,0.500352933108,0.0,0.0,0.0,0.0,3.0044512394e-07,0.000506229475904,0.0,0.0,0.0,0.0,0.0,0.0,0.000506229475904,0.0,0.0,0.0,0.0,0.0,0.0,9.97233744246e-07,1.05537297552e-27,-9.23283752901e-24,0.0,0.0,0.0,1.05537297552e-27,9.89070770402e-07,3.41395936527e-32,0.0,0.0,0.0,-9.23283752901e-24,3.41396086239e-32,9.89070770402e-07,0.0,0.0,0.0,0.0,0.0,0.0,0.000178927429417
239689000000,11965,239689000000,odom,base_link,2.30167679428,-0.000268337948613,0.0,0.0,0.0,-5.71525282358e-05,0.999999998367,11.9705636575,0.00877700201584,0.0,0.0,0.0,0.00382682308022,0.00877700201584,87.0078249329,0.0,0.0,0.0,32.7190557728,0.0,0.0,9.98153276815e-07,3.50554119742e-24,-1.53004833394e-14,0.0,0.0,0.0,3.50554119742e-24,9.96316749061e-07,2.90398144954e-29,0.0,0.0,0.0,-1.53004833394e-14,2.90398185507e-29,9.9631674906e-07,0.0,0.00382682308022,32.7190557728,0.0,0.0,0.0,14.3586818218,0.500348482969,0.0,0.0,0.0,0.0,-2.50744165918e-08,0.000506229475902,0.0,0.0,0.0,0.0,0.0,0.0,0.000506229475902,0.0,0.0,0.0,0.0,0.0,0.0,9.97233744246e-07,1.05534305418e-27,-9.23269018021e-24,0.0,0.0,0.0,1.05534305418e-27,9.89070770402e-07,3.41380099153e-32,0.0,0.0,0.0,-9.23269018021e-24,3.41380178912e-32,9.89070770402e-07,0.0,0.0,0.0,0.0,0.0,0.0,0.000178927429417
239709000000,11966,239709000000,odom,base_link,2.31167683936,-0.000269481013642,0.0,0.0,0.0,-5.71520543894e-05,0.999999998367,11.9715640891,0.00885291333362,0.0,0.0,0.0,0.00384325326461,0.00885291333362,87.6653295486,0.0,0.0,0.0,32.8627956927,0.0,0.0,9.98153276815e-07,-1.08688973202e-23,-1.53002422054e-14,0.0,0.0,0.0,-1.08688973202e-23,9.96316749061e-07,-9.00502512082e-29,0.0,0.0,0.0,-1.53002422054e-14,-9.00502513044e-29,9.9631674906e-07,0.0,0.00384325326461,32.8627956927,0.0,0.0,0.0,14.3598818338,0.500344088447,0.0,0.0,0.0,0.0,7.86947390852e-08,0.000506229475901,0.0,0.0,0.0,0.0,0.0,0.0,0.000506229475901,0.0,0.0,0.0,0.0,0.0,0.0,9.97233744246e-07,1.05531771829e-27,-9.23254467701e-24,0.0,0.0,0.0,1.05531771829e-27,9.89070770402e-07,3.41365816642e-32,0.0,0.0,0.0,-9.23254467701e-24,3.41364836063e-32,9.89070770402e-07,0.0,0.0,0.0,0.0,0.0,0.0,0.000178927429417
239729000000,11967,239729000000,odom,base_link,2.3216768836,-0.000270624066739,0.0,0.0,0.0,-5.71514939694e-05,0.999999998367,11.9725645207,0.00892915222439,0.0,0.0,0.0,0.0038596844394,0.00892915222439,88.3257033938,0.0,0.0,0.0,33.0065457338,0.0,0.0,9.98153276815e-07,-6.35900482936e-24,-1.53000040927e-14,0.0,0.0,0.0,-6.35900482936e-24,9.96316749061e-07,-5.26858061863e-29,0.0,0.0,0.0,-1.53000040927e-14,-5.26858289117e-29,9.9631674906e-07,0.0,0.0038596844394,33.0065457338,0.0,0.0,0.0,14.3610818457,0.500339748881,0.0,0.0,0.0,0.0,4.61416771203e-08,0.000506229475899,0.0,0.0,0.0,0.0,0.0,0.0,0.000506229475899,0.0,0.0,0.0,0.0,0.0,0.0,9.97233744246e-07,1.05529093193e-27,-9.23240099696e-24,0.0,0.0,0.0,1.05529093193e-27,9.89070770402e-07,3.41352411657e-32,0.0,0.0,0.0,-9.23240099696e-24,3.41352284208e-32,9.89070770402e-07,0.0,0.0,0.0,0.0,0.0,0.0,0.000178927429417
239749000000,11968,239749000000,odom,base_link,2.331676927,-0.000271767107535,0.0,0.0,0.0,-5.71505188071e-05,0.999999998367,11.9735649523,0.00900571869791,0.0,0.0,0.0,0.00387611660187,0.00900571869791,88.9889467047,0.0,0.0,0.0,33.1503059195,0.0,0.0,9.98153276815e-07,-1.65076278818e-23,-1.52997689647e-14,0.0,0.0,0.0,-1.65076278818e-23,9.96316749061e-07,-1.36764953879e-28,0.0,0.0,0.0,-1.52997689647e-14,-1.36764935073e-28,9.9631674906e-07,0.0,0.00387611660187,33.1503059195,0.0,0.0,0.0,14.3622818576,0.500335463619,0.0,0.0,0.0,0.0,1.19406414893e-07,0.000506229475898,0.0,0.0,0.0,0.0,0.0,0.0,0.000506229475898,0.0,0.0,0.0,0.0,0.0,0.0,9.97233744246e-07,1.05525664068e-27,-9.23225911783e-24,0.0,0.0,0.0,1.05525664068e-27,9.89070770402e-07,3.41336687265e-32,0.0,0.0,0.0,-9.23225911783e-24,3.41335977852e-32,9.89070770402e-07,0.0,0.0,0.0,0.0,0.0,0.0,0.000178927429417
239769000000,11969,239769000000,odom,base_link,2.34167696958,-0.000272910122913,0.0,0.0,0.0,-5.71482025946e-05,0.999999998367,11.974565384,0.00908261233921,0.0,0.0,0.0,0.0038925495661,0.00908261233921,89.6550597182,0.0,0.0,0.0,33.2940762729,0.0,0.0,9.98153276815e-07,-3.86203372289e-23,-1.52995367847e-14,0.0,0.0,0.0,-3.86203372289e-23,9.96316749061e-07,-3.19963057355e-28,0.0,0.0,0.0,-1.52995367847e-14,-3.19963068041e-28,9.9631674906e-07,0.0,0.0038925495661,33.2940762729,0.0,0.0,0.0,14.3634818696,0.500331232018,0.0,0.0,0.0,0.0,2.79041691748e-07,0.000506229475897,0.0,0.0,0.0,0.0,0.0,0.0,0.000506229475897,0.0,0.0,0.0,0.0,0.0,0.0,9.97233744246e-07,1.05519763825e-27,-9.23211901763e-24,0.0,0.0,0.0,1.05519763825e-27,9.89070770402e-07,3.41312428385e-32,0.0,0.0,0.0,-9.23211901763e-24,3.41312740996e-32,9.89070770402e-07,0.0,0.0,0.0,0.0,0.0,0.0,0.000178927429417
239789000000,11970,239789000000,odom,base_link,2.35167701135,-0.000274053086797,0.0,0.0,0.0,-5.71452583562e-05,0.999999998367,11.9755658157,0.00915983229211,0.0,0.0,0.0,0.0039089829598,0.00915983229211,90.3240426716,0.0,0.0,0.0,33.4378568168,0.0,0.0,9.98153276815e-07,-4.14625666349e-23,-1.52993075172e-14,0.0,0.0,0.0,-4.14625666349e-23,9.96316749061e-07,-3.43507645572e-28,0.0,0.0,0.0,-1.52993075172e-14,-3.43507648235e-28,9.9631674906e-07,0.0,0.0039089829598,33.4378568168,0.0,0.0,0.0,14.3646818815,0.500327053445,0.0,0.0,0.0,0.0,2.9956353764e-07,0.000506229475895,0.0,0.0,0.0,0.0,0.0,0.0,0.000506229475895,0.0,0.0,0.0,0.0,0.0,0.0,9.97233744246e-07,1.05512735904e-27,-9.23198067486e-24,0.0,0.0,0.0,1.05512735904e-27,9.89070770402e-07,3.41284033119e-32,0.0,0.0,0.0,-9.23198067486e-24,3.41284877917e-32,9.89070770402e-07,0.0,0.0,0.0,0.0,0.0,0.0,0.000178927429417
239809000000,11971,239809000000,odom,base_link,2.3616770523,-0.000275195995546,0.0,0.0,0.0,-5.71437120027e-05,0.999999998367,11.9765662474,0.00923737843923,0.0,0.0,0.0,0.00392541673295,0.00923737843923,90.995895803,0.0,0.0,0.0,33.5816475738,0.0,0.0,9.98153276815e-07,-1.26043234974e-23,-1.52990811268e-14,0.0,0.0,0.0,-1.26043234974e-23,9.96316749061e-07,-1.04425639035e-28,0.0,0.0,0.0,-1.52990811268e-14,-1.04425633028e-28,9.9631674906e-07,0.0,0.00392541673295,33.5816475738,0.0,0.0,0.0,14.3658818935,0.500322927275,0.0,0.0,0.0,0.0,9.1230794965e-08,0.000506229475894,0.0,0.0,0.0,0.0,0.0,0.0,0.000506229475894,0.0,0.0,0.0,0.0,0.0,0.0,9.97233744246e-07,1.05508342516e-27,-9.2318440681e-24,0.0,0.0,0.0,1.05508342516e-27,9.89070770402e-07,3.41265021178e-32,0.0,0.0,0.0,-9.2318440681e-24,3.41264052948e-32,9.89070770402e-07,0.0,0.0,0.0,0.0,0.0,0.0,0.000178927429417
239820000000,11972,239820000000,odom,base_link,2.36718158188,-0.000275825094055,0.0,0.0,0.0,-5.71434517193e-05,0.999999998367,11.9771166574,0.00928016192368,0.0,0.0,0.0,0.00393445428784,0.00928016192368,91.3665838371,0.0,0.0,0.0,33.6607249956,0.0,0.0,4.99622070082e-07,-6.27460515888e-24,-6.25246497579e-15,0.0,0.0,0.0,-6.27460515888e-24,4.99245844078e-07,-1.03807468908e-28,0.0,0.0,0.0,-6.25246497579e-15,-1.03807462652e-28,4.99245844077e-07,0.0,0.00393445428784,33.6607249956,0.0,0.0,0.0,14.3665419054,0.500500639783,0.0,0.0,0.0,0.0,-6.66027556337e-09,0.00079008621765,0.0,0.0,0.0,0.0,0.0,0.0,0.00079008621765,0.0,0.0,0.0,0.0,0.0,0.0,4.99433745189e-07,1.72318376502e-27,-1.50777660359e-23,0.0,0.0,0.0,1.72318376502e-27,4.97757627729e-07,1.11348069353e-31,0.0,0.0,0.0,-1.50777660359e-23,1.11348162771e-31,4.97757627729e-07,0.0,0.0,0.0,0.0,0.0,0.0,9.99957495085e-10
239849000000,11973,239849000000,odom,base_link,2.3816771318,-0.000277481761556,0.0,0.0,0.0,-5.71427635705e-05,0.999999998367,11.978567111,0.00939345318986,0.0,0.0,0.0,0.00395828706412,0.00939345318986,92.3482135539,0.0,0.0,0.0,33.8692598157,0.0,0.0,9.98153276815e-07,-1.45750726723e-23,-1.52986368379e-14,0.0,0.0,0.0,-1.45750726723e-23,9.96316749061e-07,-1.20744151376e-28,0.0,0.0,0.0,-1.52986368379e-14,-1.20744167335e-28,9.9631674906e-07,0.0,0.00395828706412,33.8692598157,0.0,0.0,0.0,14.3682819173,0.500314829686,0.0,0.0,0.0,0.0,1.05457170334e-07,0.000506229475891,0.0,0.0,0.0,0.0,0.0,0.0,0.000506229475891,0.0,0.0,0.0,0.0,0.0,0.0,9.97233744246e-07,1.05503541388e-27,-9.23157597878e-24,0.0,0.0,0.0,1.05503541388e-27,9.89070770402e-07,3.41240197194e-32,0.0,0.0,0.0,-9.23157597878e-24,3.41240465455e-32,9.89070770402e-07,0.0,0.0,0.0,0.0,0.0,0.0,0.000178927429417
239869000000,11974,239869000000,odom,base_link,2.39167717037,-0.00027862462994,0.0,0.0,0.0,-5.71434227015e-05,0.999999998367,11.9795675428,0.00947198221215,0.0,0.0,0.0,0.00397472378689,0.00947198221215,93.0286786518,0.0,0.0,0.0,34.0130813444,0.0,0.0,9.98153276815e-07,1.93477182202e-23,-1.5298418871e-14,0.0,0.0,0.0,1.93477182202e-23,9.96316749061e-07,1.60278361884e-28,0.0,0.0,0.0,-1.5298418871e-14,1.60278363295e-28,9.9631674906e-07,0.0,0.00397472378689,34.0130813444,0.0,0.0,0.0,14.3694819293,0.500310857059,0.0,0.0,0.0,0.0,-1.39454439497e-07,0.00050622947589,0.0,0.0,0.0,0.0,0.0,0.0,0.00050622947589,0.0,0.0,0.0,0.0,0.0,0.0,9.97233744246e-07,1.05503277829e-27,-9.23144445496e-24,0.0,0.0,0.0,1.05503277829e-27,9.89070770402e-07,3.41235483742e-32,0.0,0.0,0.0,-9.23144445496e-24,3.41236837895e-32,9.89070770402e-07,0.0,0.0,0.0,0.0,0.0,0.0,0.000178927429417
239889000000,11975,239889000000,odom,base_link,2.40167720817,-0.00027976751248,0.0,0.0,0.0,-5.71431219721e-05,0.999999998367,11.9805679747,0.00955083984701,0.0,0.0,0.0,0.0039911618946,0.00955083984701,93.7120148844,0.0,0.0,0.0,34.1569131737,0.0,0.0,9.98153276815e-07,-1.43023523443e-23,-1.52982036444e-14,0.0,0.0,0.0,-1.43023523443e-23,9.96316749061e-07,-1.18479447323e-28,0.0,0.0,0.0,-1.52982036444e-14,-1.18479452779e-28,9.9631674906e-07,0.0,0.0039911618946,34.1569131737,0.0,0.0,0.0,14.3706819412,0.500306934416,0.0,0.0,0.0,0.0,1.03483082593e-07,0.000506229475889,0.0,0.0,0.0,0.0,0.0,0.0,0.000506229475889,0.0,0.0,0.0,0.0,0.0,0.0,9.97233744246e-07,1.05501222722e-27,-9.23131458459e-24,0.0,0.0,0.0,1.05501222722e-27,9.89070770402e-07,3.41222499576e-32,0.0,0.0,0.0,-9.23131458459e-24,3.41221655241e-32,9.89070770402e-07,0.0,0.0,0.0,0.0,0.0,0.0,0.000178927429417
239900000000,11976,239900000000,odom,base_link,2.4071815136,-0.000280396578876,0.0,0.0,0.0,-5.7142296735e-05,0.999999998367,11.9811183848,0.0095943451469,0.0,0.0,0.0,0.0040002020077,0.0095943451469,94.0890208486,0.0,0.0,0.0,34.2360137964,0.0,0.0,4.99622070082e-07,-7.11699424975e-24,-6.25221036375e-15,0.0,0.0,0.0,-7.11699424975e-24,4.99245844078e-07,-1.17739218493e-28,0.0,0.0,0.0,-6.25221036375e-15,-1.17739215808e-28,4.99245844077e-07,0.0,0.0040002020077,34.2360137964,0.0,0.0,0.0,14.3713419532,0.500475877282,0.0,0.0,0.0,0.0,2.07290181551e-07,0.000790086217638,0.0,0.0,0.0,0.0,0.0,0.0,0.000790086217638,0.0,0.0,0.0,0.0,0.0,0.0,4.99433745189e-07,1.72309374903e-27,-1.50771520388e-23,0.0,0.0,0.0,1.72309374903e-27,4.97757627729e-07,1.11337872793e-31,0.0,0.0,0.0,-1.50771520388e-23,1.11337625051e-31,4.97757627729e-07,0.0,0.0,0.0,0.0,0.0,0.0,9.99957495085e-10
239920000000,11977,239920000000,odom,base_link,2.41718149635,-0.000281539420615,0.0,0.0,0.0,-5.71412706593e-05,0.999999998367,11.9821188167,0.00967371029864,0.0,0.0,0.0,0.00401664146767,0.00967371029864,94.7768082623,0.0,0.0,0.0,34.3798617725,0.0,0.0,4.99622070082e-07,-1.41861256159e-23,-6.25214869999e-15,0.0,0.0,0.0,-1.41861256159e-23,4.99245844078e-07,-2.3468429772e-28,0.0,0.0,0.0,-6.25214869999e-15,-2.34684301353e-28,4.99245844077e-07,0.0,0.00401664146767,34.3798617725,0.0,0.0,0.0,14.3725419651,0.5004698801,0.0,0.0,0.0,0.0,-2.15809781513e-07,0.000790086217634,0.0,0.0,0.0,0.0,0.0,0.0,0.000790086217634,0.0,0.0,0.0,0.0,0.0,0.0,4.99433745189e-07,1.72300652348e-27,-1.50770033366e-23,0.0,0.0,0.0,1.72300652348e-27,4.97757627729e-07,1.11331075882e-31,0.0,0.0,0.0,-1.50770033366e-23,1.11331083056e-31,4.97757627729e-07,0.0,0.0,0.0,0.0,0.0,0.0,9.99957495085e-10
239940000000,11978,239940000000,odom,base_link,2.42718147904,-0.000282682262578,0.0,0.0,0.0,-5.71431527846e-05,0.999999998367,11.9831192487,0.00975340364812,0.0,0.0,0.0,0.00403308211681,0.00975340364812,95.467467422,0.0,0.0,0.0,34.5237201012,0.0,0.0,4.99622070082e-07,1.47388074907e-23,-6.25208781304e-15,0.0,0.0,0.0,1.47388074907e-23,4.99245844078e-07,2.43825065315e-28,0.0,0.0,0.0,-6.25208781304e-15,2.43825063547e-28,4.99245844077e-07,0.0,0.00403308211681,34.5237201012,0.0,0.0,0.0,14.373741977,0.500463958442,0.0,0.0,0.0,0.0,-1.05782227734e-07,0.000790086217632,0.0,0.0,0.0,0.0,0.0,0.0,0.000790086217632,0.0,0.0,0.0,0.0,0.0,0.0,4.99433745189e-07,1.72308666956e-27,-1.50768565077e-23,0.0,0.0,0.0,1.72308666956e-27,4.97757627729e-07,1.11335454635e-31,0.0,0.0,0.0,-1.50768565077e-23,1.11335213106e-31,4.97757627729e-07,0.0,0.0,0.0,0.0,0.0,0.0,9.99957495085e-10
239960000000,11979,239960000000,odom,base_link,2.43718146167,-0.00028382513656,0.0,0.0,0.0,-5.71434991656e-05,0.999999998367,11.9841196807,0.00983342632592,0.0,0.0,0.0,0.00404952441463,0.00983342632592,96.1609985692,0.0,0.0,0.0,34.6675888031,0.0,0.0,4.99622070082e-07,7.21742109003e-24,-6.25202769367e-15,0.0,0.0,0.0,7.21742109003e-24,4.99245844078e-07,1.19397126153e-28,0.0,0.0,0.0,-6.25202769367e-15,1.19397122585e-28,4.99245844077e-07,0.0,0.00404952441463,34.6675888031,0.0,0.0,0.0,14.374941989,0.5004581114,0.0,0.0,0.0,0.0,1.81586754339e-07,0.000790086217629,0.0,0.0,0.0,0.0,0.0,0.0,0.000790086217629,0.0,0.0,0.0,0.0,0.0,0.0,4.99433745189e-07,1.72309360319e-27,-1.50767115298e-23,0.0,0.0,0.0,1.72309360319e-27,4.97757627729e-07,1.11334706261e-31,0.0,0.0,0.0,-1.50767115298e-23,1.11334696084e-31,4.97757627729e-07,0.0,0.0,0.0,0.0,0.0,0.0,9.99957495085e-10
239989000000,11980,239989000000,odom,base_link,2.45167738602,-0.000285481829063,0.0,0.0,0.0,-5.71431827653e-05,0.999999998367,11.9855701347,0.00995004762824,0.0,0.0,0.0,0.00407336885441,0.00995004762824,97.1717715008,0.0,0.0,0.0,34.8762275638,0.0,0.0,9.98153276815e-07,2.07260619114e-23,-1.52971674694e-14,0.0,0.0,0.0,2.07260619114e-23,9.96316749061e-07,1.71681607357e-28,0.0,0.0,0.0,-1.52971674694e-14,1.71681603327e-28,9.9631674906e-07,0.0,0.00407336885441,34.8762275638,0.0,0.0,0.0,14.3766820009,0.500288050722,0.0,0.0,0.0,0.0,-1.4945824462e-07,0.000506229475883,0.0,0.0,0.0,0.0,0.0,0.0,0.000506229475883,0.0,0.0,0.0,0.0,0.0,0.0,9.97233744246e-07,1.05494202277e-27,-9.23068934404e-24,0.0,0.0,0.0,1.05494202277e-27,9.89070770402e-07,3.41177754761e-32,0.0,0.0,0.0,-9.23068934404e-24,3.41177484104e-32,9.89070770402e-07,0.0,0.0,0.0,0.0,0.0,0.0,0.000178927429417
240000000000,11981,240000000000,odom,base_link,2.45718142677,-0.000286110865879,0.0,0.0,0.0,-5.71437889611e-05,0.999999998367,11.9861205449,0.00999445582313,0.0,0.0,0.0,0.00408241231669,0.00999445582313,97.5566777952,0.0,0.0,0.0,34.9553574074,0.0,0.0,4.99622070082e-07,1.02784175021e-23,-6.25190972125e-15,0.0,0.0,0.0,1.02784175021e-23,4.99245844078e-07,1.70031697463e-28,0.0,0.0,0.0,-6.25190972125e-15,1.70031690375e-28,4.99245844077e-07,0.0,0.00408241231669,34.9553574074,0.0,0.0,0.0,14.3773420129,0.50044663759,0.0,0.0,0.0,0.0,-6.19695038644e-08,0.000790086217624,0.0,0.0,0.0,0.0,0.0,0.0,0.000790086217624,0.0,0.0,0.0,0.0,0.0,0.0,4.99433745189e-07,1.72305509609e-27,-1.50764270392e-23,0.0,0.0,0.0,1.72305509609e-27,4.97757627729e-07,1.11330056731e-31,0.0,0.0,0.0,-1.50764270392e-23,1.11330116474e-31,4.97757627729e-07,0.0,0.0,0.0,0.0,0.0,0.0,9.99957495085e-10
240029000000,11982,240029000000,odom,base_link,2.47167745222,-0.000287767601762,0.0,0.0,0.0,-5.71439242272e-05,0.999999998367,11.987570999,0.0101120302211,0.0,0.0,0.0,0.00410626065103,0.0101120302211,98.5757805416,0.0,0.0,0.0,35.1640261481,0.0,0.0,9.98153276815e-07,-6.51890922299e-24,-1.52967710523e-14,0.0,0.0,0.0,-6.51890922299e-24,9.96316749061e-07,-5.39970627931e-29,0.0,0.0,0.0,-1.52967710523e-14,-5.39970500377e-29,9.9631674906e-07,0.0,0.00410626065103,35.1640261481,0.0,0.0,0.0,14.3790820248,0.500280827161,0.0,0.0,0.0,0.0,4.72382790499e-08,0.000506229475881,0.0,0.0,0.0,0.0,0.0,0.0,0.000506229475881,0.0,0.0,0.0,0.0,0.0,0.0,9.97233744246e-07,1.05492826887e-27,-9.23045014115e-24,0.0,0.0,0.0,1.05492826887e-27,9.89070770402e-07,3.41166259241e-32,0.0,0.0,0.0,-9.23045014115e-24,3.41163742027e-32,9.89070770402e-07,0.0,0.0,0.0,0.0,0.0,0.0,0.000178927429417
240049000000,11983,240049000000,odom,base_link,2.48167748432,-0.000288910490225,0.0,0.0,0.0,-5.7144045903e-05,0.999999998367,11.9885714312,0.0101935141119,0.0,0.0,0.0,0.00412270837787,0.0101935141119,99.2820945466,0.0,0.0,0.0,35.3079411258,0.0,0.0,9.98153276815e-07,5.23562440168e-24,-1.52965765882e-14,0.0,0.0,0.0,5.23562440168e-24,9.96316749061e-07,4.33669167776e-29,0.0,0.0,0.0,-1.52965765882e-14,4.33669059871e-29,9.9631674906e-07,0.0,0.00412270837787,35.3079411258,0.0,0.0,0.0,14.3802820367,0.500277283877,0.0,0.0,0.0,0.0,-3.76453236377e-08,0.00050622947588,0.0,0.0,0.0,0.0,0.0,0.0,0.00050622947588,0.0,0.0,0.0,0.0,0.0,0.0,9.97233744246e-07,1.0549171472e-27,-9.23033279914e-24,0.0,0.0,0.0,1.0549171472e-27,9.89070770402e-07,3.41154486393e-32,0.0,0.0,0.0,-9.23033279914e-24,3.41155727277e-32,9.89070770402e-07,0.0,0.0,0.0,0.0,0.0,0.0,0.000178927429417
240060000000,11984,240060000000,odom,base_link,2.48718137415,-0.000289539519294,0.0,0.0,0.0,-5.71448450997e-05,0.999999998367,11.9891218414,0.010238464552,0.0,0.0,0.0,0.00413175399329,0.010238464552,99.6717426068,0.0,0.0,0.0,35.3870886139,0.0,0.0,4.99622070082e-07,2.58884176811e-24,-6.25173829453e-15,0.0,0.0,0.0,2.58884176811e-24,4.99245844078e-07,4.28249872865e-29,0.0,0.0,0.0,-6.25173829453e-15,4.28249860945e-29,4.99245844077e-07,0.0,0.00413175399329,35.3870886139,0.0,0.0,0.0,14.3809420487,0.500429964421,0.0,0.0,0.0,0.0,-2.77683908168e-07,0.000790086217616,0.0,0.0,0.0,0.0,0.0,0.0,0.000790086217616,0.0,0.0,0.0,0.0,0.0,0.0,4.99433745189e-07,1.72301514578e-27,-1.50760136435e-23,0.0,0.0,0.0,1.72301514578e-27,4.97757627729e-07,1.11324309292e-31,0.0,0.0,0.0,-1.50760136435e-23,1.11324225161e-31,4.97757627729e-07,0.0,0.0,0.0,0.0,0.0,0.0,9.99957495085e-10
240080000000,11985,240080000000,odom,base_link,2.49718135657,-0.000290682434538,0.0,0.0,0.0,-5.71461302629e-05,0.999999998367,11.9901222737,0.0103204586458,0.0,0.0,0.0,0.00414820406174,0.0103204586458,100.382510778,0.0,0.0,0.0,35.531019974,0.0,0.0,4.99622070082e-07,1.8971930848e-23,-6.25168259243e-15,0.0,0.0,0.0,1.8971930848e-23,4.99245844078e-07,3.13833565437e-28,0.0,0.0,0.0,-6.25168259243e-15,3.13833561869e-28,4.99245844077e-07,0.0,0.00414820406174,35.531019974,0.0,0.0,0.0,14.3821420606,0.500424546609,0.0,0.0,0.0,0.0,3.24778771568e-07,0.000790086217615,0.0,0.0,0.0,0.0,0.0,0.0,0.000790086217615,0.0,0.0,0.0,0.0,0.0,0.0,4.99433745189e-07,1.72310147378e-27,-1.50758793178e-23,0.0,0.0,0.0,1.72310147378e-27,4.97757627729e-07,1.11329107035e-31,0.0,0.0,0.0,-1.50758793178e-23,1.11329071968e-31,4.97757627729e-07,0.0,0.0,0.0,0.0,0.0,0.0,9.99957495085e-10
240109000000,11986,240109000000,odom,base_link,2.51167757683,-0.000292339212981,0.0,0.0,0.0,-5.71430671714e-05,0.999999998367,11.991572728,0.0104399382524,0.0,0.0,0.0,0.00417205960155,0.0104399382524,101.418277429,0.0,0.0,0.0,35.7397490323,0.0,0.0,9.98153276815e-07,-1.22899371466e-23,-1.52960078138e-14,0.0,0.0,0.0,-1.22899371466e-23,9.96316749061e-07,-1.01801004006e-28,0.0,0.0,0.0,-1.52960078138e-14,-1.01801000716e-28,9.9631674906e-07,0.0,0.00417205960155,35.7397490323,0.0,0.0,0.0,14.3838820726,0.500266921596,0.0,0.0,0.0,0.0,8.88645389628e-08,0.000506229475877,0.0,0.0,0.0,0.0,0.0,0.0,0.000506229475877,0.0,0.0,0.0,0.0,0.0,0.0,9.97233744246e-07,1.05485956924e-27,-9.22998959374e-24,0.0,0.0,0.0,1.05485956924e-27,9.89070770402e-07,3.41125661787e-32,0.0,0.0,0.0,-9.22998959374e-24,3.41123299212e-32,9.89070770402e-07,0.0,0.0,0.0,0.0,0.0,0.0,0.000178927429417
240129000000,11987,240129000000,odom,base_link,2.52167760645,-0.000293482079452,0.0,0.0,0.0,-5.71421944516e-05,0.999999998367,11.9925731603,0.0105227350666,0.0,0.0,0.0,0.00418851183066,0.0105227350666,102.136086161,0.0,0.0,0.0,35.8837060551,0.0,0.0,9.98153276815e-07,-1.19186667106e-23,-1.52958229968e-14,0.0,0.0,0.0,-1.19186667106e-23,9.96316749061e-07,-9.87209812404e-29,0.0,0.0,0.0,-1.52958229968e-14,-9.87210168427e-29,9.9631674906e-07,0.0,0.00418851183066,35.8837060551,0.0,0.0,0.0,14.3850820845,0.500263554941,0.0,0.0,0.0,0.0,8.61727972694e-08,0.000506229475876,0.0,0.0,0.0,0.0,0.0,0.0,0.000506229475876,0.0,0.0,0.0,0.0,0.0,0.0,9.97233744246e-07,1.05483083579e-27,-9.22987807292e-24,0.0,0.0,0.0,1.05483083579e-27,9.89070770402e-07,3.41109377086e-32,0.0,0.0,0.0,-9.22987807292e-24,3.41107605061e-32,9.89070770402e-07,0.0,0.0,0.0,0.0,0.0,0.0,0.000178927429417
240140000000,11988,240140000000,odom,base_link,2.52718130383,-0.000294111066146,0.0,0.0,0.0,-5.71415541112e-05,0.999999998367,11.9931235706,0.0105684075394,0.0,0.0,0.0,0.00419755985589,0.0105684075394,102.532058417,0.0,0.0,0.0,35.9628771935,0.0,0.0,4.99622070082e-07,-5.92583385285e-24,-6.25151968696e-15,0.0,0.0,0.0,-5.92583385285e-24,4.99245844078e-07,-9.80225550629e-29,0.0,0.0,0.0,-6.25151968696e-15,-9.80225504975e-29,4.99245844077e-07,0.0,0.00419755985589,35.9628771935,0.0,0.0,0.0,14.3857420964,0.500408701179,0.0,0.0,0.0,0.0,1.53622233834e-07,0.000790086217607,0.0,0.0,0.0,0.0,0.0,0.0,0.000790086217607,0.0,0.0,0.0,0.0,0.0,0.0,4.99433745189e-07,1.72287833324e-27,-1.50754864712e-23,0.0,0.0,0.0,1.72287833324e-27,4.97757627729e-07,1.11311622474e-31,0.0,0.0,0.0,-1.50754864712e-23,1.11311866567e-31,4.97757627729e-07,0.0,0.0,0.0,0.0,0.0,0.0,9.99957495085e-10
240169000000,11989,240169000000,odom,base_link,2.54167766401,-0.00029576774948,0.0,0.0,0.0,-5.71405639256e-05,0.999999998367,11.9945740251,0.0106893119152,0.0,0.0,0.0,0.00422141901445,0.0106893119152,103.580326753,0.0,0.0,0.0,36.171651792,0.0,0.0,9.98153276815e-07,3.25196958707e-24,-1.5295460351e-14,0.0,0.0,0.0,3.25196958707e-24,9.96316749061e-07,2.69323340901e-29,0.0,0.0,0.0,-1.5295460351e-14,2.6932335741e-29,9.9631674906e-07,0.0,0.00422141901445,36.171651792,0.0,0.0,0.0,14.3874821084,0.500256949686,0.0,0.0,0.0,0.0,-2.33990917797e-08,0.000506229475874,0.0,0.0,0.0,0.0,0.0,0.0,0.000506229475874,0.0,0.0,0.0,0.0,0.0,0.0,9.97233744246e-07,1.05477582323e-27,-9.22965924806e-24,0.0,0.0,0.0,1.05477582323e-27,9.89070770402e-07,3.41083159829e-32,0.0,0.0,0.0,-9.22965924806e-24,3.41082619263e-32,9.89070770402e-07,0.0,0.0,0.0,0.0,0.0,0.0,0.000178927429417
240189000000,11990,240189000000,odom,base_link,2.55167769197,-0.000296910568101,0.0,0.0,0.0,-5.71399654108e-05,0.999999998368,11.9955744576,0.0107730925349,0.0,0.0,0.0,0.00423787418979,0.0107730925349,104.306759106,0.0,0.0,0.0,36.3156405423,0.0,0.0,9.98153276815e-07,-1.32282753763e-23,-1.52952824657e-14,0.0,0.0,0.0,-1.32282753763e-23,9.96316749061e-07,-1.09562582448e-28,0.0,0.0,0.0,-1.52952824657e-14,-1.09562601228e-28,9.9631674906e-07,0.0,0.00423787418979,36.3156405423,0.0,0.0,0.0,14.3886821203,0.500253710068,0.0,0.0,0.0,0.0,9.55925273569e-08,0.000506229475873,0.0,0.0,0.0,0.0,0.0,0.0,0.000506229475873,0.0,0.0,0.0,0.0,0.0,0.0,9.97233744246e-07,1.05475246045e-27,-9.22955190989e-24,0.0,0.0,0.0,1.05475246045e-27,9.89070770402e-07,3.41072183448e-32,0.0,0.0,0.0,-9.22955190989e-24,3.41073507061e-32,9.89070770402e-07,0.0,0.0,0.0,0.0,0.0,0.0,0.000178927429417
240209000000,11991,240209000000,odom,base_link,2.56167771941,-0.000298053373552,0.0,0.0,0.0,-5.71397120579e-05,0.999999998368,11.99657489,0.0108572012344,0.0,0.0,0.0,0.00425433039109,0.0108572012344,105.036066492,0.0,0.0,0.0,36.4596399042,0.0,0.0,9.98153276815e-07,7.22929731014e-25,-1.52951068346e-14,0.0,0.0,0.0,7.22929731014e-25,9.96316749061e-07,5.98610856313e-30,0.0,0.0,0.0,-1.52951068346e-14,5.98609812266e-30,9.9631674906e-07,0.0,0.00425433039109,36.4596399042,0.0,0.0,0.0,14.3898821323,0.500250511784,0.0,0.0,0.0,0.0,-5.16475622341e-09,0.000506229475873,0.0,0.0,0.0,0.0,0.0,0.0,0.000506229475873,0.0,0.0,0.0,0.0,0.0,0.0,9.97233744246e-07,1.05473572865e-27,-9.22944593195e-24,0.0,0.0,0.0,1.05473572865e-27,9.89070770402e-07,3.41064932578e-32,0.0,0.0,0.0,-9.22944593195e-24,3.41065896116e-32,9.89070770402e-07,0.0,0.0,0.0,0.0,0.0,0.0,0.000178927429417
240229000000,11992,240229000000,odom,base_link,2.57167774636,-0.000299196171707,0.0,0.0,0.0,-5.71382626496e-05,0.999999998368,11.9975753226,0.0109416382515,0.0,0.0,0.0,0.0042707877048,0.0109416382515,105.768249156,0.0,0.0,0.0,36.6036498953,0.0,0.0,9.98153276815e-07,-2.89474906698e-23,-1.52949334302e-14,0.0,0.0,0.0,-2.89474906698e-23,9.96316749061e-07,-2.39751520171e-28,0.0,0.0,0.0,-1.52949334302e-14,-2.39751530805e-28,9.9631674906e-07,0.0,0.0042707877048,36.6036498953,0.0,0.0,0.0,14.3910821442,0.500247354336,0.0,0.0,0.0,0.0,2.09078511178e-07,0.000506229475872,0.0,0.0,0.0,0.0,0.0,0.0,0.000506229475872,0.0,0.0,0.0,0.0,0.0,0.0,9.97233744246e-07,1.05469682055e-27,-9.22934129766e-24,0.0,0.0,0.0,1.05469682055e-27,9.89070770402e-07,3.41050546627e-32,0.0,0.0,0.0,-9.22934129766e-24,3.41049999766e-32,9.89070770402e-07,0.0,0.0,0.0,0.0,0.0,0.0,0.000178927429417
240249000000,11993,240249000000,odom,base_link,2.58167777283,-0.000300338934327,0.0,0.0,0.0,-5.71360070975e-05,0.999999998368,11.9985757551,0.0110264025729,0.0,0.0,0.0,0.00428724572626,0.0110264025729,106.503307348,0.0,0.0,0.0,36.7476705327,0.0,0.0,9.98153276815e-07,-3.2035847362e-23,-1.52947622253e-14,0.0,0.0,0.0,-3.2035847362e-23,9.96316749061e-07,-2.65330533011e-28,0.0,0.0,0.0,-1.52947622253e-14,-2.65330548972e-28,9.9631674906e-07,0.0,0.00428724572626,36.7476705327,0.0,0.0,0.0,14.3922821561,0.500244237229,0.0,0.0,0.0,0.0,2.31367680825e-07,0.000506229475871,0.0,0.0,0.0,0.0,0.0,0.0,0.000506229475871,0.0,0.0,0.0,0.0,0.0,0.0,9.97233744246e-07,1.05464324632e-27,-9.22923799053e-24,0.0,0.0,0.0,1.05464324632e-27,9.89070770402e-07,3.41029769251e-32,0.0,0.0,0.0,-9.22923799053e-24,3.41028985985e-32,9.89070770402e-07,0.0,0.0,0.0,0.0,0.0,0.0,0.000178927429417
240269000000,11994,240269000000,odom,base_link,2.59167779883,-0.000301481650713,0.0,0.0,0.0,-5.71335838929e-05,0.999999998368,11.9995761877,0.0111114938167,0.0,0.0,0.0,0.00430370430321,0.0111114938167,107.241241313,0.0,0.0,0.0,36.8917018338,0.0,0.0,9.98153276815e-07,-3.40122248649e-23,-1.52945931925e-14,0.0,0.0,0.0,-3.40122248649e-23,9.96316749061e-07,-2.81696525661e-28,0.0,0.0,0.0,-1.52945931925e-14,-2.81696520251e-28,9.9631674906e-07,0.0,0.00430370430321,36.8917018338,0.0,0.0,0.0,14.3934821681,0.500241159973,0.0,0.0,0.0,0.0,2.45627803954e-07,0.00050622947587,0.0,0.0,0.0,0.0,0.0,0.0,0.00050622947587,0.0,0.0,0.0,0.0,0.0,0.0,9.97233744246e-07,1.05458683501e-27,-9.22913599412e-24,0.0,0.0,0.0,1.05458683501e-27,9.89070770402e-07,3.41005378496e-32,0.0,0.0,0.0,-9.22913599412e-24,3.4100272325e-32,9.89070770402e-07,0.0,0.0,0.0,0.0,0.0,0.0,0.000178927429417
240289000000,11995,240289000000,odom,base_link,2.6016778244,-0.000302624319558,0.0,0.0,0.0,-5.71315877389e-05,0.999999998368,12.0005766204,0.0111969119427,0.0,0.0,0.0,0.00432016341851,0.0111969119427,107.982051299,0.0,0.0,0.0,37.0357438152,0.0,0.0,9.98153276815e-07,-2.471973471e-23,-1.52944263053e-14,0.0,0.0,0.0,-2.471973471e-23,9.96316749061e-07,-2.04733098289e-28,0.0,0.0,0.0,-1.52944263053e-14,-2.04733087505e-28,9.9631674906e-07,0.0,0.00432016341851,37.0357438152,0.0,0.0,0.0,14.39468218,0.500238122079,0.0,0.0,0.0,0.0,1.78510258328e-07,0.000506229475869,0.0,0.0,0.0,0.0,0.0,0.0,0.000506229475869,0.0,0.0,0.0,0.0,0.0,0.0,9.97233744246e-07,1.05453855324e-27,-9.22903529237e-24,0.0,0.0,0.0,1.05453855324e-27,9.89070770402e-07,3.4098811811e-32,0.0,0.0,0.0,-9.22903529237e-24,3.40988225099e-32,9.89070770402e-07,0.0,0.0,0.0,0.0,0.0,0.0,0.000178927429417
240309000000,11996,240309000000,odom,base_link,2.61167784954,-0.000303766949251,0.0,0.0,0.0,-5.7129517223e-05,0.999999998368,12.001577053,0.0112826572706,0.0,0.0,0.0,0.00433662319467,0.0112826572706,108.725737555,0.0,0.0,0.0,37.1797964937,0.0,0.0,9.98153276815e-07,-3.02107872844e-23,-1.5294261537e-14,0.0,0.0,0.0,-3.02107872844e-23,9.96316749061e-07,-2.50206364731e-28,0.0,0.0,0.0,-1.5294261537e-14,-2.50206364643e-28,9.9631674906e-07,0.0,0.00433662319467,37.1797964937,0.0,0.0,0.0,14.395882192,0.500235123065,0.0,0.0,0.0,0.0,2.18151735854e-07,0.000506229475869,0.0,0.0,0.0,0.0,0.0,0.0,0.000506229475869,0.0,0.0,0.0,0.0,0.0,0.0,9.97233744246e-07,1.05448896379e-27,-9.22893586918e-24,0.0,0.0,0.0,1.05448896379e-27,9.89070770402e-07,3.40966239295e-32,0.0,0.0,0.0,-9.22893586918e-24,3.40966061387e-32,9.89070770402e-07,0.0,0.0,0.0,0.0,0.0,0.0,0.000178927429417
240329000000,11997,240329000000,odom,base_link,2.62167787428,-0.000304909543037,0.0,0.0,0.0,-5.71294460667e-05,0.999999998368,12.0025774857,0.0113687299329,0.0,0.0,0.0,0.00435308368014,0.0113687299329,109.472300328,0.0,0.0,0.0,37.3238598858,0.0,0.0,9.98153276815e-07,1.16670486237e-23,-1.52940988613e-14,0.0,0.0,0.0,1.16670486237e-23,9.96316749061e-07,9.66212841332e-29,0.0,0.0,0.0,-1.52940988613e-14,9.66212854554e-29,9.9631674906e-07,0.0,0.00435308368014,37.3238598858,0.0,0.0,0.0,14.3970822039,0.50023216245,0.0,0.0,0.0,0.0,-8.42871529826e-08,0.000506229475868,0.0,0.0,0.0,0.0,0.0,0.0,0.000506229475868,0.0,0.0,0.0,0.0,0.0,0.0,9.97233744246e-07,1.05447676398e-27,-9.22883770869e-24,0.0,0.0,0.0,1.05447676398e-27,9.89070770402e-07,3.40959721125e-32,0.0,0.0,0.0,-9.22883770869e-24,3.40960965982e-32,9.89070770402e-07,0.0,0.0,0.0,0.0,0.0,0.0,0.000178927429417
240349000000,11998,240349000000,odom,base_link,2.63167789864,-0.000306052145301,0.0,0.0,0.0,-5.71308541307e-05,0.999999998368,12.0035779185,0.0114551316061,0.0,0.0,0.0,0.00436954551585,0.0114551316061,110.221739867,0.0,0.0,0.0,37.4679340078,0.0,0.0,9.98153276815e-07,2.27683469025e-23,-1.52939382523e-14,0.0,0.0,0.0,2.27683469025e-23,9.96316749061e-07,1.88563157148e-28,0.0,0.0,0.0,-1.52939382523e-14,1.88563165045e-28,9.9631674906e-07,0.0,0.00436954551585,37.4679340078,0.0,0.0,0.0,14.3982822158,0.500229239759,0.0,0.0,0.0,0.0,-1.64471872215e-07,0.000506229475867,0.0,0.0,0.0,0.0,0.0,0.0,0.000506229475867,0.0,0.0,0.0,0.0,0.0,0.0,9.97233744246e-07,1.05449192632e-27,-9.22874079526e-24,0.0,0.0,0.0,1.05449192632e-27,9.89070770402e-07,3.40960733182e-32,0.0,0.0,0.0,-9.22874079526e-24,3.40959609404e-32,9.89070770402e-07,0.0,0.0,0.0,0.0,0.0,0.0,0.000178927429417
240369000000,11999,240369000000,odom,base_link,2.64167792263,-0.000307194779837,0.0,0.0,0.0,-5.71331524724e-05,0.999999998368,12.0045783513,0.0115418632176,0.0,0.0,0.0,0.0043860090464,0.0115418632176,110.97405642,0.0,0.0,0.0,37.6120188756,0.0,0.0,9.98153276815e-07,3.55522100795e-23,-1.5293779684e-14,0.0,0.0,0.0,3.55522100795e-23,9.96316749061e-07,2.94434154668e-28,0.0,0.0,0.0,-1.5293779684e-14,2.94434152121e-28,9.9631674906e-07,0.0,0.0043860090464,37.6120188756,0.0,0.0,0.0,14.3994822278,0.500226354517,0.0,0.0,0.0,0.0,-2.56809959926e-07,0.000506229475867,0.0,0.0,0.0,0.0,0.0,0.0,0.000506229475867,0.0,0.0,0.0,0.0,0.0,0.0,9.97233744246e-07,1.05452356208e-27,-9.22864511325e-24,0.0,0.0,0.0,1.05452356208e-27,9.89070770402e-07,3.40965737268e-32,0.0,0.0,0.0,-9.22864511325e-24,3.40966526056e-32,9.89070770402e-07,0.0,0.0,0.0,0.0,0.0,0.0,0.000178927429417
240389000000,12000,240389000000,odom,base_link,2.65167794627,-0.000308337457072,0.0,0.0,0.0,-5.71339574398e-05,0.999999998368,12.0055787841,0.0116289252038,0.0,0.0,0.0,0.00440247442386,0.0116289252038,111.729250236,0.0,0.0,0.0,37.7561145052,0.0,0.0,9.98153276815e-07,5.14446479454e-25,-1.5293623131e-14,0.0,0.0,0.0,5.14446479454e-25,9.96316749061e-07,4.26439374343e-30,0.0,0.0,0.0,-1.5293623131e-14,4.26439394135e-30,9.9631674906e-07,0.0,0.00440247442386,37.7561145052,0.0,0.0,0.0,14.4006822397,0.500223506256,0.0,0.0,0.0,0.0,-3.78853185405e-09,0.000506229475866,0.0,0.0,0.0,0.0,0.0,0.0,0.000506229475866,0.0,0.0,0.0,0.0,0.0,0.0,9.97233744246e-07,1.05452737971e-27,-9.22855064724e-24,0.0,0.0,0.0,1.05452737971e-27,9.89070770402e-07,3.40964072736e-32,0.0,0.0,0.0,-9.22855064724e-24,3.40964910727e-32,9.89070770402e-07,0.0,0.0,0.0,0.0,0.0,0.0,0.000178927429417
240409000000,12001,240409000000,odom,base_link,2.66167796959,-0.000309480145941,0.0,0.0,0.0,-5.71348081768e-05,0.999999998368,12.006579217,0.0117163164342,0.0,0.0,0.0,0.00441894120263,0.0117163164342,112.487321565,0.0,0.0,0.0,37.9002209122,0.0,0.0,9.98153276815e-07,1.65805612295e-23,-1.5293468568e-14,0.0,0.0,0.0,1.65805612295e-23,9.96316749061e-07,1.37311980008e-28,0.0,0.0,0.0,-1.5293468568e-14,1.37311993288e-28,9.9631674906e-07,0.0,0.00441894120263,37.9002209122,0.0,0.0,0.0,14.4018822517,0.50022069451,0.0,0.0,0.0,0.0,-1.19831684828e-07,0.000506229475865,0.0,0.0,0.0,0.0,0.0,0.0,0.000506229475865,0.0,0.0,0.0,0.0,0.0,0.0,9.97233744246e-07,1.05453243002e-27,-9.22845738207e-24,0.0,0.0,0.0,1.05453243002e-27,9.89070770402e-07,3.40962461682e-32,0.0,0.0,0.0,-9.22845738207e-24,3.40964169697e-32,9.89070770402e-07,0.0,0.0,0.0,0.0,0.0,0.0,0.000178927429417
240429000000,12002,240429000000,odom,base_link,2.67167799259,-0.000310622847875,0.0,0.0,0.0,-5.71338223964e-05,0.999999998368,12.0075796499,0.0118040369965,0.0,0.0,0.0,0.00443540940504,0.0118040369965,113.248270655,0.0,0.0,0.0,38.0443381122,0.0,0.0,9.98153276815e-07,-2.66560075377e-23,-1.52933159698e-14,0.0,0.0,0.0,-2.66560075377e-23,9.96316749061e-07,-2.20747672718e-28,0.0,0.0,0.0,-1.52933159698e-14,-2.20747667287e-28,9.9631674906e-07,0.0,0.00443540940504,38.0443381122,0.0,0.0,0.0,14.4030822636,0.500217918814,0.0,0.0,0.0,0.0,1.92408737121e-07,0.000506229475865,0.0,0.0,0.0,0.0,0.0,0.0,0.000506229475865,0.0,0.0,0.0,0.0,0.0,0.0,9.97233744246e-07,1.05450341201e-27,-9.22836530248e-24,0.0,0.0,0.0,1.05450341201e-27,9.89070770402e-07,3.40949173634e-32,0.0,0.0,0.0,-9.22836530248e-24,3.40948125529e-32,9.89070770402e-07,0.0,0.0,0.0,0.0,0.0,0.0,0.000178927429417
240449000000,12003,240449000000,odom,base_link,2.68167801531,-0.000311765532427,0.0,0.0,0.0,-5.71353427431e-05,0.999999998368,12.0085800828,0.0118920857618,0.0,0.0,0.0,0.00445187859409,0.0118920857618,114.012097757,0.0,0.0,0.0,38.1884661203,0.0,0.0,9.98153276815e-07,4.15656614997e-23,-1.52931653118e-14,0.0,0.0,0.0,4.15656614997e-23,9.96316749061e-07,3.44216222665e-28,0.0,0.0,0.0,-1.52931653118e-14,3.4421624138e-28,9.9631674906e-07,0.0,0.00445187859409,38.1884661203,0.0,0.0,0.0,14.4042822755,0.500215178708,0.0,0.0,0.0,0.0,-3.00305736204e-07,0.000506229475864,0.0,0.0,0.0,0.0,0.0,0.0,0.000506229475864,0.0,0.0,0.0,0.0,0.0,0.0,9.97233744246e-07,1.05452149507e-27,-9.22827439358e-24,0.0,0.0,0.0,1.05452149507e-27,9.89070770402e-07,3.40952235926e-32,0.0,0.0,0.0,-9.22827439358e-24,3.4095119076e-32,9.89070770402e-07,0.0,0.0,0.0,0.0,0.0,0.0,0.000178927429417
240469000000,12004,240469000000,odom,base_link,2.69167803774,-0.000312908246929,0.0,0.0,0.0,-5.71340318277e-05,0.999999998368,12.0095805158,0.0119804645659,0.0,0.0,0.0,0.00446834945336,0.0119804645659,114.778803119,0.0,0.0,0.0,38.3326049518,0.0,0.0,9.98153276815e-07,-4.3893100829e-23,-1.52930165692e-14,0.0,0.0,0.0,-4.3893100829e-23,9.96316749061e-07,-3.63485335565e-28,0.0,0.0,0.0,-1.52930165692e-14,-3.6348533559e-28,9.9631674906e-07,0.0,0.00446834945336,38.3326049518,0.0,0.0,0.0,14.4054822875,0.500212473738,0.0,0.0,0.0,0.0,3.16876018637e-07,0.000506229475863,0.0,0.0,0.0,0.0,0.0,0.0,0.000506229475863,0.0,0.0,0.0,0.0,0.0,0.0,9.97233744246e-07,1.05448658138e-27,-9.22818464053e-24,0.0,0.0,0.0,1.05448658138e-27,9.89070770402e-07,3.40935496852e-32,0.0,0.0,0.0,-9.22818464053e-24,3.40936894794e-32,9.89070770402e-07,0.0,0.0,0.0,0.0,0.0,0.0,0.000178927429417
240489000000,12005,240489000000,odom,base_link,2.70167805992,-0.000314050928025,0.0,0.0,0.0,-5.71339256077e-05,0.999999998368,12.0105809488,0.0120691710118,0.0,0.0,0.0,0.00448482107163,0.0120691710118,115.548386991,0.0,0.0,0.0,38.4767546214,0.0,0.0,9.98153276815e-07,1.68890523452e-23,-1.52928697177e-14,0.0,0.0,0.0,1.68890523452e-23,9.96316749061e-07,1.39856337326e-28,0.0,0.0,0.0,-1.52928697177e-14,1.39856317148e-28,9.9631674906e-07,0.0,0.00448482107163,38.4767546214,0.0,0.0,0.0,14.4066822994,0.500209803448,0.0,0.0,0.0,0.0,-1.22117195471e-07,0.000506229475863,0.0,0.0,0.0,0.0,0.0,0.0,0.000506229475863,0.0,0.0,0.0,0.0,0.0,0.0,9.97233744246e-07,1.05447468914e-27,-9.22809602853e-24,0.0,0.0,0.0,1.05447468914e-27,9.89070770402e-07,3.40928852911e-32,0.0,0.0,0.0,-9.22809602853e-24,3.40929325813e-32,9.89070770402e-07,0.0,0.0,0.0,0.0,0.0,0.0,0.000178927429417
240509000000,12006,240509000000,odom,base_link,2.71167808186,-0.000315193622861,0.0,0.0,0.0,-5.71364050266e-05,0.999999998368,12.0115813818,0.0121582069349,0.0,0.0,0.0,0.00450129412981,0.0121582069349,116.320849624,0.0,0.0,0.0,38.6209151439,0.0,0.0,9.98153276815e-07,4.16649393898e-23,-1.52927247332e-14,0.0,0.0,0.0,4.16649393898e-23,9.96316749061e-07,3.45033277624e-28,0.0,0.0,0.0,-1.52927247332e-14,3.45033309646e-28,9.9631674906e-07,0.0,0.00450129412981,38.6209151439,0.0,0.0,0.0,14.4078823114,0.500207167389,0.0,0.0,0.0,0.0,-3.01067182069e-07,0.000506229475862,0.0,0.0,0.0,0.0,0.0,0.0,0.000506229475862,0.0,0.0,0.0,0.0,0.0,0.0,9.97233744246e-07,1.05451088225e-27,-9.22800854314e-24,0.0,0.0,0.0,1.05451088225e-27,9.89070770402e-07,3.40939026608e-32,0.0,0.0,0.0,-9.22800854314e-24,3.40940474421e-32,9.89070770402e-07,0.0,0.0,0.0,0.0,0.0,0.0,0.000178927429417
240529000000,12007,240529000000,odom,base_link,2.72167810357,-0.000316336367457,0.0,0.0,0.0,-5.71379803415e-05,0.999999998368,12.0125818149,0.0122475737664,0.0,0.0,0.0,0.00451776914868,0.0122475737664,117.096191267,0.0,0.0,0.0,38.7650865338,0.0,0.0,9.98153276815e-07,1.30810141705e-23,-1.52925815918e-14,0.0,0.0,0.0,1.30810141705e-23,9.96316749061e-07,1.08328777512e-28,0.0,0.0,0.0,-1.52925815918e-14,1.08328772252e-28,9.9631674906e-07,0.0,0.00451776914868,38.7650865338,0.0,0.0,0.0,14.4090823233,0.500204565113,0.0,0.0,0.0,0.0,-9.46374540337e-08,0.000506229475862,0.0,0.0,0.0,0.0,0.0,0.0,0.000506229475862,0.0,0.0,0.0,0.0,0.0,0.0,9.97233744246e-07,1.05452993828e-27,-9.22792216984e-24,0.0,0.0,0.0,1.05452993828e-27,9.89070770402e-07,3.40944055381e-32,0.0,0.0,0.0,-9.22792216984e-24,3.40942710394e-32,9.89070770402e-07,0.0,0.0,0.0,0.0,0.0,0.0,0.000178927429417
240549000000,12008,240549000000,odom,base_link,2.73167812506,-0.000317479140714,0.0,0.0,0.0,-5.71398404767e-05,0.999999998368,12.0135822481,0.0123372707354,0.0,0.0,0.0,0.00453424582591,0.0123372707354,117.874412171,0.0,0.0,0.0,38.9092688054,0.0,0.0,9.98153276815e-07,3.10766772511e-23,-1.52924402696e-14,0.0,0.0,0.0,3.10766772511e-23,9.96316749061e-07,2.57345656513e-28,0.0,0.0,0.0,-1.52924402696e-14,2.57345661767e-28,9.9631674906e-07,0.0,0.00453424582591,38.9092688054,0.0,0.0,0.0,14.4102823352,0.500201996178,0.0,0.0,0.0,0.0,-2.24621910523e-07,0.000506229475861,0.0,0.0,0.0,0.0,0.0,0.0,0.000506229475861,0.0,0.0,0.0,0.0,0.0,0.0,9.97233744246e-07,1.0545545687e-27,-9.22783689433e-24,0.0,0.0,0.0,1.0545545687e-27,9.89070770402e-07,3.40948159795e-32,0.0,0.0,0.0,-9.22783689433e-24,3.40944767586e-32,9.89070770402e-07,0.0,0.0,0.0,0.0,0.0,0.0,0.000178927429417
240569000000,12009,240569000000,odom,base_link,2.74167814636,-0.00031862195177,0.0,0.0,0.0,-5.71412017151e-05,0.999999998367,12.0145826812,0.01242729824,0.0,0.0,0.0,0.00455072429484,0.01242729824,118.655512587,0.0,0.0,0.0,39.0534619729,0.0,0.0,9.98153276815e-07,1.34321963589e-23,-1.52923007434e-14,0.0,0.0,0.0,1.34321963589e-23,9.96316749061e-07,1.11233701976e-28,0.0,0.0,0.0,-1.52923007434e-14,1.11233697349e-28,9.9631674906e-07,0.0,0.00455072429484,39.0534619729,0.0,0.0,0.0,14.4114823472,0.500199460142,0.0,0.0,0.0,0.0,-9.71965462994e-08,0.000506229475861,0.0,0.0,0.0,0.0,0.0,0.0,0.000506229475861,0.0,0.0,0.0,0.0,0.0,0.0,9.97233744246e-07,1.05456998843e-27,-9.22775270256e-24,0.0,0.0,0.0,1.05456998843e-27,9.89070770402e-07,3.40950335164e-32,0.0,0.0,0.0,-9.22775270256e-24,3.40950823329e-32,9.89070770402e-07,0.0,0.0,0.0,0.0,0.0,0.0,0.000178927429417
240589000000,12010,240589000000,odom,base_link,2.75167816747,-0.000319764778573,0.0,0.0,0.0,-5.71397014402e-05,0.999999998368,12.0155831144,0.0125176554606,0.0,0.0,0.0,0.00456720423923,0.0125176554606,119.439492764,0.0,0.0,0.0,39.1976660503,0.0,0.0,9.98153276815e-07,-3.54614824233e-23,-1.52921629899e-14,0.0,0.0,0.0,-3.54614824233e-23,9.96316749061e-07,-2.93647686321e-28,0.0,0.0,0.0,-1.52921629899e-14,-2.93647710337e-28,9.9631674906e-07,0.0,0.00456720423923,39.1976660503,0.0,0.0,0.0,14.4126823591,0.500196956569,0.0,0.0,0.0,0.0,2.55929839977e-07,0.00050622947586,0.0,0.0,0.0,0.0,0.0,0.0,0.00050622947586,0.0,0.0,0.0,0.0,0.0,0.0,9.97233744246e-07,1.05453232827e-27,-9.22766958041e-24,0.0,0.0,0.0,1.05453232827e-27,9.89070770402e-07,3.40932357657e-32,0.0,0.0,0.0,-9.22766958041e-24,3.40931167098e-32,9.89070770402e-07,0.0,0.0,0.0,0.0,0.0,0.0,0.000178927429417
240609000000,12011,240609000000,odom,base_link,2.76167818842,-0.000320907573155,0.0,0.0,0.0,-5.71394978633e-05,0.999999998368,12.0165835477,0.0126083405447,0.0,0.0,0.0,0.00458368496907,0.0126083405447,120.226352954,0.0,0.0,0.0,39.3418810513,0.0,0.0,9.98153276815e-07,1.13131193194e-23,-1.5292026986e-14,0.0,0.0,0.0,1.13131193194e-23,9.96316749061e-07,9.36768158428e-29,0.0,0.0,0.0,-1.5292026986e-14,9.3676819897e-29,9.9631674906e-07,0.0,0.00458368496907,39.3418810513,0.0,0.0,0.0,14.4138823711,0.500194485024,0.0,0.0,0.0,0.0,-8.19126655919e-08,0.00050622947586,0.0,0.0,0.0,0.0,0.0,0.0,0.00050622947586,0.0,0.0,0.0,0.0,0.0,0.0,9.97233744246e-07,1.05451940366e-27,-9.227587514e-24,0.0,0.0,0.0,1.05451940366e-27,9.89070770402e-07,3.40923409993e-32,0.0,0.0,0.0,-9.227587514e-24,3.40925139249e-32,9.89070770402e-07,0.0,0.0,0.0,0.0,0.0,0.0,0.000178927429417
240629000000,12012,240629000000,odom,base_link,2.7716782092,-0.000322050372565,0.0,0.0,0.0,-5.71402485344e-05,0.999999998367,12.0175839809,0.0126993549704,0.0,0.0,0.0,0.00460016701987,0.0126993549704,121.016093407,0.0,0.0,0.0,39.4861069896,0.0,0.0,9.98153276815e-07,9.92113312754e-24,-1.5291892709e-14,0.0,0.0,0.0,9.92113312754e-24,9.96316749061e-07,8.21546559995e-29,0.0,0.0,0.0,-1.5291892709e-14,8.21546666904e-29,9.9631674906e-07,0.0,0.00460016701987,39.4861069896,0.0,0.0,0.0,14.415082383,0.500192045078,0.0,0.0,0.0,0.0,-7.18663135168e-08,0.000506229475859,0.0,0.0,0.0,0.0,0.0,0.0,0.000506229475859,0.0,0.0,0.0,0.0,0.0,0.0,9.97233744246e-07,1.05452415789e-27,-9.22750648966e-24,0.0,0.0,0.0,1.05452415789e-27,9.89070770402e-07,3.40925926752e-32,0.0,0.0,0.0,-9.22750648966e-24,3.40923212081e-32,9.89070770402e-07,0.0,0.0,0.0,0.0,0.0,0.0,0.000178927429417
240649000000,12013,240649000000,odom,base_link,2.78167822984,-0.000323193202558,0.0,0.0,0.0,-5.71459675841e-05,0.999999998367,12.0185844143,0.0127906997891,0.0,0.0,0.0,0.0046166507645,0.0127906997891,121.808714373,0.0,0.0,0.0,39.6303438785,0.0,0.0,9.98153276815e-07,1.08669776588e-22,-1.52917601363e-14,0.0,0.0,0.0,1.08669776588e-22,9.96316749061e-07,8.99849315024e-28,0.0,0.0,0.0,-1.52917601363e-14,8.99849304439e-28,9.9631674906e-07,0.0,0.0046166507645,39.6303438785,0.0,0.0,0.0,14.4162823949,0.500189636303,0.0,0.0,0.0,0.0,-7.85109993187e-07,0.000506229475859,0.0,0.0,0.0,0.0,0.0,0.0,0.000506229475859,0.0,0.0,0.0,0.0,0.0,0.0,9.97233744246e-07,1.05462137897e-27,-9.22742649365e-24,0.0,0.0,0.0,1.05462137897e-27,9.89070770402e-07,3.4095398502e-32,0.0,0.0,0.0,-9.22742649365e-24,3.40954279263e-32,9.89070770402e-07,0.0,0.0,0.0,0.0,0.0,0.0,0.000178927429417
240669000000,12014,240669000000,odom,base_link,2.79167825034,-0.000324336156844,0.0,0.0,0.0,-5.71508688637e-05,0.999999998367,12.0195848476,0.0128823787713,0.0,0.0,0.0,0.00463313755587,0.0128823787713,122.604216105,0.0,0.0,0.0,39.7745917313,0.0,0.0,9.98153276815e-07,4.97797634867e-23,-1.52916292455e-14,0.0,0.0,0.0,4.97797634867e-23,9.96316749061e-07,4.12213641466e-28,0.0,0.0,0.0,-1.52916292455e-14,4.12213644138e-28,9.9631674906e-07,0.0,0.00463313755587,39.7745917313,0.0,0.0,0.0,14.4174824069,0.500187258277,0.0,0.0,0.0,0.0,-3.5976976209e-07,0.000506229475858,0.0,0.0,0.0,0.0,0.0,0.0,0.000506229475858,0.0,0.0,0.0,0.0,0.0,0.0,9.97233744246e-07,1.05470267454e-27,-9.22734751258e-24,0.0,0.0,0.0,1.05470267454e-27,9.89070770402e-07,3.40977552717e-32,0.0,0.0,0.0,-9.22734751258e-24,3.40976015854e-32,9.89070770402e-07,0.0,0.0,0.0,0.0,0.0,0.0,0.000178927429417
240689000000,12015,240689000000,odom,base_link,2.80167827071,-0.000325479193945,0.0,0.0,0.0,-5.71533764005e-05,0.999999998367,12.020585281,0.0129743903436,0.0,0.0,0.0,0.0046496267977,0.0129743903436,123.402598853,0.0,0.0,0.0,39.9188505611,0.0,0.0,9.98153276815e-07,2.79779580584e-23,-1.52915000147e-14,0.0,0.0,0.0,2.79779580584e-23,9.96316749061e-07,2.31675169639e-28,0.0,0.0,0.0,-1.52915000147e-14,2.31675191027e-28,9.9631674906e-07,0.0,0.0046496267977,39.9188505611,0.0,0.0,0.0,14.4186824188,0.500184910579,0.0,0.0,0.0,0.0,-2.02308358204e-07,0.000506229475858,0.0,0.0,0.0,0.0,0.0,0.0,0.000506229475858,0.0,0.0,0.0,0.0,0.0,0.0,9.97233744246e-07,1.05473963887e-27,-9.22726953312e-24,0.0,0.0,0.0,1.05473963887e-27,9.89070770402e-07,3.40986735433e-32,0.0,0.0,0.0,-9.22726953312e-24,3.40987157018e-32,9.89070770402e-07,0.0,0.0,0.0,0.0,0.0,0.0,0.000178927429417
240709000000,12016,240709000000,odom,base_link,2.81167829096,-0.00032662227753,0.0,0.0,0.0,-5.71556338213e-05,0.999999998367,12.0215857144,0.0130667331148,0.0,0.0,0.0,0.00466611796767,0.0130667331148,124.203862868,0.0,0.0,0.0,40.0631203809,0.0,0.0,9.98153276815e-07,3.24712953354e-23,-1.52913724217e-14,0.0,0.0,0.0,3.24712953354e-23,9.96316749061e-07,2.68877279255e-28,0.0,0.0,0.0,-1.52913724217e-14,2.6887731129e-28,9.9631674906e-07,0.0,0.00466611796767,40.0631203809,0.0,0.0,0.0,14.4198824308,0.500182592794,0.0,0.0,0.0,0.0,-2.34770364737e-07,0.000506229475858,0.0,0.0,0.0,0.0,0.0,0.0,0.000506229475858,0.0,0.0,0.0,0.0,0.0,0.0,9.97233744246e-07,1.0547724551e-27,-9.22719254196e-24,0.0,0.0,0.0,1.0547724551e-27,9.89070770402e-07,3.40992513996e-32,0.0,0.0,0.0,-9.22719254196e-24,3.40992044856e-32,9.89070770402e-07,0.0,0.0,0.0,0.0,0.0,0.0,0.000178927429417
240729000000,12017,240729000000,odom,base_link,2.82167831111,-0.000327765405427,0.0,0.0,0.0,-5.71574761073e-05,0.999999998367,12.0225861479,0.0131594070461,0.0,0.0,0.0,0.0046826110359,0.0131594070461,125.008008401,0.0,0.0,0.0,40.2074012032,0.0,0.0,9.98153276815e-07,2.23256634129e-23,-1.52912464451e-14,0.0,0.0,0.0,2.23256634129e-23,9.96316749061e-07,1.8486673929e-28,0.0,0.0,0.0,-1.52912464451e-14,1.84866739122e-28,9.9631674906e-07,0.0,0.0046826110359,40.2074012032,0.0,0.0,0.0,14.4210824427,0.500180304509,0.0,0.0,0.0,0.0,-1.61494367977e-07,0.000506229475857,0.0,0.0,0.0,0.0,0.0,0.0,0.000506229475857,0.0,0.0,0.0,0.0,0.0,0.0,9.97233744246e-07,1.05479769544e-27,-9.22711652613e-24,0.0,0.0,0.0,1.05479769544e-27,9.89070770402e-07,3.40997555255e-32,0.0,0.0,0.0,-9.22711652613e-24,3.40999424278e-32,9.89070770402e-07,0.0,0.0,0.0,0.0,0.0,0.0,0.000178927429417
240749000000,12018,240749000000,odom,base_link,2.83167833115,-0.000328908570253,0.0,0.0,0.0,-5.71597761967e-05,0.999999998366,12.0235865814,0.0132524118875,0.0,0.0,0.0,0.00469910589737,0.0132524118875,125.815035704,0.0,0.0,0.0,40.3516930408,0.0,0.0,9.98153276815e-07,3.57589476031e-23,-1.52911220633e-14,0.0,0.0,0.0,3.57589476031e-23,9.96316749061e-07,2.96094777178e-28,0.0,0.0,0.0,-1.52911220633e-14,2.96094790576e-28,9.9631674906e-07,0.0,0.00469910589737,40.3516930408,0.0,0.0,0.0,14.4222824546,0.500178045317,0.0,0.0,0.0,0.0,-2.58528150141e-07,0.000506229475857,0.0,0.0,0.0,0.0,0.0,0.0,0.000506229475857,0.0,0.0,0.0,0.0,0.0,0.0,9.97233744246e-07,1.05483163662e-27,-9.22704147268e-24,0.0,0.0,0.0,1.05483163662e-27,9.89070770402e-07,3.41006129156e-32,0.0,0.0,0.0,-9.22704147268e-24,3.41004691328e-32,9.89070770402e-07,0.0,0.0,0.0,0.0,0.0,0.0,0.000178927429417
240769000000,12019,240769000000,odom,base_link,2.8416783511,-0.000330051772306,0.0,0.0,0.0,-5.71588114213e-05,0.999999998366,12.0245870149,0.0133457476956,0.0,0.0,0.0,0.00471560255781,0.0133457476956,126.624945027,0.0,0.0,0.0,40.4959959059,0.0,0.0,9.98153276815e-07,-3.45468551052e-23,-1.52909992551e-14,0.0,0.0,0.0,-3.45468551052e-23,9.96316749061e-07,-2.86049597411e-28,0.0,0.0,0.0,-1.52909992551e-14,-2.8604959211e-28,9.9631674906e-07,0.0,0.00471560255781,40.4959959059,0.0,0.0,0.0,14.4234824666,0.500175814812,0.0,0.0,0.0,0.0,2.49293777614e-07,0.000506229475856,0.0,0.0,0.0,0.0,0.0,0.0,0.000506229475856,0.0,0.0,0.0,0.0,0.0,0.0,9.97233744246e-07,1.05480482384e-27,-9.22696736874e-24,0.0,0.0,0.0,1.05480482384e-27,9.89070770402e-07,3.40996991087e-32,0.0,0.0,0.0,-9.22696736874e-24,3.40996918821e-32,9.89070770402e-07,0.0,0.0,0.0,0.0,0.0,0.0,0.000178927429417
240789000000,12020,240789000000,odom,base_link,2.85167837096,-0.000331194947694,0.0,0.0,0.0,-5.71583738853e-05,0.999999998366,12.0255874485,0.013439411918,0.0,0.0,0.0,0.00473210009688,0.013439411918,127.437736623,0.0,0.0,0.0,40.6403098109,0.0,0.0,9.98153276815e-07,6.29325402535e-24,-1.52908779997e-14,0.0,0.0,0.0,6.29325402535e-24,9.96316749061e-07,5.21049027884e-29,0.0,0.0,0.0,-1.52908779997e-14,5.21049061016e-29,9.9631674906e-07,0.0,0.00473210009688,40.6403098109,0.0,0.0,0.0,14.4246824785,0.500173612594,0.0,0.0,0.0,0.0,-4.57017874245e-08,0.000506229475856,0.0,0.0,0.0,0.0,0.0,0.0,0.000506229475856,0.0,0.0,0.0,0.0,0.0,0.0,9.97233744246e-07,1.05478846825e-27,-9.22689420176e-24,0.0,0.0,0.0,1.05478846825e-27,9.89070770402e-07,3.40989251998e-32,0.0,0.0,0.0,-9.22689420176e-24,3.40988861435e-32,9.89070770402e-07,0.0,0.0,0.0,0.0,0.0,0.0,0.000178927429417
240809000000,12021,240809000000,odom,base_link,2.86167839073,-0.000332338118506,0.0,0.0,0.0,-5.71576393487e-05,0.999999998367,12.0265878821,0.0135334054728,0.0,0.0,0.0,0.0047485988345,0.0135334054728,128.253410741,0.0,0.0,0.0,40.7846347677,0.0,0.0,9.98153276815e-07,-1.72474121207e-23,-1.52907582762e-14,0.0,0.0,0.0,-1.72474121207e-23,9.96316749061e-07,-1.42808426817e-28,0.0,0.0,0.0,-1.52907582762e-14,-1.42808424156e-28,9.9631674906e-07,0.0,0.0047485988345,40.7846347677,0.0,0.0,0.0,14.4258824905,0.500171438267,0.0,0.0,0.0,0.0,1.24337709684e-07,0.000506229475856,0.0,0.0,0.0,0.0,0.0,0.0,0.000506229475856,0.0,0.0,0.0,0.0,0.0,0.0,9.97233744246e-07,1.05476660822e-27,-9.22682195914e-24,0.0,0.0,0.0,1.05476660822e-27,9.89070770402e-07,3.40977417707e-32,0.0,0.0,0.0,-9.22682195914e-24,3.40978000084e-32,9.89070770402e-07,0.0,0.0,0.0,0.0,0.0,0.0,0.000178927429417
240829000000,12022,240829000000,odom,base_link,2.87167841042,-0.000333481270479,0.0,0.0,0.0,-5.7156568815e-05,0.999999998367,12.0275883158,0.0136277278028,0.0,0.0,0.0,0.0047650985661,0.0136277278028,129.071967635,0.0,0.0,0.0,40.9289707883,0.0,0.0,9.98153276815e-07,-1.36967392374e-23,-1.5290640064e-14,0.0,0.0,0.0,-1.36967392374e-23,9.96316749061e-07,-1.13410491501e-28,0.0,0.0,0.0,-1.5290640064e-14,-1.13410491606e-28,9.9631674906e-07,0.0,0.0047650985661,40.9289707883,0.0,0.0,0.0,14.4270825024,0.50016929144,0.0,0.0,0.0,0.0,9.86911086971e-08,0.000506229475855,0.0,0.0,0.0,0.0,0.0,0.0,0.000506229475855,0.0,0.0,0.0,0.0,0.0,0.0,9.97233744246e-07,1.05473864222e-27,-9.22675062849e-24,0.0,0.0,0.0,1.05473864222e-27,9.89070770402e-07,3.40967304188e-32,0.0,0.0,0.0,-9.22675062849e-24,3.40967528451e-32,9.89070770402e-07,0.0,0.0,0.0,0.0,0.0,0.0,0.000178927429417
240849000000,12023,240849000000,odom,base_link,2.88167843004,-0.000334624408117,0.0,0.0,0.0,-5.71575996759e-05,0.999999998367,12.0285887495,0.0137223791135,0.0,0.0,0.0,0.00478159935796,0.0137223791135,129.893407555,0.0,0.0,0.0,41.0733178844,0.0,0.0,9.98153276815e-07,2.62750322428e-23,-1.52905233431e-14,0.0,0.0,0.0,2.62750322428e-23,9.96316749061e-07,2.17553259834e-28,0.0,0.0,0.0,-1.52905233431e-14,2.17553257234e-28,9.9631674906e-07,0.0,0.00478159935796,41.0733178844,0.0,0.0,0.0,14.4282825143,0.500167171723,0.0,0.0,0.0,0.0,-1.90035777018e-07,0.000506229475855,0.0,0.0,0.0,0.0,0.0,0.0,0.000506229475855,0.0,0.0,0.0,0.0,0.0,0.0,9.97233744246e-07,1.05474996044e-27,-9.22668019766e-24,0.0,0.0,0.0,1.05474996044e-27,9.89070770402e-07,3.40965932419e-32,0.0,0.0,0.0,-9.22668019766e-24,3.40966674245e-32,9.89070770402e-07,0.0,0.0,0.0,0.0,0.0,0.0,0.000178927429417
240869000000,12024,240869000000,odom,base_link,2.89167844958,-0.000335767569818,0.0,0.0,0.0,-5.71581337763e-05,0.999999998366,12.0295891832,0.0138173610105,0.0,0.0,0.0,0.00479810176548,0.0138173610105,130.717730752,0.0,0.0,0.0,41.2176760677,0.0,0.0,9.98153276815e-07,-8.35445739798e-25,-1.52904080932e-14,0.0,0.0,0.0,-8.35445739798e-25,9.96316749061e-07,-6.91442193697e-30,0.0,0.0,0.0,-1.52904080932e-14,-6.91442383748e-30,9.9631674906e-07,0.0,0.00479810176548,41.2176760677,0.0,0.0,0.0,14.4294825263,0.500165078735,0.0,0.0,0.0,0.0,5.79527685908e-09,0.000506229475854,0.0,0.0,0.0,0.0,0.0,0.0,0.000506229475854,0.0,0.0,0.0,0.0,0.0,0.0,9.97233744246e-07,1.05475178688e-27,-9.22661065448e-24,0.0,0.0,0.0,1.05475178688e-27,9.89070770402e-07,3.40963662229e-32,0.0,0.0,0.0,-9.22661065448e-24,3.40963531508e-32,9.89070770402e-07,0.0,0.0,0.0,0.0,0.0,0.0,0.000178927429417
