%time,field.header.seq,field.header.stamp,field.header.frame_id,field.pose.pose.position.x,field.pose.pose.position.y,field.pose.pose.position.z,field.pose.pose.orientation.x,field.pose.pose.orientation.y,field.pose.pose.orientation.z,field.pose.pose.orientation.w,field.pose.covariance0,field.pose.covariance1,field.pose.covariance2,field.pose.covariance3,field.pose.covariance4,field.pose.covariance5,field.pose.covariance6,field.pose.covariance7,field.pose.covariance8,field.pose.covariance9,field.pose.covariance10,field.pose.covariance11,field.pose.covariance12,field.pose.covariance13,field.pose.covariance14,field.pose.covariance15,field.pose.covariance16,field.pose.covariance17,field.pose.covariance18,field.pose.covariance19,field.pose.covariance20,field.pose.covariance21,field.pose.covariance22,field.pose.covariance23,field.pose.covariance24,field.pose.covariance25,field.pose.covariance26,field.pose.covariance27,field.pose.covariance28,field.pose.covariance29,field.pose.covariance30,field.pose.covariance31,field.pose.covariance32,field.pose.covariance33,field.pose.covariance34,field.pose.covariance35
239511333926,7,239511333926,map,15.4730396162,-8.10798033487,0.0,0.0,0.0,-0.718033741444,0.696008294597,186.122727135,38.9847000992,99.8768568483,0.0,0.0,0.0,0.0,0.0,3.01716144593,0.0,0.0,0.0,0.0,0.0,0.0,0.0,0.0,0.0,0.0,0.0,0.0,0.0,0.0,0.0,0.0,0.0,0.0,0.0,0.0,0.0,0.0,0.0,0.0,0.0,0.0,0.0
239884606395,8,239884606395,map,15.4549456069,-8.88537016978,0.0,0.0,0.0,-0.717135618638,0.696933644245,167.577664421,38.9754626591,103.808189833,0.0,0.0,0.0,0.0,0.0,2.48839285359,0.0,0.0,0.0,0.0,0.0,0.0,0.0,0.0,0.0,0.0,0.0,0.0,0.0,0.0,0.0,0.0,0.0,0.0,0.0,0.0,0.0,0.0,0.0,0.0,0.0,0.0,0.0
240404000000,9,240404000000,map,15.8100082195,15.6868311304,0.0,0.0,0.0,-0.705567535233,0.708642683745,148.340799076,38.8551927295,106.533360948,0.0,0.0,0.0,0.0,0.0,2.08457360089,0.0,0.0,0.0,0.0,0.0,0.0,0.0,0.0,0.0,0.0,0.0,0.0,0.0,0.0,0.0,0.0,0.0,0.0,0.0,0.0,0.0,0.0,0.0,0.0,0.0,0.0,0.0
240724000000,10,240724000000,map,15.8108862451,15.4852754277,0.0,0.0,0.0,-0.705567158392,0.70864305895,135.419591509,39.9113547732,106.789258426,0.0,0.0,0.0,0.0,0.0,1.86728565207,0.0,0.0,0.0,0.0,0.0,0.0,0.0,0.0,0.0,0.0,0.0,0.0,0.0,0.0,0.0,0.0,0.0,0.0,0.0,0.0,0.0,0.0,0.0,0.0,0.0,0.0,0.0
241095000000,11,241095000000,map,15.8117599575,15.2845925686,0.0,0.0,0.0,-0.705566478357,0.708643736033,118.396626761,37.9112737213,103.332874822,0.0,0.0,0.0,0.0,0.0,1.62821369208,0.0,0.0,0.0,0.0,0.0,0.0,0.0,0.0,0.0,0.0,0.0,0.0,0.0,0.0,0.0,0.0,0.0,0.0,0.0,0.0,0.0,0.0,0.0,0.0,0.0,0.0,0.0
241465000000,12,241465000000,map,15.8126420783,15.0817659369,0.0,0.0,0.0,-0.705566246267,0.708643967115,102.213591869,35.3588690658,97.8960915256,0.0,0.0,0.0,0.0,0.0,1.45364367141,0.0,0.0,0.0,0.0,0.0,0.0,0.0,0.0,0.0,0.0,0.0,0.0,0.0,0.0,0.0,0.0,0.0,0.0,0.0,0.0,0.0,0.0,0.0,0.0,0.0,0.0,0.0
241824000000,13,241824000000,map,13.8520676585,0.11187332804,0.0,0.0,0.0,-0.000454186219266,0.999999896857,87.643422142,34.0360740407,90.9826537429,0.0,0.0,0.0,0.0,0.0,1.30070258702,0.0,0.0,0.0,0.0,0.0,0.0,0.0,0.0,0.0,0.0,0.0,0.0,0.0,0.0,0.0,0.0,0.0,0.0,0.0,0.0,0.0,0.0,0.0,0.0,0.0,0.0,0.0
242301000000,14,242301000000,map,14.0534092836,0.1116881448,0.0,0.0,0.0,-0.000455001348732,0.999999896487,74.3454107334,31.214560053,81.6301025336,0.0,0.0,0.0,0.0,0.0,1.18663177536,0.0,0.0,0.0,0.0,0.0,0.0,0.0,0.0,0.0,0.0,0.0,0.0,0.0,0.0,0.0,0.0,0.0,0.0,0.0,0.0,0.0,0.0,0.0,0.0,0.0,0.0,0.0
242578000000,15,242578000000,map,14.2557278831,0.1114990413,0.0,0.0,0.0,-0.000456348268135,0.999999895873,63.2953037998,27.6238469912,73.8640164435,0.0,0.0,0.0,0.0,0.0,1.09631550933,0.0,0.0,0.0,0.0,0.0,0.0,0.0,0.0,0.0,0.0,0.0,0.0,0.0,0.0,0.0,0.0,0.0,0.0,0.0,0.0,0.0,0.0,0.0,0.0,0.0,0.0,0.0
242936000000,16,242936000000,map,14.4565684632,0.111313494184,0.0,0.0,0.0,-0.000456847700333,0.999999895645,50.9228808277,24.5802681658,67.7525574627,0.0,0.0,0.0,0.0,0.0,1.02248139054,0.0,0.0,0.0,0.0,0.0,0.0,0.0,0.0,0.0,0.0,0.0,0.0,0.0,0.0,0.0,0.0,0.0,0.0,0.0,0.0,0.0,0.0,0.0,0.0,0.0,0.0,0.0
243349000000,17,243349000000,map,14.6607800123,0.111124183396,0.0,0.0,0.0,-0.000457214977062,0.999999895477,40.4852793393,21.7584853381,62.720161079,0.0,0.0,0.0,0.0,0.0,0.973374761731,0.0,0.0,0.0,0.0,0.0,0.0,0.0,0.0,0.0,0.0,0.0,0.0,0.0,0.0,0.0,0.0,0.0,0.0,0.0,0.0,0.0,0.0,0.0,0.0,0.0,0.0,0.0
243787000000,18,243787000000,map,14.8623791551,0.110942728823,0.0,0.0,0.0,-0.000456447258613,0.999999895828,31.3704567954,16.8332598391,57.9904736276,0.0,0.0,0.0,0.0,0.0,0.894243587428,0.0,0.0,0.0,0.0,0.0,0.0,0.0,0.0,0.0,0.0,0.0,0.0,0.0,0.0,0.0,0.0,0.0,0.0,0.0,0.0,0.0,0.0,0.0,0.0,0.0,0.0,0.0
244196000000,19,244196000000,map,15.0644988214,0.110755159782,0.0,0.0,0.0,-0.000457016445968,0.999999895568,23.1484828787,12.665695534,53.3779639117,0.0,0.0,0.0,0.0,0.0,0.824863280384,0.0,0.0,0.0,0.0,0.0,0.0,0.0,0.0,0.0,0.0,0.0,0.0,0.0,0.0,0.0,0.0,0.0,0.0,0.0,0.0,0.0,0.0,0.0,0.0,0.0,0.0,0.0
244631000000,20,244631000000,map,15.2761180828,0.110564496456,0.0,0.0,0.0,-0.000456479207019,0.999999895813,18.3118728289,9.67440639901,49.0935880971,0.0,0.0,0.0,0.0,0.0,0.796483939874,0.0,0.0,0.0,0.0,0.0,0.0,0.0,0.0,0.0,0.0,0.0,0.0,0.0,0.0,0.0,0.0,0.0,0.0,0.0,0.0,0.0,0.0,0.0,0.0,0.0,0.0,0.0
245072056928,21,245072056928,map,15.4785869926,0.110376908115,0.0,0.0,0.0,-0.000456796447755,0.999999895668,14.6685045647,7.37567106638,46.5824491923,0.0,0.0,0.0,0.0,0.0,0.776726254345,0.0,0.0,0.0,0.0,0.0,0.0,0.0,0.0,0.0,0.0,0.0,0.0,0.0,0.0,0.0,0.0,0.0,0.0,0.0,0.0,0.0,0.0,0.0,0.0,0.0,0.0,0.0
245429000000,22,245429000000,map,15.679121875,0.110191176269,0.0,0.0,0.0,-0.000457281016613,0.999999895447,10.8139169409,5.35945122235,44.2681335686,0.0,0.0,0.0,0.0,0.0,0.757620603851,0.0,0.0,0.0,0.0,0.0,0.0,0.0,0.0,0.0,0.0,0.0,0.0,0.0,0.0,0.0,0.0,0.0,0.0,0.0,0.0,0.0,0.0,0.0,0.0,0.0,0.0,0.0
245757000000,23,245757000000,map,15.8808443724,0.110014082831,0.0,0.0,0.0,-0.000456049014801,0.99999989601,8.68164732581,4.08878971431,42.8366960477,0.0,0.0,0.0,0.0,0.0,0.739978477604,0.0,0.0,0.0,0.0,0.0,0.0,0.0,0.0,0.0,0.0,0.0,0.0,0.0,0.0,0.0,0.0,0.0,0.0,0.0,0.0,0.0,0.0,0.0,0.0,0.0,0.0,0.0
246229000000,24,246229000000,map,16.0908687365,0.109830177124,0.0,0.0,0.0,-0.000455313541266,0.999999896345,5.27439826919,1.95993253723,41.3221702487,0.0,0.0,0.0,0.0,0.0,0.719953639061,0.0,0.0,0.0,0.0,0.0,0.0,0.0,0.0,0.0,0.0,0.0,0.0,0.0,0.0,0.0,0.0,0.0,0.0,0.0,0.0,0.0,0.0,0.0,0.0,0.0,0.0,0.0
246562000000,25,246562000000,map,16.2923895804,0.109650724508,0.0,0.0,0.0,-0.000454785797964,0.999999896585,3.43245097112,0.400605110007,39.9796590226,0.0,0.0,0.0,0.0,0.0,0.709140584739,0.0,0.0,0.0,0.0,0.0,0.0,0.0,0.0,0.0,0.0,0.0,0.0,0.0,0.0,0.0,0.0,0.0,0.0,0.0,0.0,0.0,0.0,0.0,0.0,0.0,0.0,0.0
247080000000,26,247080000000,map,15.825050491,12.2399457255,0.0,0.0,0.0,-0.705562952304,0.708647246757,2.48836892964,-0.556813036329,38.5476342664,0.0,0.0,0.0,0.0,0.0,0.702304040119,0.0,0.0,0.0,0.0,0.0,0.0,0.0,0.0,0.0,0.0,0.0,0.0,0.0,0.0,0.0,0.0,0.0,0.0,0.0,0.0,0.0,0.0,0.0,0.0,0.0,0.0,0.0
247468000000,27,247468000000,map,15.8259296574,12.0382741516,0.0,0.0,0.0,-0.705562991547,0.708647207684,1.69016834876,-1.48450279111,37.1366388466,0.0,0.0,0.0,0.0,0.0,0.692474633529,0.0,0.0,0.0,0.0,0.0,0.0,0.0,0.0,0.0,0.0,0.0,0.0,0.0,0.0,0.0,0.0,0.0,0.0,0.0,0.0,0.0,0.0,0.0,0.0,0.0,0.0,0.0
247869000000,28,247869000000,map,15.8268135868,11.8373184133,0.0,0.0,0.0,-0.70556242118,0.708647775569,1.62016302267,-2.04024685835,35.5268523936,0.0,0.0,0.0,0.0,0.0,0.685726050166,0.0,0.0,0.0,0.0,0.0,0.0,0.0,0.0,0.0,0.0,0.0,0.0,0.0,0.0,0.0,0.0,0.0,0.0,0.0,0.0,0.0,0.0,0.0,0.0,0.0,0.0,0.0
248344634707,29,248344634707,map,15.8277356898,11.6254008007,0.0,0.0,0.0,-0.705562707013,0.70864749098,1.47710934765,-2.81268745679,33.6388800086,0.0,0.0,0.0,0.0,0.0,0.676825334857,0.0,0.0,0.0,0.0,0.0,0.0,0.0,0.0,0.0,0.0,0.0,0.0,0.0,0.0,0.0,0.0,0.0,0.0,0.0,0.0,0.0,0.0,0.0,0.0,0.0,0.0,0.0
248742000000,30,248742000000,map,15.8286131139,11.4237075887,0.0,0.0,0.0,-0.7055629943,0.708647204943,1.32002710266,-3.40367732106,31.5647499034,0.0,0.0,0.0,0.0,0.0,0.648045957705,0.0,0.0,0.0,0.0,0.0,0.0,0.0,0.0,0.0,0.0,0.0,0.0,0.0,0.0,0.0,0.0,0.0,0.0,0.0,0.0,0.0,0.0,0.0,0.0,0.0,0.0,0.0
249144000000,31,249144000000,map,15.8294932627,11.2233397259,0.0,0.0,0.0,-0.705562650975,0.708647546775,1.77585295537,-3.6075441242,29.3547009557,0.0,0.0,0.0,0.0,0.0,0.619351132925,0.0,0.0,0.0,0.0,0.0,0.0,0.0,0.0,0.0,0.0,0.0,0.0,0.0,0.0,0.0,0.0,0.0,0.0,0.0,0.0,0.0,0.0,0.0,0.0,0.0,0.0,0.0
249471000000,32,249471000000,map,15.8304092647,11.0132957312,0.0,0.0,0.0,-0.705562727112,0.708647470968,1.41450827343,-4.15867287593,27.3258915068,0.0,0.0,0.0,0.0,0.0,0.589659567045,0.0,0.0,0.0,0.0,0.0,0.0,0.0,0.0,0.0,0.0,0.0,0.0,0.0,0.0,0.0,0.0,0.0,0.0,0.0,0.0,0.0,0.0,0.0,0.0,0.0,0.0,0.0
249913000000,33,249913000000,map,15.8312868381,10.8103234083,0.0,0.0,0.0,-0.70556337679,0.708646824118,1.70146339802,-4.24297059066,25.7016267918,0.0,0.0,0.0,0.0,0.0,0.560244905056,0.0,0.0,0.0,0.0,0.0,0.0,0.0,0.0,0.0,0.0,0.0,0.0,0.0,0.0,0.0,0.0,0.0,0.0,0.0,0.0,0.0,0.0,0.0,0.0,0.0,0.0,0.0
250269800536,34,250269800536,map,15.8321921021,10.6009462628,0.0,0.0,0.0,-0.705563880491,0.708646322609,2.00501944845,-4.34432658125,23.7828436532,0.0,0.0,0.0,0.0,0.0,0.530984253712,0.0,0.0,0.0,0.0,0.0,0.0,0.0,0.0,0.0,0.0,0.0,0.0,0.0,0.0,0.0,0.0,0.0,0.0,0.0,0.0,0.0,0.0,0.0,0.0,0.0,0.0,0.0
250668000000,35,250668000000,map,15.8330846244,10.3978663135,0.0,0.0,0.0,-0.705563576543,0.708646625234,1.80289317539,-4.64984288576,22.0697767457,0.0,0.0,0.0,0.0,0.0,0.503836070954,0.0,0.0,0.0,0.0,0.0,0.0,0.0,0.0,0.0,0.0,0.0,0.0,0.0,0.0,0.0,0.0,0.0,0.0,0.0,0.0,0.0,0.0,0.0,0.0,0.0,0.0,0.0
251171000000,36,251171000000,map,15.8340051888,10.1889745855,0.0,0.0,0.0,-0.70556288065,0.708647318099,1.90873648414,-4.86328567495,20.5158311384,0.0,0.0,0.0,0.0,0.0,0.484709014759,0.0,0.0,0.0,0.0,0.0,0.0,0.0,0.0,0.0,0.0,0.0,0.0,0.0,0.0,0.0,0.0,0.0,0.0,0.0,0.0,0.0,0.0,0.0,0.0,0.0,0.0,0.0
251593000000,37,251593000000,map,15.834923383,9.97908931346,0.0,0.0,0.0,-0.70556276524,0.708647433006,1.82305541379,-4.95629198314,18.6365023953,0.0,0.0,0.0,0.0,0.0,0.450490989011,0.0,0.0,0.0,0.0,0.0,0.0,0.0,0.0,0.0,0.0,0.0,0.0,0.0,0.0,0.0,0.0,0.0,0.0,0.0,0.0,0.0,0.0,0.0,0.0,0.0,0.0,0.0
251972000000,38,251972000000,map,15.835799913,9.77875379096,0.0,0.0,0.0,-0.705562761015,0.708647437213,1.89344141571,-5.30079209836,17.8967098918,0.0,0.0,0.0,0.0,0.0,0.451309706473,0.0,0.0,0.0,0.0,0.0,0.0,0.0,0.0,0.0,0.0,0.0,0.0,0.0,0.0,0.0,0.0,0.0,0.0,0.0,0.0,0.0,0.0,0.0,0.0,0.0,0.0,0.0
252369000000,39,252369000000,map,15.8366781185,9.57787984728,0.0,0.0,0.0,-0.705562476452,0.708647720537,2.06779302567,-5.63866588873,17.4132069176,0.0,0.0,0.0,0.0,0.0,0.457557343524,0.0,0.0,0.0,0.0,0.0,0.0,0.0,0.0,0.0,0.0,0.0,0.0,0.0,0.0,0.0,0.0,0.0,0.0,0.0,0.0,0.0,0.0,0.0,0.0,0.0,0.0,0.0
252770000000,40,252770000000,map,15.8375884329,9.36792374602,0.0,0.0,0.0,-0.705562902631,0.708647296214,2.3336972406,-5.88638274046,16.7606374137,0.0,0.0,0.0,0.0,0.0,0.459403362877,0.0,0.0,0.0,0.0,0.0,0.0,0.0,0.0,0.0,0.0,0.0,0.0,0.0,0.0,0.0,0.0,0.0,0.0,0.0,0.0,0.0,0.0,0.0,0.0,0.0,0.0,0.0
253180000000,41,253180000000,map,15.8384603067,9.16630192255,0.0,0.0,0.0,-0.705563360494,0.708646840343,2.78759850223,-6.3298448686,16.6472211272,0.0,0.0,0.0,0.0,0.0,0.483852555467,0.0,0.0,0.0,0.0,0.0,0.0,0.0,0.0,0.0,0.0,0.0,0.0,0.0,0.0,0.0,0.0,0.0,0.0,0.0,0.0,0.0,0.0,0.0,0.0,0.0,0.0,0.0
253567000000,42,253567000000,map,15.8393665663,8.9562919718,0.0,0.0,0.0,-0.705563834631,0.708646368269,3.17984411885,-6.72618038632,16.1407625105,0.0,0.0,0.0,0.0,0.0,0.49954680653,0.0,0.0,0.0,0.0,0.0,0.0,0.0,0.0,0.0,0.0,0.0,0.0,0.0,0.0,0.0,0.0,0.0,0.0,0.0,0.0,0.0,0.0,0.0,0.0,0.0,0.0,0.0
253975000000,43,253975000000,map,15.8402235321,8.75472249917,0.0,0.0,0.0,-0.705564741239,0.708645465603,3.63701300216,-7.40408108918,16.0910915628,0.0,0.0,0.0,0.0,0.0,0.53885165009,0.0,0.0,0.0,0.0,0.0,0.0,0.0,0.0,0.0,0.0,0.0,0.0,0.0,0.0,0.0,0.0,0.0,0.0,0.0,0.0,0.0,0.0,0.0,0.0,0.0,0.0,0.0
254375000000,44,254375000000,map,15.8411070692,8.55284822318,0.0,0.0,0.0,-0.705564344136,0.70864586098,4.23912948051,-7.85820750187,15.8503563604,0.0,0.0,0.0,0.0,0.0,0.567603685305,0.0,0.0,0.0,0.0,0.0,0.0,0.0,0.0,0.0,0.0,0.0,0.0,0.0,0.0,0.0,0.0,0.0,0.0,0.0,0.0,0.0,0.0,0.0,0.0,0.0,0.0,0.0
254774000000,45,254774000000,map,15.842085753,8.33051509215,0.0,0.0,0.0,-0.70556396731,0.708646236167,4.78796836952,-8.26340831422,15.4673831913,0.0,0.0,0.0,0.0,0.0,0.588445567127,0.0,0.0,0.0,0.0,0.0,0.0,0.0,0.0,0.0,0.0,0.0,0.0,0.0,0.0,0.0,0.0,0.0,0.0,0.0,0.0,0.0,0.0,0.0,0.0,0.0,0.0,0.0
255347000000,46,255347000000,map,15.8430026431,8.12131805183,0.0,0.0,0.0,-0.705563630079,0.708646571931,5.34888403032,-8.26417966778,14.5748516773,0.0,0.0,0.0,0.0,0.0,0.582099291673,0.0,0.0,0.0,0.0,0.0,0.0,0.0,0.0,0.0,0.0,0.0,0.0,0.0,0.0,0.0,0.0,0.0,0.0,0.0,0.0,0.0,0.0,0.0,0.0,0.0,0.0,0.0
255682000000,47,255682000000,map,15.843870053,7.9195479363,0.0,0.0,0.0,-0.705564143044,0.708646061197,5.73526190841,-8.49298329297,13.8223001153,0.0,0.0,0.0,0.0,0.0,0.585659812441,0.0,0.0,0.0,0.0,0.0,0.0,0.0,0.0,0.0,0.0,0.0,0.0,0.0,0.0,0.0,0.0,0.0,0.0,0.0,0.0,0.0,0.0,0.0,0.0,0.0,0.0,0.0
256071000000,48,256071000000,map,15.8447568937,7.71747934309,0.0,0.0,0.0,-0.705563831776,0.708646371111,6.03799921254,-8.72692803884,13.1019183629,0.0,0.0,0.0,0.0,0.0,0.58706167696,0.0,0.0,0.0,0.0,0.0,0.0,0.0,0.0,0.0,0.0,0.0,0.0,0.0,0.0,0.0,0.0,0.0,0.0,0.0,0.0,0.0,0.0,0.0,0.0,0.0,0.0,0.0
256531000000,49,256531000000,map,15.8456548219,7.51341414924,0.0,0.0,0.0,-0.705563478607,0.708646722744,6.38334625053,-8.80995421363,12.2800601259,0.0,0.0,0.0,0.0,0.0,0.580741559229,0.0,0.0,0.0,0.0,0.0,0.0,0.0,0.0,0.0,0.0,0.0,0.0,0.0,0.0,0.0,0.0,0.0,0.0,0.0,0.0,0.0,0.0,0.0,0.0,0.0,0.0,0.0
256871000000,50,256871000000,map,15.8465345994,7.31303361487,0.0,0.0,0.0,-0.705563291105,0.70864690943,6.49801514578,-8.4253778995,11.1044009769,0.0,0.0,0.0,0.0,0.0,0.540639535414,0.0,0.0,0.0,0.0,0.0,0.0,0.0,0.0,0.0,0.0,0.0,0.0,0.0,0.0,0.0,0.0,0.0,0.0,0.0,0.0,0.0,0.0,0.0,0.0,0.0,0.0,0.0
257329000000,51,257329000000,map,15.8474002301,7.11216954199,0.0,0.0,0.0,-0.705563855564,0.708646347427,6.68915363517,-8.15231866025,10.1473129575,0.0,0.0,0.0,0.0,0.0,0.512821600424,0.0,0.0,0.0,0.0,0.0,0.0,0.0,0.0,0.0,0.0,0.0,0.0,0.0,0.0,0.0,0.0,0.0,0.0,0.0,0.0,0.0,0.0,0.0,0.0,0.0,0.0,0.0
257682000000,52,257682000000,map,15.8482805378,6.91034309143,0.0,0.0,0.0,-0.705563998671,0.708646204943,6.69980977669,-7.65151361656,8.85672714417,0.0,0.0,0.0,0.0,0.0,0.469152452797,0.0,0.0,0.0,0.0,0.0,0.0,0.0,0.0,0.0,0.0,0.0,0.0,0.0,0.0,0.0,0.0,0.0,0.0,0.0,0.0,0.0,0.0,0.0,0.0,0.0,0.0,0.0
258144000000,53,258144000000,map,15.849174896,6.70689042419,0.0,0.0,0.0,-0.705563644072,0.708646557999,6.34865103307,-6.81311444077,7.43917930965,0.0,0.0,0.0,0.0,0.0,0.403930960659,0.0,0.0,0.0,0.0,0.0,0.0,0.0,0.0,0.0,0.0,0.0,0.0,0.0,0.0,0.0,0.0,0.0,0.0,0.0,0.0,0.0,0.0,0.0,0.0,0.0,0.0,0.0
258486000000,54,258486000000,map,15.8500448111,6.50663887552,0.0,0.0,0.0,-0.705563730517,0.70864647193,6.02246338321,-6.06725614358,6.19427487755,0.0,0.0,0.0,0.0,0.0,0.350283002718,0.0,0.0,0.0,0.0,0.0,0.0,0.0,0.0,0.0,0.0,0.0,0.0,0.0,0.0,0.0,0.0,0.0,0.0,0.0,0.0,0.0,0.0,0.0,0.0,0.0,0.0,0.0
258939000000,55,258939000000,map,15.8509247609,6.30511137048,0.0,0.0,0.0,-0.705563797494,0.708646405245,5.52750641681,-5.24347262711,5.07904340263,0.0,0.0,0.0,0.0,0.0,0.295007927382,0.0,0.0,0.0,0.0,0.0,0.0,0.0,0.0,0.0,0.0,0.0,0.0,0.0,0.0,0.0,0.0,0.0,0.0,0.0,0.0,0.0,0.0,0.0,0.0,0.0,0.0,0.0
259275000000,56,259275000000,map,15.8518014946,6.10204525813,0.0,0.0,0.0,-0.705563949384,0.708646254015,4.87678796333,-4.3415858375,3.94110267458,0.0,0.0,0.0,0.0,0.0,0.238344940377,0.0,0.0,0.0,0.0,0.0,0.0,0.0,0.0,0.0,0.0,0.0,0.0,0.0,0.0,0.0,0.0,0.0,0.0,0.0,0.0,0.0,0.0,0.0,0.0,0.0,0.0,0.0
259672000000,57,259672000000,map,15.8526690748,5.90101310826,0.0,0.0,0.0,-0.705564299634,0.708645905288,3.8459917552,-3.21437157709,2.73545618698,0.0,0.0,0.0,0.0,0.0,0.171651228816,0.0,0.0,0.0,0.0,0.0,0.0,0.0,0.0,0.0,0.0,0.0,0.0,0.0,0.0,0.0,0.0,0.0,0.0,0.0,0.0,0.0,0.0,0.0,0.0,0.0,0.0,0.0
260084000000,58,260084000000,map,15.8535331475,5.70021677322,0.0,0.0,0.0,-0.705564488106,0.708645717636,3.00938115199,-2.35075811447,1.84819941726,0.0,0.0,0.0,0.0,0.0,0.123593961418,0.0,0.0,0.0,0.0,0.0,0.0,0.0,0.0,0.0,0.0,0.0,0.0,0.0,0.0,0.0,0.0,0.0,0.0,0.0,0.0,0.0,0.0,0.0,0.0,0.0,0.0,0.0
260470804684,59,260470804684,map,15.854390119,5.50014978769,0.0,0.0,0.0,-0.705564955206,0.708645252566,2.3410277595,-1.71167727202,1.25158525228,0.0,0.0,0.0,0.0,0.0,0.0893592814831,0.0,0.0,0.0,0.0,0.0,0.0,0.0,0.0,0.0,0.0,0.0,0.0,0.0,0.0,0.0,0.0,0.0,0.0,0.0,0.0,0.0,0.0,0.0,0.0,0.0,0.0,0.0
260936000000,60,260936000000,map,15.8552713801,5.29709251524,0.0,0.0,0.0,-0.705564993949,0.708645213992,1.71818845998,-1.17683669425,0.806116538358,0.0,0.0,0.0,0.0,0.0,0.0612801998407,0.0,0.0,0.0,0.0,0.0,0.0,0.0,0.0,0.0,0.0,0.0,0.0,0.0,0.0,0.0,0.0,0.0,0.0,0.0,0.0,0.0,0.0,0.0,0.0,0.0,0.0,0.0
261332000000,61,261332000000,map,15.8562038014,5.08609127182,0.0,0.0,0.0,-0.705564643319,0.708645563098,1.03426360029,-0.661353712731,0.422966002767,0.0,0.0,0.0,0.0,0.0,0.0344678880054,0.0,0.0,0.0,0.0,0.0,0.0,0.0,0.0,0.0,0.0,0.0,0.0,0.0,0.0,0.0,0.0,0.0,0.0,0.0,0.0,0.0,0.0,0.0,0.0,0.0,0.0,0.0
261676000000,62,261676000000,map,15.8570591753,4.88343754433,0.0,0.0,0.0,-0.705565450407,0.708644759518,0.496679734063,-0.297014181915,0.177683258037,0.0,0.0,0.0,0.0,0.0,0.0155799649705,0.0,0.0,0.0,0.0,0.0,0.0,0.0,0.0,0.0,0.0,0.0,0.0,0.0,0.0,0.0,0.0,0.0,0.0,0.0,0.0,0.0,0.0,0.0,0.0,0.0,0.0,0.0
262075000000,63,262075000000,map,15.8579221875,4.68304674283,0.0,0.0,0.0,-0.70556593291,0.708644279111,0.256315632414,-0.143301661903,0.0801872386481,0.0,0.0,0.0,0.0,0.0,0.00762454648909,0.0,0.0,0.0,0.0,0.0,0.0,0.0,0.0,0.0,0.0,0.0,0.0,0.0,0.0,0.0,0.0,0.0,0.0,0.0,0.0,0.0,0.0,0.0,0.0,0.0,0.0,0.0
262471000000,64,262471000000,map,15.8588135633,4.48056286526,0.0,0.0,0.0,-0.705565466795,0.708644743201,0.140662925665,-0.0733610854514,0.0383276821536,0.0,0.0,0.0,0.0,0.0,0.00397806844991,0.0,0.0,0.0,0.0,0.0,0.0,0.0,0.0,0.0,0.0,0.0,0.0,0.0,0.0,0.0,0.0,0.0,0.0,0.0,0.0,0.0,0.0,0.0,0.0,0.0,0.0,0.0
262981000000,65,262981000000,map,15.8597172243,4.2802623031,0.0,0.0,0.0,-0.705564238888,0.70864596577,0.0613817348697,-0.0298746828638,0.014607008348,0.0,0.0,0.0,0.0,0.0,0.00165743062969,0.0,0.0,0.0,0.0,0.0,0.0,0.0,0.0,0.0,0.0,0.0,0.0,0.0,0.0,0.0,0.0,0.0,0.0,0.0,0.0,0.0,0.0,0.0,0.0,0.0,0.0,0.0
263441000000,66,263441000000,map,15.8606293481,4.06945215428,0.0,0.0,0.0,-0.705564430863,0.70864577463,0.0515514542117,-0.023255660637,0.0105571943924,0.0,0.0,0.0,0.0,0.0,0.00132594122304,0.0,0.0,0.0,0.0,0.0,0.0,0.0,0.0,0.0,0.0,0.0,0.0,0.0,0.0,0.0,0.0,0.0,0.0,0.0,0.0,0.0,0.0,0.0,0.0,0.0,0.0,0.0
263770000000,67,263770000000,map,15.8615140702,3.86898351369,0.0,0.0,0.0,-0.705564077294,0.708646126661,0.0404439554936,-0.016940004132,0.0071617674941,0.0,0.0,0.0,0.0,0.0,0.000994453759351,0.0,0.0,0.0,0.0,0.0,0.0,0.0,0.0,0.0,0.0,0.0,0.0,0.0,0.0,0.0,0.0,0.0,0.0,0.0,0.0,0.0,0.0,0.0,0.0,0.0,0.0,0.0
264172000000,68,264172000000,map,15.8623670377,3.66804172175,0.0,0.0,0.0,-0.705564594006,0.708645612196,0.0140867041201,-0.00546556720631,0.00218592159176,0.0,0.0,0.0,0.0,0.0,0.000331478774442,0.0,0.0,0.0,0.0,0.0,0.0,0.0,0.0,0.0,0.0,0.0,0.0,0.0,0.0,0.0,0.0,0.0,0.0,0.0,0.0,0.0,0.0,0.0,0.0,0.0,0.0,0.0
264570000000,69,264570000000,map,15.8632364945,3.46608138494,0.0,0.0,0.0,-0.705564911284,0.708645296298,0.0441192264119,-0.0158036884531,0.00572646771815,0.0,0.0,0.0,0.0,0.0,0.000994413623151,0.0,0.0,0.0,0.0,0.0,0.0,0.0,0.0,0.0,0.0,0.0,0.0,0.0,0.0,0.0,0.0,0.0,0.0,0.0,0.0,0.0,0.0,0.0,0.0,0.0,0.0,0.0
264972000000,70,264972000000,map,15.8641756937,3.25564654614,0.0,0.0,0.0,-0.705564138824,0.708646065399,0.0461092769275,-0.015147456554,0.00504134359868,0.0,0.0,0.0,0.0,0.0,0.000994413447306,0.0,0.0,0.0,0.0,0.0,0.0,0.0,0.0,0.0,0.0,0.0,0.0,0.0,0.0,0.0,0.0,0.0,0.0,0.0,0.0,0.0,0.0,0.0,0.0,0.0,0.0,0.0
265389000000,71,265389000000,map,15.8650475804,3.0551820608,0.0,0.0,0.0,-0.705564132999,0.708646071199,0.0320405668037,-0.00965632715232,0.00297441461439,0.0,0.0,0.0,0.0,0.0,0.000662945853607,0.0,0.0,0.0,0.0,0.0,0.0,0.0,0.0,0.0,0.0,0.0,0.0,0.0,0.0,0.0,0.0,0.0,0.0,0.0,0.0,0.0,0.0,0.0,0.0,0.0,0.0,0.0
265835000000,72,265835000000,map,15.8659304007,2.85305293261,0.0,0.0,0.0,-0.705563869622,0.708646333431,1.42474300446e-06,-3.0650275562e-07,6.40691786256e-05,0.0,0.0,0.0,0.0,0.0,9.71614679963e-09,0.0,0.0,0.0,0.0,0.0,0.0,0.0,0.0,0.0,0.0,0.0,0.0,0.0,0.0,0.0,0.0,0.0,0.0,0.0,0.0,0.0,0.0,0.0,0.0,0.0,0.0,0.0
266270000000,73,266270000000,map,15.8669057621,2.63119577722,0.0,0.0,0.0,-0.705563707637,0.70864649471,1.46795716205e-06,-2.32792800148e-07,6.35361725987e-05,0.0,0.0,0.0,0.0,0.0,9.74087080037e-09,0.0,0.0,0.0,0.0,0.0,0.0,0.0,0.0,0.0,0.0,0.0,0.0,0.0,0.0,0.0,0.0,0.0,0.0,0.0,0.0,0.0,0.0,0.0,0.0,0.0,0.0,0.0
266796000000,74,266796000000,map,15.8678105855,2.42254431202,0.0,0.0,0.0,-0.705563751536,0.708646451003,1.51751314093e-06,-2.24691653727e-07,6.37150418257e-05,0.0,0.0,0.0,0.0,0.0,9.78940442218e-09,0.0,0.0,0.0,0.0,0.0,0.0,0.0,0.0,0.0,0.0,0.0,0.0,0.0,0.0,0.0,0.0,0.0,0.0,0.0,0.0,0.0,0.0,0.0,0.0,0.0,0.0,0.0
267120000000,75,267120000000,map,15.8687079199,2.21204731435,0.0,0.0,0.0,-0.705564245331,0.708645959355,1.56907722726e-06,-1.69833107577e-07,6.44271521031e-05,0.0,0.0,0.0,0.0,0.0,9.85005679449e-09,0.0,0.0,0.0,0.0,0.0,0.0,0.0,0.0,0.0,0.0,0.0,0.0,0.0,0.0,0.0,0.0,0.0,0.0,0.0,0.0,0.0,0.0,0.0,0.0,0.0,0.0,0.0
267605000000,76,267605000000,map,15.8696337066,2.00102132565,0.0,0.0,0.0,-0.705563835731,0.708646367174,1.6349051748e-06,-2.5763346656e-07,6.34134342699e-05,0.0,0.0,0.0,0.0,0.0,9.991018704e-09,0.0,0.0,0.0,0.0,0.0,0.0,0.0,0.0,0.0,0.0,0.0,0.0,0.0,0.0,0.0,0.0,0.0,0.0,0.0,0.0,0.0,0.0,0.0,0.0,0.0,0.0,0.0
267975000000,77,267975000000,map,15.8705133378,1.80010388771,0.0,0.0,0.0,-0.70556372833,0.708646474108,1.71959723616e-06,-2.15445897567e-07,6.25858767282e-05,0.0,0.0,0.0,0.0,0.0,1.02550308508e-08,0.0,0.0,0.0,0.0,0.0,0.0,0.0,0.0,0.0,0.0,0.0,0.0,0.0,0.0,0.0,0.0,0.0,0.0,0.0,0.0,0.0,0.0,0.0,0.0,0.0,0.0,0.0
268454000000,78,268454000000,map,15.8713925152,1.59902788512,0.0,0.0,0.0,-0.705563667729,0.708646534444,1.8146368177e-06,-8.17494338889e-08,6.35297833527e-05,0.0,0.0,0.0,0.0,0.0,1.05220634704e-08,0.0,0.0,0.0,0.0,0.0,0.0,0.0,0.0,0.0,0.0,0.0,0.0,0.0,0.0,0.0,0.0,0.0,0.0,0.0,0.0,0.0,0.0,0.0,0.0,0.0,0.0,0.0
268775000000,79,268775000000,map,15.8722361171,1.39848935143,0.0,0.0,0.0,-0.705564320369,0.708645884644,1.89143028706e-06,-6.06623409283e-08,6.37546560152e-05,0.0,0.0,0.0,0.0,0.0,1.07175395512e-08,0.0,0.0,0.0,0.0,0.0,0.0,0.0,0.0,0.0,0.0,0.0,0.0,0.0,0.0,0.0,0.0,0.0,0.0,0.0,0.0,0.0,0.0,0.0,0.0,0.0,0.0,0.0
269203000000,80,269203000000,map,15.8731188865,1.19494905214,0.0,0.0,0.0,-0.705564445466,0.70864576009,1.9227378516e-06,-3.81830624008e-07,6.33142257538e-05,0.0,0.0,0.0,0.0,0.0,1.06191904441e-08,0.0,0.0,0.0,0.0,0.0,0.0,0.0,0.0,0.0,0.0,0.0,0.0,0.0,0.0,0.0,0.0,0.0,0.0,0.0,0.0,0.0,0.0,0.0,0.0,0.0,0.0,0.0
269587000000,81,269587000000,map,15.8740161531,0.989452211928,0.0,0.0,0.0,-0.705564275002,0.708645929813,1.98023897724e-06,-4.42446518534e-07,6.3416201005e-05,0.0,0.0,0.0,0.0,0.0,1.06745208513e-08,0.0,0.0,0.0,0.0,0.0,0.0,0.0,0.0,0.0,0.0,0.0,0.0,0.0,0.0,0.0,0.0,0.0,0.0,0.0,0.0,0.0,0.0,0.0,0.0,0.0,0.0,0.0
269984000000,82,269984000000,map,15.874903292,0.788477691469,0.0,0.0,0.0,-0.705564275538,0.708645929279,2.00809998319e-06,-4.27423209715e-07,6.60469936085e-05,0.0,0.0,0.0,0.0,0.0,1.06060318587e-08,0.0,0.0,0.0,0.0,0.0,0.0,0.0,0.0,0.0,0.0,0.0,0.0,0.0,0.0,0.0,0.0,0.0,0.0,0.0,0.0,0.0,0.0,0.0,0.0,0.0,0.0,0.0
270429000000,83,270429000000,map,15.8757925488,0.588142315409,0.0,0.0,0.0,-0.705563940353,0.708646263007,2.06729203001e-06,-3.89274669388e-07,6.61903532913e-05,0.0,0.0,0.0,0.0,0.0,1.06313556019e-08,0.0,0.0,0.0,0.0,0.0,0.0,0.0,0.0,0.0,0.0,0.0,0.0,0.0,0.0,0.0,0.0,0.0,0.0,0.0,0.0,0.0,0.0,0.0,0.0,0.0,0.0,0.0
270857000000,84,270857000000,map,15.8766575726,0.387772403564,0.0,0.0,0.0,-0.705564014937,0.708646188747,2.09811611285e-06,-4.06091371197e-07,6.50778637985e-05,0.0,0.0,0.0,0.0,0.0,1.05298015029e-08,0.0,0.0,0.0,0.0,0.0,0.0,0.0,0.0,0.0,0.0,0.0,0.0,0.0,0.0,0.0,0.0,0.0,0.0,0.0,0.0,0.0,0.0,0.0,0.0,0.0,0.0,0.0
271187000000,85,271187000000,map,15.8775447572,0.180706060593,0.0,0.0,0.0,-0.705564300175,0.708645904749,2.15819440541e-06,-3.25877810958e-07,6.59891853798e-05,0.0,0.0,0.0,0.0,0.0,1.06829354537e-08,0.0,0.0,0.0,0.0,0.0,0.0,0.0,0.0,0.0,0.0,0.0,0.0,0.0,0.0,0.0,0.0,0.0,0.0,0.0,0.0,0.0,0.0,0.0,0.0,0.0,0.0,0.0
271575000000,86,271575000000,map,15.8784828405,-0.02922879541,0.0,0.0,0.0,-0.705563730841,0.708646471608,2.20800436068e-06,-1.9709286897e-07,6.76010887145e-05,0.0,0.0,0.0,0.0,0.0,1.06505162751e-08,0.0,0.0,0.0,0.0,0.0,0.0,0.0,0.0,0.0,0.0,0.0,0.0,0.0,0.0,0.0,0.0,0.0,0.0,0.0,0.0,0.0,0.0,0.0,0.0,0.0,0.0,0.0
271950000000,87,271950000000,map,15.8793937619,-0.237341470674,0.0,0.0,0.0,-0.705563792107,0.708646410608,2.29755315218e-06,-1.02687474968e-07,6.63950245481e-05,0.0,0.0,0.0,0.0,0.0,1.08886222557e-08,0.0,0.0,0.0,0.0,0.0,0.0,0.0,0.0,0.0,0.0,0.0,0.0,0.0,0.0,0.0,0.0,0.0,0.0,0.0,0.0,0.0,0.0,0.0,0.0,0.0,0.0,0.0
272513000000,88,272513000000,map,15.8802724477,-0.442423456726,0.0,0.0,0.0,-0.705564196919,0.708646007557,2.31740196455e-06,-4.05063067532e-08,6.39278133082e-05,0.0,0.0,0.0,0.0,0.0,1.07037010653e-08,0.0,0.0,0.0,0.0,0.0,0.0,0.0,0.0,0.0,0.0,0.0,0.0,0.0,0.0,0.0,0.0,0.0,0.0,0.0,0.0,0.0,0.0,0.0,0.0,0.0,0.0,0.0
272936000000,89,272936000000,map,15.8811296236,-0.646056188759,0.0,0.0,0.0,-0.705564976658,0.708645231208,2.42313825538e-06,-1.08070690175e-07,6.34613675876e-05,0.0,0.0,0.0,0.0,0.0,1.09450642183e-08,0.0,0.0,0.0,0.0,0.0,0.0,0.0,0.0,0.0,0.0,0.0,0.0,0.0,0.0,0.0,0.0,0.0,0.0,0.0,0.0,0.0,0.0,0.0,0.0,0.0,0.0,0.0
273262000000,90,273262000000,map,15.882062802,-0.858696053224,0.0,0.0,0.0,-0.705564808368,0.708645398766,2.484929297e-06,1.80531777971e-07,6.2179785795e-05,0.0,0.0,0.0,0.0,0.0,1.09559834838e-08,0.0,0.0,0.0,0.0,0.0,0.0,0.0,0.0,0.0,0.0,0.0,0.0,0.0,0.0,0.0,0.0,0.0,0.0,0.0,0.0,0.0,0.0,0.0,0.0,0.0,0.0,0.0
273696000000,91,273696000000,map,15.8829707754,-1.05961092193,0.0,0.0,0.0,-0.705564105453,0.708646098625,2.54633823715e-06,3.83980029994e-08,6.42874175707e-05,0.0,0.0,0.0,0.0,0.0,1.09437830209e-08,0.0,0.0,0.0,0.0,0.0,0.0,0.0,0.0,0.0,0.0,0.0,0.0,0.0,0.0,0.0,0.0,0.0,0.0,0.0,0.0,0.0,0.0,0.0,0.0,0.0,0.0,0.0
274117000000,92,274117000000,map,15.8838284085,-1.25999531045,0.0,0.0,0.0,-0.705564634114,0.708645572263,2.56019200151e-06,-8.81259651919e-08,6.55302786463e-05,0.0,0.0,0.0,0.0,0.0,1.07683200424e-08,0.0,0.0,0.0,0.0,0.0,0.0,0.0,0.0,0.0,0.0,0.0,0.0,0.0,0.0,0.0,0.0,0.0,0.0,0.0,0.0,0.0,0.0,0.0,0.0,0.0,0.0,0.0
274497246959,93,274497246959,map,15.8849122069,-1.50893361437,0.0,0.0,0.0,-0.705564789492,0.70864541756,2.67105789931e-06,-6.59253984736e-08,6.65259442916e-05,0.0,0.0,0.0,0.0,0.0,1.0931791724e-08,0.0,0.0,0.0,0.0,0.0,0.0,0.0,0.0,0.0,0.0,0.0,0.0,0.0,0.0,0.0,0.0,0.0,0.0,0.0,0.0,0.0,0.0,0.0,0.0,0.0,0.0,0.0
274969000000,94,274969000000,map,15.8858312218,-1.71330503676,0.0,0.0,0.0,-0.705564212703,0.708645991841,2.69858782076e-06,-5.99865295214e-08,6.88699549025e-05,0.0,0.0,0.0,0.0,0.0,1.07196167785e-08,0.0,0.0,0.0,0.0,0.0,0.0,0.0,0.0,0.0,0.0,0.0,0.0,0.0,0.0,0.0,0.0,0.0,0.0,0.0,0.0,0.0,0.0,0.0,0.0,0.0,0.0,0.0
275440000000,95,275440000000,map,15.8867409244,-1.91585305586,0.0,0.0,0.0,-0.705563392704,0.708646808273,2.81915419009e-06,1.71713946173e-07,6.94706339059e-05,0.0,0.0,0.0,0.0,0.0,1.09215228271e-08,0.0,0.0,0.0,0.0,0.0,0.0,0.0,0.0,0.0,0.0,0.0,0.0,0.0,0.0,0.0,0.0,0.0,0.0,0.0,0.0,0.0,0.0,0.0,0.0,0.0,0.0,0.0
275918000000,96,275918000000,map,15.8876275307,-2.11632496987,0.0,0.0,0.0,-0.705563242976,0.70864695735,2.91275659947e-06,1.34236081806e-07,6.85820761595e-05,0.0,0.0,0.0,0.0,0.0,1.1061182445e-08,0.0,0.0,0.0,0.0,0.0,0.0,0.0,0.0,0.0,0.0,0.0,0.0,0.0,0.0,0.0,0.0,0.0,0.0,0.0,0.0,0.0,0.0,0.0,0.0,0.0,0.0,0.0
276249000000,97,276249000000,map,15.8884846672,-2.31665480294,0.0,0.0,0.0,-0.70556369749,0.708646504813,3.01415667536e-06,-4.07238403e-08,6.96718495758e-05,0.0,0.0,0.0,0.0,0.0,1.13228082786e-08,0.0,0.0,0.0,0.0,0.0,0.0,0.0,0.0,0.0,0.0,0.0,0.0,0.0,0.0,0.0,0.0,0.0,0.0,0.0,0.0,0.0,0.0,0.0,0.0,0.0,0.0,0.0
276633000000,98,276633000000,map,15.8893474199,-2.51939722592,0.0,0.0,0.0,-0.705564089424,0.708646114585,3.09747210281e-06,3.20146142485e-07,6.67117561637e-05,0.0,0.0,0.0,0.0,0.0,1.14752148113e-08,0.0,0.0,0.0,0.0,0.0,0.0,0.0,0.0,0.0,0.0,0.0,0.0,0.0,0.0,0.0,0.0,0.0,0.0,0.0,0.0,0.0,0.0,0.0,0.0,0.0,0.0,0.0
277011000000,99,277011000000,map,15.8902595665,-2.72299757367,0.0,0.0,0.0,-0.705563545472,0.70864665617,3.12112152301e-06,7.08983471043e-07,6.76495264829e-05,0.0,0.0,0.0,0.0,0.0,1.13251692789e-08,0.0,0.0,0.0,0.0,0.0,0.0,0.0,0.0,0.0,0.0,0.0,0.0,0.0,0.0,0.0,0.0,0.0,0.0,0.0,0.0,0.0,0.0,0.0,0.0,0.0,0.0,0.0
277470000000,100,277470000000,map,15.891146102,-2.92464787652,0.0,0.0,0.0,-0.705563422331,0.708646778776,3.21764096611e-06,9.72191315896e-07,6.83465478364e-05,0.0,0.0,0.0,0.0,0.0,1.1433543478e-08,0.0,0.0,0.0,0.0,0.0,0.0,0.0,0.0,0.0,0.0,0.0,0.0,0.0,0.0,0.0,0.0,0.0,0.0,0.0,0.0,0.0,0.0,0.0,0.0,0.0,0.0,0.0
277900000000,101,277900000000,map,15.8920664914,-3.13155190964,0.0,0.0,0.0,-0.705563155834,0.708647044112,3.26472795109e-06,1.0366448393e-06,6.944809404e-05,0.0,0.0,0.0,0.0,0.0,1.13141172307e-08,0.0,0.0,0.0,0.0,0.0,0.0,0.0,0.0,0.0,0.0,0.0,0.0,0.0,0.0,0.0,0.0,0.0,0.0,0.0,0.0,0.0,0.0,0.0,0.0,0.0,0.0,0.0
278220000000,102,278220000000,map,15.8929623059,-3.33388287276,0.0,0.0,0.0,-0.705563125881,0.708647073936,3.31610357307e-06,1.05651839277e-06,7.28010311803e-05,0.0,0.0,0.0,0.0,0.0,1.13447997985e-08,0.0,0.0,0.0,0.0,0.0,0.0,0.0,0.0,0.0,0.0,0.0,0.0,0.0,0.0,0.0,0.0,0.0,0.0,0.0,0.0,0.0,0.0,0.0,0.0,0.0,0.0,0.0
278681000000,103,278681000000,map,15.8938349398,-3.53749614987,0.0,0.0,0.0,-0.705563299126,0.708646901444,3.41595657005e-06,1.08947272537e-06,7.13315503162e-05,0.0,0.0,0.0,0.0,0.0,1.13953524719e-08,0.0,0.0,0.0,0.0,0.0,0.0,0.0,0.0,0.0,0.0,0.0,0.0,0.0,0.0,0.0,0.0,0.0,0.0,0.0,0.0,0.0,0.0,0.0,0.0,0.0,0.0,0.0
279105000000,104,279105000000,map,15.89468969,-3.7383907407,0.0,0.0,0.0,-0.705563768168,0.708646434443,3.50390610038e-06,1.12162953059e-06,7.26651683607e-05,0.0,0.0,0.0,0.0,0.0,1.14389804623e-08,0.0,0.0,0.0,0.0,0.0,0.0,0.0,0.0,0.0,0.0,0.0,0.0,0.0,0.0,0.0,0.0,0.0,0.0,0.0,0.0,0.0,0.0,0.0,0.0,0.0,0.0,0.0
279536000000,105,279536000000,map,15.8955869616,-3.94184425922,0.0,0.0,0.0,-0.705563399704,0.708646801304,3.53467299874e-06,1.09704468798e-06,7.2601194244e-05,0.0,0.0,0.0,0.0,0.0,1.13215324103e-08,0.0,0.0,0.0,0.0,0.0,0.0,0.0,0.0,0.0,0.0,0.0,0.0,0.0,0.0,0.0,0.0,0.0,0.0,0.0,0.0,0.0,0.0,0.0,0.0,0.0,0.0,0.0
279864272174,106,279864272174,map,15.8964776688,-4.14226526053,0.0,0.0,0.0,-0.705563123403,0.708647076402,3.63534473991e-06,1.35997409245e-06,7.12403645444e-05,0.0,0.0,0.0,0.0,0.0,1.13917275937e-08,0.0,0.0,0.0,0.0,0.0,0.0,0.0,0.0,0.0,0.0,0.0,0.0,0.0,0.0,0.0,0.0,0.0,0.0,0.0,0.0,0.0,0.0,0.0,0.0,0.0,0.0,0.0
280286000000,107,280286000000,map,15.8973443937,-4.34605526271,0.0,0.0,0.0,-0.705563401143,0.708646799871,3.70824335505e-06,1.326568281e-06,6.7790466435e-05,0.0,0.0,0.0,0.0,0.0,1.14730008046e-08,0.0,0.0,0.0,0.0,0.0,0.0,0.0,0.0,0.0,0.0,0.0,0.0,0.0,0.0,0.0,0.0,0.0,0.0,0.0,0.0,0.0,0.0,0.0,0.0,0.0,0.0,0.0
280706773120,108,280706773120,map,15.8982522358,-4.55601867853,0.0,0.0,0.0,-0.705563872593,0.708646330472,3.83093399137e-06,1.26951778157e-06,6.81699248517e-05,0.0,0.0,0.0,0.0,0.0,1.15741956354e-08,0.0,0.0,0.0,0.0,0.0,0.0,0.0,0.0,0.0,0.0,0.0,0.0,0.0,0.0,0.0,0.0,0.0,0.0,0.0,0.0,0.0,0.0,0.0,0.0,0.0,0.0,0.0
281173000000,109,281173000000,map,15.8991444162,-4.76005694666,0.0,0.0,0.0,-0.705563809579,0.708646393212,3.89457173355e-06,1.11518528456e-06,6.74436085113e-05,0.0,0.0,0.0,0.0,0.0,1.14825074223e-08,0.0,0.0,0.0,0.0,0.0,0.0,0.0,0.0,0.0,0.0,0.0,0.0,0.0,0.0,0.0,0.0,0.0,0.0,0.0,0.0,0.0,0.0,0.0,0.0,0.0,0.0,0.0
281497563073,110,281497563073,map,15.8999949519,-4.96097380125,0.0,0.0,0.0,-0.705564234177,0.70864597046,3.92247429204e-06,1.00223627442e-06,6.83932656571e-05,0.0,0.0,0.0,0.0,0.0,1.13692269256e-08,0.0,0.0,0.0,0.0,0.0,0.0,0.0,0.0,0.0,0.0,0.0,0.0,0.0,0.0,0.0,0.0,0.0,0.0,0.0,0.0,0.0,0.0,0.0,0.0,0.0,0.0,0.0
281919000000,111,281919000000,map,15.9009000312,-5.16494826883,0.0,0.0,0.0,-0.705563818526,0.708646384304,3.93108135199e-06,8.66319268766e-07,7.04378406873e-05,0.0,0.0,0.0,0.0,0.0,1.11999818622e-08,0.0,0.0,0.0,0.0,0.0,0.0,0.0,0.0,0.0,0.0,0.0,0.0,0.0,0.0,0.0,0.0,0.0,0.0,0.0,0.0,0.0,0.0,0.0,0.0,0.0,0.0,0.0
282301000000,112,282301000000,map,15.9017695526,-5.36652156631,0.0,0.0,0.0,-0.705564141555,0.70864606268,0.827653420411,0.192482578933,0.597878750676,0.0,0.0,0.0,0.0,0.0,0.00387422125587,0.0,0.0,0.0,0.0,0.0,0.0,0.0,0.0,0.0,0.0,0.0,0.0,0.0,0.0,0.0,0.0,0.0,0.0,0.0,0.0,0.0,0.0,0.0,0.0,0.0,0.0,0.0
282649000000,113,282649000000,map,15.9026083614,-5.56896918587,0.0,0.0,0.0,-0.705564906559,0.708645301003,0.751561313594,0.452874843976,0.852789311238,0.0,0.0,0.0,0.0,0.0,0.00450404983669,0.0,0.0,0.0,0.0,0.0,0.0,0.0,0.0,0.0,0.0,0.0,0.0,0.0,0.0,0.0,0.0,0.0,0.0,0.0,0.0,0.0,0.0,0.0,0.0,0.0,0.0,0.0
283046000000,114,283046000000,map,15.9034856273,-5.77184020252,0.0,0.0,0.0,-0.705564995809,0.70864521214,3.14737807438,1.45670847248,2.6379759855,0.0,0.0,0.0,0.0,0.0,0.0162756641562,0.0,0.0,0.0,0.0,0.0,0.0,0.0,0.0,0.0,0.0,0.0,0.0,0.0,0.0,0.0,0.0,0.0,0.0,0.0,0.0,0.0,0.0,0.0,0.0,0.0,0.0,0.0
283452000000,115,283452000000,map,15.9043739044,-5.97233552758,0.0,0.0,0.0,-0.705564853158,0.708645354171,3.31050580697,1.78409848444,2.94692430207,0.0,0.0,0.0,0.0,0.0,0.0171138606489,0.0,0.0,0.0,0.0,0.0,0.0,0.0,0.0,0.0,0.0,0.0,0.0,0.0,0.0,0.0,0.0,0.0,0.0,0.0,0.0,0.0,0.0,0.0,0.0,0.0,0.0,0.0
283883000000,116,283883000000,map,15.9052439984,-6.17319829387,0.0,0.0,0.0,-0.705564977192,0.708645230676,3.26650619098,2.04373925926,3.47473426043,0.0,0.0,0.0,0.0,0.0,0.0171478444183,0.0,0.0,0.0,0.0,0.0,0.0,0.0,0.0,0.0,0.0,0.0,0.0,0.0,0.0,0.0,0.0,0.0,0.0,0.0,0.0,0.0,0.0,0.0,0.0,0.0,0.0,0.0
284251000000,117,284251000000,map,15.9061752231,-6.3831906593,0.0,0.0,0.0,-0.705564582326,0.708645623826,3.77476742336,2.88108757389,4.67818971975,0.0,0.0,0.0,0.0,0.0,0.0218027878011,0.0,0.0,0.0,0.0,0.0,0.0,0.0,0.0,0.0,0.0,0.0,0.0,0.0,0.0,0.0,0.0,0.0,0.0,0.0,0.0,0.0,0.0,0.0,0.0,0.0,0.0,0.0
284651000000,118,284651000000,map,15.9070646201,-6.58480527742,0.0,0.0,0.0,-0.70556461352,0.708645592767,4.93191397335,4.78925250143,7.18016152923,0.0,0.0,0.0,0.0,0.0,0.0336337922909,0.0,0.0,0.0,0.0,0.0,0.0,0.0,0.0,0.0,0.0,0.0,0.0,0.0,0.0,0.0,0.0,0.0,0.0,0.0,0.0,0.0,0.0,0.0,0.0,0.0,0.0,0.0
285080000000,119,285080000000,map,15.9079721776,-6.78621892299,0.0,0.0,0.0,-0.705563982576,0.708646220968,7.56663480829,7.714915503,10.6740085177,0.0,0.0,0.0,0.0,0.0,0.0497923783532,0.0,0.0,0.0,0.0,0.0,0.0,0.0,0.0,0.0,0.0,0.0,0.0,0.0,0.0,0.0,0.0,0.0,0.0,0.0,0.0,0.0,0.0,0.0,0.0,0.0,0.0,0.0
285446000000,120,285446000000,map,15.9088869408,-6.99471781743,0.0,0.0,0.0,-0.705563891414,0.708646311733,10.0767762071,10.4617107058,14.7428834221,0.0,0.0,0.0,0.0,0.0,0.0687660947657,0.0,0.0,0.0,0.0,0.0,0.0,0.0,0.0,0.0,0.0,0.0,0.0,0.0,0.0,0.0,0.0,0.0,0.0,0.0,0.0,0.0,0.0,0.0,0.0,0.0,0.0,0.0
285849000000,121,285849000000,map,15.9098031303,-7.19926589424,0.0,0.0,0.0,-0.705563438205,0.70864676297,14.0437870094,15.9607196463,23.3072656447,0.0,0.0,0.0,0.0,0.0,0.109943966911,0.0,0.0,0.0,0.0,0.0,0.0,0.0,0.0,0.0,0.0,0.0,0.0,0.0,0.0,0.0,0.0,0.0,0.0,0.0,0.0,0.0,0.0,0.0,0.0,0.0,0.0,0.0
286346288062,122,286346288062,map,15.9106051458,-7.40125846664,0.0,0.0,0.0,-0.705564732403,0.708645474401,17.8635831048,22.474346727,33.5034006753,0.0,0.0,0.0,0.0,0.0,0.162779873882,0.0,0.0,0.0,0.0,0.0,0.0,0.0,0.0,0.0,0.0,0.0,0.0,0.0,0.0,0.0,0.0,0.0,0.0,0.0,0.0,0.0,0.0,0.0,0.0,0.0,0.0,0.0
286747000000,123,286747000000,map,15.9115049126,-7.60376535511,0.0,0.0,0.0,-0.705564475639,0.708645730049,22.5303554992,28.5665663611,43.5816328544,0.0,0.0,0.0,0.0,0.0,0.215685736095,0.0,0.0,0.0,0.0,0.0,0.0,0.0,0.0,0.0,0.0,0.0,0.0,0.0,0.0,0.0,0.0,0.0,0.0,0.0,0.0,0.0,0.0,0.0,0.0,0.0,0.0,0.0
287167000000,124,287167000000,map,15.9123564818,-7.80456498743,0.0,0.0,0.0,-0.705564672759,0.708645533786,27.529598157,34.9165270527,54.1278849502,0.0,0.0,0.0,0.0,0.0,0.28107370988,0.0,0.0,0.0,0.0,0.0,0.0,0.0,0.0,0.0,0.0,0.0,0.0,0.0,0.0,0.0,0.0,0.0,0.0,0.0,0.0,0.0,0.0,0.0,0.0,0.0,0.0,0.0
287516000000,125,287516000000,map,15.9132263695,-8.00526319065,0.0,0.0,0.0,-0.705564508507,0.708645697324,27.9811653234,36.9686472131,59.6744248826,0.0,0.0,0.0,0.0,0.0,0.328542796465,0.0,0.0,0.0,0.0,0.0,0.0,0.0,0.0,0.0,0.0,0.0,0.0,0.0,0.0,0.0,0.0,0.0,0.0,0.0,0.0,0.0,0.0,0.0,0.0,0.0,0.0,0.0
287951000000,126,287951000000,map,15.9141159313,-8.20552088211,0.0,0.0,0.0,-0.705563952327,0.708646251084,27.1043783169,39.0228674131,64.8025788733,0.0,0.0,0.0,0.0,0.0,0.397937780615,0.0,0.0,0.0,0.0,0.0,0.0,0.0,0.0,0.0,0.0,0.0,0.0,0.0,0.0,0.0,0.0,0.0,0.0,0.0,0.0,0.0,0.0,0.0,0.0,0.0,0.0,0.0
288370275348,127,288370275348,map,15.9149277008,-8.40617447687,0.0,0.0,0.0,-0.705564769464,0.708645437501,25.76114667,38.6332784984,65.3566130321,0.0,0.0,0.0,0.0,0.0,0.463905801038,0.0,0.0,0.0,0.0,0.0,0.0,0.0,0.0,0.0,0.0,0.0,0.0,0.0,0.0,0.0,0.0,0.0,0.0,0.0,0.0,0.0,0.0,0.0,0.0,0.0,0.0,0.0
288768000000,128,288768000000,map,15.9158142443,-8.60738893284,0.0,0.0,0.0,-0.705563948335,0.70864625506,24.8791649687,37.6957296943,64.1051615884,0.0,0.0,0.0,0.0,0.0,0.53785572152,0.0,0.0,0.0,0.0,0.0,0.0,0.0,0.0,0.0,0.0,0.0,0.0,0.0,0.0,0.0,0.0,0.0,0.0,0.0,0.0,0.0,0.0,0.0,0.0,0.0,0.0,0.0
289154237034,129,289154237034,map,20.8420674554,2.31963108079,0.0,0.0,0.0,-0.540751605588,0.841182323313,22.6694303736,35.1869926264,60.191117057,0.0,0.0,0.0,0.0,0.0,0.560699074613,0.0,0.0,0.0,0.0,0.0,0.0,0.0,0.0,0.0,0.0,0.0,0.0,0.0,0.0,0.0,0.0,0.0,0.0,0.0,0.0,0.0,0.0,0.0,0.0,0.0,0.0,0.0
289588000000,130,289588000000,map,20.9251100746,2.13766828086,0.0,0.0,0.0,-0.540751403322,0.841182453339,20.2956553296,31.5736182813,53.9093417075,0.0,0.0,0.0,0.0,0.0,0.563497558377,0.0,0.0,0.0,0.0,0.0,0.0,0.0,0.0,0.0,0.0,0.0,0.0,0.0,0.0,0.0,0.0,0.0,0.0,0.0,0.0,0.0,0.0,0.0,0.0,0.0,0.0,0.0
290016000000,131,290016000000,map,21.0093781912,1.9530193104,0.0,0.0,0.0,-0.540751393475,0.841182459669,17.3578452122,27.9008041513,47.9855650606,0.0,0.0,0.0,0.0,0.0,0.548950374494,0.0,0.0,0.0,0.0,0.0,0.0,0.0,0.0,0.0,0.0,0.0,0.0,0.0,0.0,0.0,0.0,0.0,0.0,0.0,0.0,0.0,0.0,0.0,0.0,0.0,0.0,0.0
290413000000,132,290413000000,map,21.096149665,1.7628845415,0.0,0.0,0.0,-0.54075128941,0.841182526567,15.4954969588,25.2524129785,44.5066265946,0.0,0.0,0.0,0.0,0.0,0.53781587518,0.0,0.0,0.0,0.0,0.0,0.0,0.0,0.0,0.0,0.0,0.0,0.0,0.0,0.0,0.0,0.0,0.0,0.0,0.0,0.0,0.0,0.0,0.0,0.0,0.0,0.0,0.0
290818000000,133,290818000000,map,21.1795847925,1.58005690164,0.0,0.0,0.0,-0.540751586215,0.841182335767,14.6235670793,24.4526222042,43.227247607,0.0,0.0,0.0,0.0,0.0,0.58290909421,0.0,0.0,0.0,0.0,0.0,0.0,0.0,0.0,0.0,0.0,0.0,0.0,0.0,0.0,0.0,0.0,0.0,0.0,0.0,0.0,0.0,0.0,0.0,0.0,0.0,0.0,0.0
291152000000,134,291152000000,map,21.2640876711,1.39489433021,0.0,0.0,0.0,-0.540751496451,0.841182393471,13.9824050829,23.8856016529,42.9978453017,0.0,0.0,0.0,0.0,0.0,0.654942655981,0.0,0.0,0.0,0.0,0.0,0.0,0.0,0.0,0.0,0.0,0.0,0.0,0.0,0.0,0.0,0.0,0.0,0.0,0.0,0.0,0.0,0.0,0.0,0.0,0.0,0.0,0.0
291552000000,135,291552000000,map,21.3492151235,1.20835733031,0.0,0.0,0.0,-0.540751862082,0.841182158427,13.4403263954,23.6756068654,44.0926280702,0.0,0.0,0.0,0.0,0.0,0.753800072897,0.0,0.0,0.0,0.0,0.0,0.0,0.0,0.0,0.0,0.0,0.0,0.0,0.0,0.0,0.0,0.0,0.0,0.0,0.0,0.0,0.0,0.0,0.0,0.0,0.0,0.0,0.0
291955000000,136,291955000000,map,21.4326814661,1.02546262215,0.0,0.0,0.0,-0.540751941967,0.841182107072,12.179675702,21.5185009362,40.48050941,0.0,0.0,0.0,0.0,0.0,0.800960563301,0.0,0.0,0.0,0.0,0.0,0.0,0.0,0.0,0.0,0.0,0.0,0.0,0.0,0.0,0.0,0.0,0.0,0.0,0.0,0.0,0.0,0.0,0.0,0.0,0.0,0.0,0.0
292433000000,137,292433000000,map,21.5161140699,0.8426456668,0.0,0.0,0.0,-0.540752019015,0.841182057543,10.2841299038,19.4274235176,37.5717784176,0.0,0.0,0.0,0.0,0.0,0.816055849895,0.0,0.0,0.0,0.0,0.0,0.0,0.0,0.0,0.0,0.0,0.0,0.0,0.0,0.0,0.0,0.0,0.0,0.0,0.0,0.0,0.0,0.0,0.0,0.0,0.0,0.0,0.0
292818000000,138,292818000000,map,21.5993678539,0.660218432186,0.0,0.0,0.0,-0.540752106826,0.841182001093,9.04978901048,17.9472336886,36.6577087668,0.0,0.0,0.0,0.0,0.0,0.860571266834,0.0,0.0,0.0,0.0,0.0,0.0,0.0,0.0,0.0,0.0,0.0,0.0,0.0,0.0,0.0,0.0,0.0,0.0,0.0,0.0,0.0,0.0,0.0,0.0,0.0,0.0,0.0
293179000000,139,293179000000,map,26.3607908291,10.1809023098,0.0,0.0,0.0,-0.99250418637,0.122210637989,7.87786365101,16.4582811514,35.3189779956,0.0,0.0,0.0,0.0,0.0,0.889627426278,0.0,0.0,0.0,0.0,0.0,0.0,0.0,0.0,0.0,0.0,0.0,0.0,0.0,0.0,0.0,0.0,0.0,0.0,0.0,0.0,0.0,0.0,0.0,0.0,0.0,0.0,0.0
293732000000,140,293732000000,map,26.1623390414,10.1312808041,0.0,0.0,0.0,-0.992504242113,0.122210185283,6.70193053675,14.7973146424,33.468427191,0.0,0.0,0.0,0.0,0.0,0.864464613343,0.0,0.0,0.0,0.0,0.0,0.0,0.0,0.0,0.0,0.0,0.0,0.0,0.0,0.0,0.0,0.0,0.0,0.0,0.0,0.0,0.0,0.0,0.0,0.0,0.0,0.0,0.0
294100000000,141,294100000000,map,25.958578444,10.0803296807,0.0,0.0,0.0,-0.99250424673,0.12221014779,5.27799838815,12.4835145115,30.2219110772,0.0,0.0,0.0,0.0,0.0,0.803629613614,0.0,0.0,0.0,0.0,0.0,0.0,0.0,0.0,0.0,0.0,0.0,0.0,0.0,0.0,0.0,0.0,0.0,0.0,0.0,0.0,0.0,0.0,0.0,0.0,0.0,0.0,0.0
294519000000,142,294519000000,map,25.720438675,10.02078231,0.0,0.0,0.0,-0.992504247041,0.122210145268,3.98105585768,10.2790153687,27.3137249783,0.0,0.0,0.0,0.0,0.0,0.695216304753,0.0,0.0,0.0,0.0,0.0,0.0,0.0,0.0,0.0,0.0,0.0,0.0,0.0,0.0,0.0,0.0,0.0,0.0,0.0,0.0,0.0,0.0,0.0,0.0,0.0,0.0,0.0
295031000000,143,295031000000,map,25.5200869592,9.97068387286,0.0,0.0,0.0,-0.992504273213,0.12220993271,3.11767316378,8.63089705912,24.6529055313,0.0,0.0,0.0,0.0,0.0,0.589492730272,0.0,0.0,0.0,0.0,0.0,0.0,0.0,0.0,0.0,0.0,0.0,0.0,0.0,0.0,0.0,0.0,0.0,0.0,0.0,0.0,0.0,0.0,0.0,0.0,0.0,0.0,0.0
295401000000,144,295401000000,map,25.3168571618,9.91986342128,0.0,0.0,0.0,-0.992504244943,0.122210162299,2.2562688773,6.95338753642,22.1233390789,0.0,0.0,0.0,0.0,0.0,0.540671068996,0.0,0.0,0.0,0.0,0.0,0.0,0.0,0.0,0.0,0.0,0.0,0.0,0.0,0.0,0.0,0.0,0.0,0.0,0.0,0.0,0.0,0.0,0.0,0.0,0.0,0.0,0.0
295823000000,145,295823000000,map,25.1213668668,9.87097984523,0.0,0.0,0.0,-0.99250423987,0.122210203504,1.5987621613,5.47322695033,19.2631145016,0.0,0.0,0.0,0.0,0.0,0.466615754959,0.0,0.0,0.0,0.0,0.0,0.0,0.0,0.0,0.0,0.0,0.0,0.0,0.0,0.0,0.0,0.0,0.0,0.0,0.0,0.0,0.0,0.0,0.0,0.0,0.0,0.0,0.0
296178000000,146,296178000000,map,24.9166920461,9.81979532646,0.0,0.0,0.0,-0.992504163806,0.122210821236,1.04752537908,4.00201569978,15.8018995175,0.0,0.0,0.0,0.0,0.0,0.359919295281,0.0,0.0,0.0,0.0,0.0,0.0,0.0,0.0,0.0,0.0,0.0,0.0,0.0,0.0,0.0,0.0,0.0,0.0,0.0,0.0,0.0,0.0,0.0,0.0,0.0,0.0,0.0
296580000000,147,296580000000,map,24.7201767405,9.77065782394,0.0,0.0,0.0,-0.992504191951,0.122210592666,0.774053950438,3.22996564229,14.2097664888,0.0,0.0,0.0,0.0,0.0,0.302319662002,0.0,0.0,0.0,0.0,0.0,0.0,0.0,0.0,0.0,0.0,0.0,0.0,0.0,0.0,0.0,0.0,0.0,0.0,0.0,0.0,0.0,0.0,0.0,0.0,0.0,0.0,0.0
297030000000,148,297030000000,map,24.521761532,9.72104202749,0.0,0.0,0.0,-0.992504217407,0.122210385927,0.412358308504,1.8875334744,9.3194061683,0.0,0.0,0.0,0.0,0.0,0.183464392938,0.0,0.0,0.0,0.0,0.0,0.0,0.0,0.0,0.0,0.0,0.0,0.0,0.0,0.0,0.0,0.0,0.0,0.0,0.0,0.0,0.0,0.0,0.0,0.0,0.0,0.0,0.0
297496000000,149,297496000000,map,24.317574801,9.66998421405,0.0,0.0,0.0,-0.992504230769,0.122210277412,0.174593181315,0.983692563254,5.9230830977,0.0,0.0,0.0,0.0,0.0,0.112335398683,0.0,0.0,0.0,0.0,0.0,0.0,0.0,0.0,0.0,0.0,0.0,0.0,0.0,0.0,0.0,0.0,0.0,0.0,0.0,0.0,0.0,0.0,0.0,0.0,0.0,0.0,0.0
297863000000,150,297863000000,map,24.1220726301,9.62109798075,0.0,0.0,0.0,-0.992504235046,0.122210242677,0.076005819046,0.467157585095,3.23326687036,0.0,0.0,0.0,0.0,0.0,0.0557875001655,0.0,0.0,0.0,0.0,0.0,0.0,0.0,0.0,0.0,0.0,0.0,0.0,0.0,0.0,0.0,0.0,0.0,0.0,0.0,0.0,0.0,0.0,0.0,0.0,0.0,0.0,0.0
298264000000,151,298264000000,map,23.9251549535,9.57185730965,0.0,0.0,0.0,-0.992504208852,0.122210455407,0.0220535586609,0.190798669757,1.69265734471,0.0,0.0,0.0,0.0,0.0,0.0278943786427,0.0,0.0,0.0,0.0,0.0,0.0,0.0,0.0,0.0,0.0,0.0,0.0,0.0,0.0,0.0,0.0,0.0,0.0,0.0,0.0,0.0,0.0,0.0,0.0,0.0,0.0,0.0
298665072183,152,298665072183,map,23.7292011993,9.52285579224,0.0,0.0,0.0,-0.992504195487,0.12221056395,0.0139440707717,0.108122826349,0.936386088396,0.0,0.0,0.0,0.0,0.0,0.0117862575851,0.0,0.0,0.0,0.0,0.0,0.0,0.0,0.0,0.0,0.0,0.0,0.0,0.0,0.0,0.0,0.0,0.0,0.0,0.0,0.0,0.0,0.0,0.0,0.0,0.0,0.0,0.0
299070000000,153,299070000000,map,23.5327622552,9.47372787129,0.0,0.0,0.0,-0.992504125487,0.122211132435,0.00362456386779,0.0344200850471,0.437241921633,0.0,0.0,0.0,0.0,0.0,0.00651452773024,0.0,0.0,0.0,0.0,0.0,0.0,0.0,0.0,0.0,0.0,0.0,0.0,0.0,0.0,0.0,0.0,0.0,0.0,0.0,0.0,0.0,0.0,0.0,0.0,0.0,0.0,0.0
299474000000,154,299474000000,map,23.3381553622,9.42506471903,0.0,0.0,0.0,-0.99250410588,0.122211291672,0.00581008628114,0.0366856222046,0.293612014792,0.0,0.0,0.0,0.0,0.0,0.00277583227415,0.0,0.0,0.0,0.0,0.0,0.0,0.0,0.0,0.0,0.0,0.0,0.0,0.0,0.0,0.0,0.0,0.0,0.0,0.0,0.0,0.0,0.0,0.0,0.0,0.0,0.0,0.0
299911000000,155,299911000000,map,23.1441408109,9.37655252002,0.0,0.0,0.0,-0.992504137428,0.122211035463,0.00311845220017,0.0179179390524,0.103140366236,0.0,0.0,0.0,0.0,0.0,0.0005990169275,0.0,0.0,0.0,0.0,0.0,0.0,0.0,0.0,0.0,0.0,0.0,0.0,0.0,0.0,0.0,0.0,0.0,0.0,0.0,0.0,0.0,0.0,0.0,0.0,0.0,0.0,0.0
300260000000,156,300260000000,map,22.9399523287,9.32549493217,0.0,0.0,0.0,-0.992504155284,0.122210890444,0.00170118283063,0.00948314002139,0.0530427497067,0.0,0.0,0.0,0.0,0.0,0.000299513544933,0.0,0.0,0.0,0.0,0.0,0.0,0.0,0.0,0.0,0.0,0.0,0.0,0.0,0.0,0.0,0.0,0.0,0.0,0.0,0.0,0.0,0.0,0.0,0.0,0.0,0.0,0.0
300676000000,157,300676000000,map,22.7362629917,9.27455695459,0.0,0.0,0.0,-0.992504123266,0.122211150471,0.00184486775834,0.0100142639287,0.0545291040528,0.0,0.0,0.0,0.0,0.0,0.000299511820626,0.0,0.0,0.0,0.0,0.0,0.0,0.0,0.0,0.0,0.0,0.0,0.0,0.0,0.0,0.0,0.0,0.0,0.0,0.0,0.0,0.0,0.0,0.0,0.0,0.0,0.0,0.0
301139000000,158,301139000000,map,22.5397837912,9.22542709749,0.0,0.0,0.0,-0.992504123384,0.122211149511,0.00143719399449,0.00760445264811,0.0403998840498,0.0,0.0,0.0,0.0,0.0,0.000216135948325,0.0,0.0,0.0,0.0,0.0,0.0,0.0,0.0,0.0,0.0,0.0,0.0,0.0,0.0,0.0,0.0,0.0,0.0,0.0,0.0,0.0,0.0,0.0,0.0,0.0,0.0,0.0
301577000000,159,301577000000,map,22.3452329148,9.176778765,0.0,0.0,0.0,-0.99250413162,0.122211082627,6.37461198494e-06,1.45643051042e-06,3.94003237147e-07,0.0,0.0,0.0,0.0,0.0,1.87278415086e-09,0.0,0.0,0.0,0.0,0.0,0.0,0.0,0.0,0.0,0.0,0.0,0.0,0.0,0.0,0.0,0.0,0.0,0.0,0.0,0.0,0.0,0.0,0.0,0.0,0.0,0.0,0.0
302022000000,160,302022000000,map,22.1478476973,9.12742207938,0.0,0.0,0.0,-0.992504131203,0.122211086014,6.57331167986e-06,1.50202353666e-06,4.08120030215e-07,0.0,0.0,0.0,0.0,0.0,1.90075155705e-09,0.0,0.0,0.0,0.0,0.0,0.0,0.0,0.0,0.0,0.0,0.0,0.0,0.0,0.0,0.0,0.0,0.0,0.0,0.0,0.0,0.0,0.0,0.0,0.0,0.0,0.0,0.0
302453000000,161,302453000000,map,21.9504402587,9.0780631224,0.0,0.0,0.0,-0.992504189583,0.122210611893,6.46991151143e-06,1.49150875473e-06,4.15087697547e-07,0.0,0.0,0.0,0.0,0.0,1.97293270707e-09,0.0,0.0,0.0,0.0,0.0,0.0,0.0,0.0,0.0,0.0,0.0,0.0,0.0,0.0,0.0,0.0,0.0,0.0,0.0,0.0,0.0,0.0,0.0,0.0,0.0,0.0,0.0
302779000000,162,302779000000,map,21.7515784012,9.02833790494,0.0,0.0,0.0,-0.992504208531,0.122210458016,6.62280950792e-06,1.53056134877e-06,4.29170682992e-07,0.0,0.0,0.0,0.0,0.0,2.00376915161e-09,0.0,0.0,0.0,0.0,0.0,0.0,0.0,0.0,0.0,0.0,0.0,0.0,0.0,0.0,0.0,0.0,0.0,0.0,0.0,0.0,0.0,0.0,0.0,0.0,0.0,0.0,0.0
303204000000,163,303204000000,map,21.5478686034,8.9774006791,0.0,0.0,0.0,-0.992504232762,0.122210261225,6.72329298368e-06,1.5572422285e-06,4.39009440356e-07,0.0,0.0,0.0,0.0,0.0,1.98402538941e-09,0.0,0.0,0.0,0.0,0.0,0.0,0.0,0.0,0.0,0.0,0.0,0.0,0.0,0.0,0.0,0.0,0.0,0.0,0.0,0.0,0.0,0.0,0.0,0.0,0.0,0.0,0.0
303629000000,164,303629000000,map,21.3528405534,8.92863707447,0.0,0.0,0.0,-0.992504275515,0.122209914022,6.83693815517e-06,1.58426351504e-06,4.47479067134e-07,0.0,0.0,0.0,0.0,0.0,1.93709803847e-09,0.0,0.0,0.0,0.0,0.0,0.0,0.0,0.0,0.0,0.0,0.0,0.0,0.0,0.0,0.0,0.0,0.0,0.0,0.0,0.0,0.0,0.0,0.0,0.0,0.0,0.0,0.0
304075000000,165,304075000000,map,21.1588101435,8.8801211106,0.0,0.0,0.0,-0.992504283273,0.122209851014,6.90109624202e-06,1.60682989758e-06,4.61126390405e-07,0.0,0.0,0.0,0.0,0.0,1.98600580524e-09,0.0,0.0,0.0,0.0,0.0,0.0,0.0,0.0,0.0,0.0,0.0,0.0,0.0,0.0,0.0,0.0,0.0,0.0,0.0,0.0,0.0,0.0,0.0,0.0,0.0,0.0,0.0
304505000000,166,304505000000,map,20.9551133644,8.82918914422,0.0,0.0,0.0,-0.992504309987,0.122209634059,7.2490284424e-06,1.68426984715e-06,4.83346980218e-07,0.0,0.0,0.0,0.0,0.0,2.01570160664e-09,0.0,0.0,0.0,0.0,0.0,0.0,0.0,0.0,0.0,0.0,0.0,0.0,0.0,0.0,0.0,0.0,0.0,0.0,0.0,0.0,0.0,0.0,0.0,0.0,0.0,0.0,0.0
304857000000,167,304857000000,map,20.7509011267,8.77812790107,0.0,0.0,0.0,-0.992504315241,0.122209591392,7.59608121825e-06,1.76412757469e-06,5.0755292591e-07,0.0,0.0,0.0,0.0,0.0,2.00326599853e-09,0.0,0.0,0.0,0.0,0.0,0.0,0.0,0.0,0.0,0.0,0.0,0.0,0.0,0.0,0.0,0.0,0.0,0.0,0.0,0.0,0.0,0.0,0.0,0.0,0.0,0.0,0.0
305306000000,168,305306000000,map,20.5563807798,8.72949448807,0.0,0.0,0.0,-0.992504325723,0.122209506265,7.71890512397e-06,1.80023889129e-06,5.23935554497e-07,0.0,0.0,0.0,0.0,0.0,2.0507893172e-09,0.0,0.0,0.0,0.0,0.0,0.0,0.0,0.0,0.0,0.0,0.0,0.0,0.0,0.0,0.0,0.0,0.0,0.0,0.0,0.0,0.0,0.0,0.0,0.0,0.0,0.0,0.0
305664000000,169,305664000000,map,20.3585027176,8.68001453132,0.0,0.0,0.0,-0.992504348482,0.122209321427,7.92728371835e-06,1.84517188018e-06,5.41856167047e-07,0.0,0.0,0.0,0.0,0.0,2.12660511536e-09,0.0,0.0,0.0,0.0,0.0,0.0,0.0,0.0,0.0,0.0,0.0,0.0,0.0,0.0,0.0,0.0,0.0,0.0,0.0,0.0,0.0,0.0,0.0,0.0,0.0,0.0,0.0
306094000000,170,306094000000,map,20.1625423595,8.63101231013,0.0,0.0,0.0,-0.992504343083,0.122209365277,8.10768142401e-06,1.90739362438e-06,5.67910106497e-07,0.0,0.0,0.0,0.0,0.0,2.14693751781e-09,0.0,0.0,0.0,0.0,0.0,0.0,0.0,0.0,0.0,0.0,0.0,0.0,0.0,0.0,0.0,0.0,0.0,0.0,0.0,0.0,0.0,0.0,0.0,0.0,0.0,0.0,0.0
306522201823,171,306522201823,map,19.9675894951,8.58225979609,0.0,0.0,0.0,-0.99250430797,0.122209650441,8.3770143533e-06,1.95895276534e-06,5.83255229003e-07,0.0,0.0,0.0,0.0,0.0,2.21032481329e-09,0.0,0.0,0.0,0.0,0.0,0.0,0.0,0.0,0.0,0.0,0.0,0.0,0.0,0.0,0.0,0.0,0.0,0.0,0.0,0.0,0.0,0.0,0.0,0.0,0.0,0.0,0.0
306951000000,172,306951000000,map,19.7638926137,8.53133318841,0.0,0.0,0.0,-0.992504358832,0.12220923737,8.61102114413e-06,2.03506090202e-06,6.1290457154e-07,0.0,0.0,0.0,0.0,0.0,2.22812346475e-09,0.0,0.0,0.0,0.0,0.0,0.0,0.0,0.0,0.0,0.0,0.0,0.0,0.0,0.0,0.0,0.0,0.0,0.0,0.0,0.0,0.0,0.0,0.0,0.0,0.0,0.0,0.0
307236000000,173,307236000000,map,19.5664957732,8.48196704621,0.0,0.0,0.0,-0.99250431232,0.122209615116,1.84651923121,-0.0675425454982,0.592811765806,0.0,0.0,0.0,0.0,0.0,0.0172304371343,0.0,0.0,0.0,0.0,0.0,0.0,0.0,0.0,0.0,0.0,0.0,0.0,0.0,0.0,0.0,0.0,0.0,0.0,0.0,0.0,0.0,0.0,0.0,0.0,0.0,0.0,0.0
307704000000,174,307704000000,map,19.362251155,8.43089973533,0.0,0.0,0.0,-0.99250433474,0.122209433029,1.18187021531,-0.172902964703,0.329401896797,0.0,0.0,0.0,0.0,0.0,0.0120172255896,0.0,0.0,0.0,0.0,0.0,0.0,0.0,0.0,0.0,0.0,0.0,0.0,0.0,0.0,0.0,0.0,0.0,0.0,0.0,0.0,0.0,0.0,0.0,0.0,0.0,0.0,0.0
308086000000,175,308086000000,map,19.1590084062,8.38008338152,0.0,0.0,0.0,-0.992504344635,0.122209352671,5.37183848772,-0.289592903127,1.51530135556,0.0,0.0,0.0,0.0,0.0,0.0422022820617,0.0,0.0,0.0,0.0,0.0,0.0,0.0,0.0,0.0,0.0,0.0,0.0,0.0,0.0,0.0,0.0,0.0,0.0,0.0,0.0,0.0,0.0,0.0,0.0,0.0,0.0,0.0
308504000000,176,308504000000,map,18.9640372384,8.33133072173,0.0,0.0,0.0,-0.992504363675,0.122209198039,5.74489248825,-0.543962020829,1.86465254084,0.0,0.0,0.0,0.0,0.0,0.0384822029719,0.0,0.0,0.0,0.0,0.0,0.0,0.0,0.0,0.0,0.0,0.0,0.0,0.0,0.0,0.0,0.0,0.0,0.0,0.0,0.0,0.0,0.0,0.0,0.0,0.0,0.0,0.0
308904566670,177,308904566670,map,18.7671126244,8.28208575705,0.0,0.0,0.0,-0.992504369405,0.122209151509,6.34058606429,-0.464275503314,2.0509137252,0.0,0.0,0.0,0.0,0.0,0.0350767011328,0.0,0.0,0.0,0.0,0.0,0.0,0.0,0.0,0.0,0.0,0.0,0.0,0.0,0.0,0.0,0.0,0.0,0.0,0.0,0.0,0.0,0.0,0.0,0.0,0.0,0.0,0.0
309288000000,178,309288000000,map,18.5686744154,8.23246699712,0.0,0.0,0.0,-0.992504383438,0.12220903754,7.71252878723,-0.920282276077,2.53644849132,0.0,0.0,0.0,0.0,0.0,0.041449167299,0.0,0.0,0.0,0.0,0.0,0.0,0.0,0.0,0.0,0.0,0.0,0.0,0.0,0.0,0.0,0.0,0.0,0.0,0.0,0.0,0.0,0.0,0.0,0.0,0.0,0.0,0.0
310542000000,179,310542000000,map,18.5186320974,8.22011038984,0.0,0.0,0.0,-0.969522276358,0.245003174768,6.39221689413,-1.00300822667,2.43162673865,0.0,0.0,0.0,0.0,0.0,0.0341699064893,0.0,0.0,0.0,0.0,0.0,0.0,0.0,0.0,0.0,0.0,0.0,0.0,0.0,0.0,0.0,0.0,0.0,0.0,0.0,0.0,0.0,0.0,0.0,0.0,0.0,0.0,0.0
311649000000,180,311649000000,map,18.5183847275,8.2199978419,0.0,0.0,0.0,-0.930609816712,0.366012799011,6.01513701001,-0.741085662557,2.83912554559,0.0,0.0,0.0,0.0,0.0,0.0347390113491,0.0,0.0,0.0,0.0,0.0,0.0,0.0,0.0,0.0,0.0,0.0,0.0,0.0,0.0,0.0,0.0,0.0,0.0,0.0,0.0,0.0,0.0,0.0,0.0,0.0,0.0,0.0
312744813269,181,312744813269,map,18.5183129477,8.21993702132,0.0,0.0,0.0,-0.877583479648,0.479423858656,6.68245443381,-0.837585058197,3.91224183128,0.0,0.0,0.0,0.0,0.0,0.0347807618067,0.0,0.0,0.0,0.0,0.0,0.0,0.0,0.0,0.0,0.0,0.0,0.0,0.0,0.0,0.0,0.0,0.0,0.0,0.0,0.0,0.0,0.0,0.0,0.0,0.0,0.0,0.0
313839000000,182,313839000000,map,18.5182725319,8.21988095808,0.0,0.0,0.0,-0.809950152265,0.586498721948,9.29580950885,0.0968212903263,6.08842931042,0.0,0.0,0.0,0.0,0.0,0.0477215665024,0.0,0.0,0.0,0.0,0.0,0.0,0.0,0.0,0.0,0.0,0.0,0.0,0.0,0.0,0.0,0.0,0.0,0.0,0.0,0.0,0.0,0.0,0.0,0.0,0.0,0.0,0.0
314951000000,183,314951000000,map,18.5182789956,8.21975429628,0.0,0.0,0.0,-0.730434369527,0.682982892768,9.3966272423,0.323739380598,8.82112194424,0.0,0.0,0.0,0.0,0.0,0.0455151192269,0.0,0.0,0.0,0.0,0.0,0.0,0.0,0.0,0.0,0.0,0.0,0.0,0.0,0.0,0.0,0.0,0.0,0.0,0.0,0.0,0.0,0.0,0.0,0.0,0.0,0.0,0.0
