%time,field.x,field.y,field.z,field.w
1521813188823488950,0.0,0.0,1.22481737557e-08,1.0
1521813188857633113,0.0,0.0,2.25170038657e-06,0.999999999997
1521813188878142118,0.0,0.0,2.29037195762e-06,0.999999999997
1521813188887433052,0.0,0.0,2.29083760849e-06,0.999999999997
1521813188911011934,0.0,0.0,2.29130325936e-06,0.999999999997
1521813188938815116,0.0,0.0,2.29176891022e-06,0.999999999997
1521813188961216926,0.0,0.0,2.29223456109e-06,0.999999999997
1521813188989516973,0.0,0.0,2.29462827216e-06,0.999999999997
1521813189019515991,0.0,0.0,2.39992974993e-06,0.999999999997
1521813189036886930,0.0,0.0,2.40030056905e-06,0.999999999997
1521813189062113046,0.0,0.0,2.40067138818e-06,0.999999999997
1521813189097589015,0.0,0.0,7.41069949579e-07,1.0
1521813189116733074,0.0,0.0,-1.99360926003e-08,1.0
1521813189139231920,0.0,0.0,-1.67016246641e-07,1.0
1521813189180949926,0.0,0.0,2.64761567378e-06,0.999999999996
1521813189206417083,0.0,0.0,2.63010141868e-06,0.999999999997
1521813189220278978,0.0,0.0,1.74982239793e-05,0.999999999847
1521813189247175931,0.0,0.0,1.75080778469e-05,0.999999999847
1521813189274034023,0.0,0.0,9.82779332154e-06,0.999999999952
1521813189293000936,0.0,0.0,9.85159660632e-06,0.999999999951
1521813189316925048,0.0,0.0,1.01006221963e-05,0.999999999949
1521813189344264030,0.0,0.0,1.0873399107e-05,0.999999999941
1521813189367501974,0.0,0.0,1.09671353526e-05,0.99999999994
1521813189391375064,0.0,0.0,1.09898111059e-05,0.99999999994
1521813189429529905,0.0,0.0,-5.76209593408e-05,0.99999999834
1521813189440773010,0.0,0.0,-5.76137537384e-05,0.99999999834
1521813189467591047,0.0,0.0,-5.76065481359e-05,0.999999998341
1521813189495574951,0.0,0.0,-5.76082556041e-05,0.999999998341
1521813189529257059,0.0,0.0,-5.75825676284e-05,0.999999998342
1521813189548101902,0.0,0.0,-5.75679963137e-05,0.999999998343
1521813189572365999,0.0,0.0,0.000180795482801,0.999999983656
1521813189592037916,0.0,0.0,0.000180799592708,0.999999983656
1521813189622500896,0.0,0.0,0.000180799595015,0.999999983656
1521813189648657083,0.0,0.0,0.00018080045888,0.999999983656
1521813189679915904,0.0,0.0,0.000175555247866,0.99999998459
1521813189697717905,0.0,0.0,0.000175560856465,0.999999984589
1521813189723763942,0.0,0.0,0.000175566177107,0.999999984588
1521813189744913101,0.0,0.0,0.000175573259176,0.999999984587
1521813189776813030,0.0,0.0,0.000175580806047,0.999999984586
1521813189803843975,0.0,0.0,-0.00112086511874,0.99999937183
1521813189823865890,0.0,0.0,-0.00112086507573,0.999999371831
1521813189847079992,0.0,0.0,-0.00112086137748,0.999999371835
1521813189870898962,0.0,0.0,-0.00112085973818,0.999999371837
1521813189897752046,0.0,0.0,-0.00112085468323,0.999999371842
1521813189924719095,0.0,0.0,-0.0011208478022,0.99999937185
1521813189950910091,0.0,0.0,-5.49586127299e-06,0.999999999985
1521813189977298021,0.0,0.0,-5.49303268844e-06,0.999999999985
1521813189993436098,0.0,0.0,-5.49137500453e-06,0.999999999985
1521813190029350042,0.0,0.0,-3.24552603726e-06,0.999999999995
1521813190044236898,0.0,0.0,-3.2461434555e-06,0.999999999995
1521813190072500944,0.0,0.0,-3.24202463667e-06,0.999999999995
1521813190097767114,0.0,0.0,-3.23570030331e-06,0.999999999995
1521813190124949932,0.0,0.0,-3.23361528352e-06,0.999999999995
1521813190155668973,0.0,0.0,-3.22648143142e-06,0.999999999995
1521813190182152032,0.0,0.0,1.08459185426e-06,0.999999999999
1521813190197699069,0.0,0.0,1.09253071453e-06,0.999999999999
1521813190224723100,0.0,0.0,1.10054553194e-06,0.999999999999
1521813190245347023,0.0,0.0,1.10239349119e-06,0.999999999999
1521813190274497985,0.0,0.0,1.10869310787e-06,0.999999999999
1521813190295424938,0.0,0.0,1.11229378684e-06,0.999999999999
1521813190321434974,0.0,0.0,-1.51033299629e-05,0.999999999886
1521813190357911109,0.0,0.0,1.25388504619e-06,0.999999999999
1521813190369925022,0.0,0.0,1.25771804249e-06,0.999999999999
1521813190394669055,0.0,0.0,1.26155103879e-06,0.999999999999
1521813190434109926,0.0,0.0,1.2744280949e-06,0.999999999999
1521813190450335979,0.0,0.0,1.27788100874e-06,0.999999999999
1521813190475565910,0.0,0.0,1.29131350087e-06,0.999999999999
1521813190505369901,0.0,0.0,1.30642786406e-06,0.999999999999
1521813190521167039,0.0,0.0,1.30989286609e-06,0.999999999999
1521813190550158023,0.0,0.0,1.31294981574e-06,0.999999999999
1521813190588730096,0.0,0.0,1.33369109324e-06,0.999999999999
1521813190598459959,0.0,0.0,1.33580529791e-06,0.999999999999
1521813190624645948,0.0,0.0,1.33791950257e-06,0.999999999999
1521813190662245035,0.0,0.0,1.34353956842e-06,0.999999999999
1521813190677624940,0.0,0.0,1.34824752271e-06,0.999999999999
1521813190706160068,0.0,0.0,1.35462974215e-06,0.999999999999
1521813190729337930,0.0,0.0,1.35990870121e-06,0.999999999999
1521813190754965066,0.0,0.0,1.36484987632e-06,0.999999999999
1521813190778407096,0.0,0.0,1.36681941224e-06,0.999999999999
1521813190807038068,0.0,0.0,1.37144737959e-06,0.999999999999
1521813190828604936,0.0,0.0,1.37425321687e-06,0.999999999999
1521813190853811025,0.0,0.0,1.37640985956e-06,0.999999999999
1521813190878137111,0.0,0.0,1.37924660049e-06,0.999999999999
1521813190903206110,0.0,0.0,1.38076948246e-06,0.999999999999
1521813190934295892,0.0,0.0,1.39438149849e-06,0.999999999999
1521813190957887887,0.0,0.0,1.39597431463e-06,0.999999999999
1521813190980293035,0.0,0.0,1.40218612858e-06,0.999999999999
1521813191002499103,0.0,0.0,1.40659389468e-06,0.999999999999
1521813191026374101,0.0,0.0,1.40655655008e-06,0.999999999999
1521813191060061931,0.0,0.0,1.40708326437e-06,0.999999999999
1521813191079687118,0.0,0.0,1.40758864288e-06,0.999999999999
1521813191102243900,0.0,0.0,1.40485547417e-06,0.999999999999
1521813191135396957,0.0,0.0,1.41142010098e-06,0.999999999999
1521813191153888940,0.0,0.0,1.41868994062e-06,0.999999999999
1521813191176848888,0.0,0.0,1.42207262101e-06,0.999999999999
1521813191211395978,0.0,0.0,1.43297481715e-06,0.999999999999
1521813191230565071,0.0,0.0,1.43605856857e-06,0.999999999999
1521813191255956888,0.0,0.0,1.44077620653e-06,0.999999999999
1521813191275768041,0.0,0.0,1.44302731075e-06,0.999999999999
1521813191311909914,0.0,0.0,1.45166790955e-06,0.999999999999
1521813191329994916,0.0,0.0,1.46744062053e-06,0.999999999999
1521813191353781938,0.0,0.0,1.47292726644e-06,0.999999999999
1521813191379020929,0.0,0.0,1.4783655464e-06,0.999999999999
1521813191405966043,0.0,0.0,1.48998305041e-06,0.999999999999
1521813191432235956,0.0,0.0,1.49967905615e-06,0.999999999999
1521813191457097053,0.0,0.0,1.50403589293e-06,0.999999999999
1521813191487303018,0.0,0.0,1.51617718491e-06,0.999999999999
1521813191507119894,0.0,0.0,1.51981670254e-06,0.999999999999
1521813191528359889,0.0,0.0,1.52149853333e-06,0.999999999999
1521813191555484056,0.0,0.0,1.52579978481e-06,0.999999999999
1521813191581459045,0.0,0.0,1.5313900011e-06,0.999999999999
1521813191610090970,0.0,0.0,1.53968783189e-06,0.999999999999
1521813191638343095,0.0,0.0,1.55860579269e-06,0.999999999999
1521813191662682056,0.0,0.0,1.56804028827e-06,0.999999999999
1521813191680141925,0.0,0.0,1.56957545821e-06,0.999999999999
1521813191718847990,0.0,0.0,1.57900917215e-06,0.999999999999
1521813191731002092,0.0,0.0,1.58042514798e-06,0.999999999999
1521813191760209083,0.0,0.0,1.58390311158e-06,0.999999999999
1521813191785181045,0.0,0.0,1.58468182915e-06,0.999999999999
1521813191805404901,0.0,0.0,1.58748467858e-06,0.999999999999
1521813191843182086,0.0,0.0,1.59820038394e-06,0.999999999999
1521813191864483118,0.0,0.0,1.60569051073e-06,0.999999999999
1521813191891813993,0.0,0.0,1.61413440749e-06,0.999999999999
1521813191911583900,0.0,0.0,1.61393610095e-06,0.999999999999
1521813191939882993,0.0,0.0,1.62054940375e-06,0.999999999999
1521813191963006019,0.0,0.0,1.62832985806e-06,0.999999999999
1521813191989249944,0.0,0.0,1.62982471882e-06,0.999999999999
1521813192018544912,0.0,0.0,1.63274515743e-06,0.999999999999
1521813192036705970,0.0,0.0,1.63364528981e-06,0.999999999999
1521813192063396930,0.0,0.0,1.63454542219e-06,0.999999999999
1521813192095694065,0.0,0.0,1.6366437332e-06,0.999999999999
1521813192118277072,0.0,0.0,1.63774272712e-06,0.999999999999
1521813192141202926,0.0,0.0,1.641423712e-06,0.999999999999
1521813192166465044,0.0,0.0,1.6437240003e-06,0.999999999999
1521813192189038038,0.0,0.0,1.64676649762e-06,0.999999999999
1521813192220073938,0.0,0.0,1.65385453521e-06,0.999999999999
1521813192237855911,0.0,0.0,1.65576620637e-06,0.999999999999
1521813192263111114,0.0,0.0,1.6559887772e-06,0.999999999999
1521813192288918018,0.0,0.0,1.60389938819e-05,0.999999999871
1521813192315915107,0.0,0.0,1.60572335619e-05,0.999999999871
1521813192343107938,0.0,0.0,1.60635484967e-05,0.999999999871
1521813192367918968,0.0,0.0,1.60768585161e-05,0.999999999871
1521813192387614965,0.0,0.0,1.60801618584e-05,0.999999999871
1521813192415992975,0.0,0.0,7.79055116129e-06,0.99999999997
1521813192440069913,0.0,0.0,7.79434346678e-06,0.99999999997
1521813192462878942,0.0,0.0,7.79813577228e-06,0.99999999997
1521813192504995107,0.0,0.0,7.81488334057e-06,0.999999999969
1521813192520417928,0.0,0.0,7.82826660639e-06,0.999999999969
1521813192541384935,0.0,0.0,3.30137817205e-06,0.999999999995
1521813192566113948,0.0,0.0,3.30775926066e-06,0.999999999995
1521813192592273950,0.0,0.0,3.3175573164e-06,0.999999999994
1521813192619514942,0.0,0.0,3.3231750724e-06,0.999999999994
1521813192642302036,0.0,0.0,9.53670207911e-06,0.999999999955
1521813192671049118,0.0,0.0,1.3481152747e-06,0.999999999999
1521813192697832107,0.0,0.0,1.35406004413e-06,0.999999999999
1521813192719304084,0.0,0.0,1.36324467425e-06,0.999999999999
1521813192740784883,0.0,0.0,1.36910885596e-06,0.999999999999
1521813192769983053,0.0,0.0,1.37268353362e-06,0.999999999999
1521813192793078899,0.0,0.0,2.19401430947e-05,0.999999999759
1521813192824470043,0.0,0.0,2.19447060451e-05,0.999999999759
1521813192845985889,0.0,0.0,2.19480156889e-05,0.999999999759
1521813192866065979,0.0,0.0,2.19559316096e-05,0.999999999759
1521813192895688056,0.0,0.0,-0.000137539084873,0.999999990542
1521813192917098999,0.0,0.0,-0.000137534164022,0.999999990542
1521813192942570924,0.0,0.0,-0.000137530253945,0.999999990543
1521813192967861890,0.0,0.0,-0.000137528181421,0.999999990543
1521813192995265960,0.0,0.0,-0.000137526061582,0.999999990543
1521813193018902063,0.0,0.0,-0.00013752492048,0.999999990543
1521813193048389911,0.0,0.0,-5.84568785554e-05,0.999999998291
1521813193079999923,0.0,0.0,-5.84497341565e-05,0.999999998292
1521813193094719886,0.0,0.0,-5.84480714886e-05,0.999999998292
1521813193123326063,0.0,0.0,-5.8447154884e-05,0.999999998292
1521813193140743017,0.0,0.0,-5.84467876554e-05,0.999999998292
1521813193175506114,0.0,0.0,-1.28343580278e-06,0.999999999999
1521813193203130960,0.0,0.0,-1.2770366463e-06,0.999999999999
1521813193216902971,0.0,0.0,-1.27355644818e-06,0.999999999999
1521813193249809980,0.0,0.0,-1.27390723609e-06,0.999999999999
1521813193266355991,0.0,0.0,-1.27401544078e-06,0.999999999999
1521813193302958011,0.0,0.0,-0.000140930392868,0.999999990069
1521813193322572946,0.0,0.0,-0.000140923073004,0.99999999007
1521813193341739892,0.0,0.0,-0.000140918423634,0.999999990071
1521813193376224040,0.0,0.0,-0.000140904626398,0.999999990073
1521813193395417928,0.0,0.0,-0.000140902168343,0.999999990073
1521813193426017045,0.0,0.0,-4.69201307995e-06,0.999999999989
1521813193452189922,0.0,0.0,-4.68230029869e-06,0.999999999989
1521813193472497940,0.0,0.0,-4.68005987048e-06,0.999999999989
1521813193503494977,0.0,0.0,-4.6733815435e-06,0.999999999989
1521813193517864942,0.0,0.0,-4.66984147151e-06,0.999999999989
1521813193557147026,0.0,0.0,0.000650955244637,0.999999788129
1521813193580029010,0.0,0.0,0.000650963759329,0.999999788123
1521813193596740007,0.0,0.0,0.000650970198607,0.999999788119
1521813193621551036,0.0,0.0,0.000650978294357,0.999999788114
1521813193648629903,0.0,0.0,0.000650990524924,0.999999788106
1521813193671046018,0.0,0.0,0.000650992494471,0.999999788104
1521813193704252004,0.0,0.0,4.72200467444e-06,0.999999999989
1521813193719119071,0.0,0.0,4.72411611804e-06,0.999999999989
1521813193746530055,0.0,0.0,4.72702226654e-06,0.999999999989
1521813193779268980,0.0,0.0,7.68021497077e-06,0.999999999971
1521813193805831909,0.0,0.0,7.69402817127e-06,0.99999999997
1521813193828942060,0.0,0.0,7.7124878217e-06,0.99999999997
1521813193846046924,0.0,0.0,7.71341801347e-06,0.99999999997
1521813193878277063,0.0,0.0,7.71643885629e-06,0.99999999997
1521813193899611949,0.0,0.0,-1.06926036144e-05,0.999999999943
1521813193932358980,0.0,0.0,-1.06848009496e-05,0.999999999943
1521813193952874898,0.0,0.0,-1.06810598824e-05,0.999999999943
1521813193970493078,0.0,0.0,-1.06792970649e-05,0.999999999943
1521813194006618976,0.0,0.0,-1.06752252921e-05,0.999999999943
1521813194026662111,0.0,0.0,-1.06682277088e-05,0.999999999943
1521813194051687002,0.0,0.0,-3.96781282551e-06,0.999999999992
1521813194073415994,0.0,0.0,-3.967909409e-06,0.999999999992
1521813194102911949,0.0,0.0,-3.96426394924e-06,0.999999999992
1521813194125247955,0.0,0.0,-3.96135127605e-06,0.999999999992
1521813194152074098,0.0,0.0,-3.9599453162e-06,0.999999999992
1521813194187717914,0.0,0.0,-8.36437156198e-07,1.0
1521813194196358919,0.0,0.0,-8.35260937751e-07,1.0
1521813194229728937,0.0,0.0,-8.28105152869e-07,1.0
1521813194247351884,0.0,0.0,-8.27954876374e-07,1.0
1521813194287012100,0.0,0.0,6.65498596868e-07,1.0
1521813194325968980,0.0,0.0,6.66724730223e-07,1.0
1521813194367090940,0.0,0.0,6.77264837806e-07,1.0
1521813194367893934,0.0,0.0,6.95186905954e-07,1.0
1521813194405998945,0.0,0.0,6.98285817574e-07,1.0
1521813194406162023,0.0,0.0,7.01384729194e-07,1.0
1521813194445890903,0.0,0.0,7.04483640814e-07,1.0
1521813194455848932,0.0,0.0,2.77537562173e-06,0.999999999996
1521813194493885040,0.0,0.0,2.79005558469e-06,0.999999999996
1521813194534213066,0.0,0.0,2.79396364157e-06,0.999999999996
1521813194534459114,0.0,0.0,2.79706218824e-06,0.999999999996
1521813194574093103,0.0,0.0,2.80164025609e-06,0.999999999996
1521813194583414077,0.0,0.0,2.81323042904e-06,0.999999999996
1521813194622971057,0.0,0.0,2.81584195237e-06,0.999999999996
1521813194662071943,0.0,0.0,2.83561240382e-06,0.999999999996
1521813194662200927,0.0,0.0,2.85023179599e-06,0.999999999996
1521813194702218055,0.0,0.0,2.85288486733e-06,0.999999999996
1521813194708204984,0.0,0.0,2.86618010293e-06,0.999999999996
1521813194745862007,0.0,0.0,2.87715951937e-06,0.999999999996
1521813194787899017,0.0,0.0,2.8808649325e-06,0.999999999996
1521813194825911045,0.0,0.0,2.89251073929e-06,0.999999999996
1521813194826016902,0.0,0.0,2.89627980932e-06,0.999999999996
1521813194866463899,0.0,0.0,2.90469238144e-06,0.999999999996
1521813194866538047,0.0,0.0,2.90714147798e-06,0.999999999996
1521813194907371997,0.0,0.0,2.91584626008e-06,0.999999999996
1521813194907872915,0.0,0.0,2.9175380768e-06,0.999999999996
1521813194945878982,0.0,0.0,2.92141881434e-06,0.999999999996
1521813194965151071,0.0,0.0,2.93049208239e-06,0.999999999996
1521813195001945972,0.0,0.0,2.93096771922e-06,0.999999999996
1521813195042164087,0.0,0.0,2.93485547667e-06,0.999999999996
1521813195042284965,0.0,0.0,2.93975630853e-06,0.999999999996
1521813195081906080,0.0,0.0,2.94203672911e-06,0.999999999996
1521813195084075927,0.0,0.0,2.94336490669e-06,0.999999999996
1521813195122060060,0.0,0.0,2.95136321164e-06,0.999999999996
1521813195162460088,0.0,0.0,2.95211013594e-06,0.999999999996
1521813195202641963,0.0,0.0,2.95775294322e-06,0.999999999996
1521813195202761888,0.0,0.0,2.96235852476e-06,0.999999999996
1521813195243423938,0.0,0.0,2.96229822468e-06,0.999999999996
1521813195243602037,0.0,0.0,2.96715564401e-06,0.999999999996
1521813195283055067,0.0,0.0,2.97069419981e-06,0.999999999996
1521813195288201093,0.0,0.0,2.97261304146e-06,0.999999999996
1521813195325953960,0.0,0.0,2.98247844132e-06,0.999999999996
1521813195366952896,0.0,0.0,2.98374233158e-06,0.999999999996
1521813195367079973,0.0,0.0,2.99061982509e-06,0.999999999996
1521813195407071113,0.0,0.0,2.99948010209e-06,0.999999999996
1521813195409655094,0.0,0.0,3.00667711539e-06,0.999999999995
1521813195445789098,0.0,0.0,3.00930002641e-06,0.999999999995
1521813195486537933,0.0,0.0,3.01543908801e-06,0.999999999995
1521813195526000976,0.0,0.0,3.028213377e-06,0.999999999995
1521813195526123046,0.0,0.0,3.02867243981e-06,0.999999999995
1521813195566158056,0.0,0.0,3.03040767404e-06,0.999999999995
1521813195566277980,0.0,0.0,3.03631925815e-06,0.999999999995
1521813195605983018,0.0,0.0,3.04015444191e-06,0.999999999995
1521813195615859985,0.0,0.0,3.05692967045e-06,0.999999999995
1521813195654855012,0.0,0.0,3.06049714908e-06,0.999999999995
1521813195693902015,0.0,0.0,3.07995393011e-06,0.999999999995
1521813195694005966,0.0,0.0,3.08713663927e-06,0.999999999995
1521813195736742973,0.0,0.0,3.09009297731e-06,0.999999999995
1521813195739880084,0.0,0.0,3.09641641939e-06,0.999999999995
1521813195777920961,0.0,0.0,3.09950514071e-06,0.999999999995
1521813195818914890,0.0,0.0,3.10256353818e-06,0.999999999995
1521813195819349050,0.0,0.0,3.10435839697e-06,0.999999999995
1521813195862705945,0.0,0.0,3.10972877941e-06,0.999999999995
1521813195864527940,0.0,0.0,3.12405037655e-06,0.999999999995
1521813195902051925,0.0,0.0,3.12629393557e-06,0.999999999995
1521813195941781044,0.0,0.0,3.13529649733e-06,0.999999999995
1521813195941883087,0.0,0.0,3.13799813393e-06,0.999999999995
1521813195983563899,0.0,0.0,3.14468153659e-06,0.999999999995
1521813195991362094,0.0,0.0,3.15816405143e-06,0.999999999995
1521813196030778884,0.0,0.0,3.16033996052e-06,0.999999999995
1521813196070213079,0.0,0.0,3.16149741112e-06,0.999999999995
1521813196070363998,0.0,0.0,3.1617754219e-06,0.999999999995
1521813196110282897,0.0,0.0,3.16528367988e-06,0.999999999995
1521813196118170022,0.0,0.0,3.17411872768e-06,0.999999999995
1521813196157926082,0.0,0.0,1.4839425113e-06,0.999999999999
1521813196202778100,0.0,0.0,1.48479225639e-06,0.999999999999
1521813196203231096,0.0,0.0,1.48828712832e-06,0.999999999999
1521813196238353013,0.0,0.0,1.48923167073e-06,0.999999999999
1521813196242567062,0.0,0.0,1.49025607439e-06,0.999999999999
1521813196281943082,0.0,0.0,1.49155140138e-06,0.999999999999
1521813196322906017,0.0,0.0,-7.40719019418e-06,0.999999999973
1521813196361953020,0.0,0.0,-7.39936421359e-06,0.999999999973
1521813196362082958,0.0,0.0,-7.39726587645e-06,0.999999999973
1521813196402491092,0.0,0.0,-7.38870210868e-06,0.999999999973
1521813196402669906,0.0,0.0,-7.38563265363e-06,0.999999999973
1521813196442058086,0.0,0.0,-1.06700913531e-06,0.999999999999
1521813196442163944,0.0,0.0,-3.12564249725e-05,0.999999999512
1521813196481961965,0.0,0.0,-3.12441218491e-05,0.999999999512
1521813196496159076,0.0,0.0,-3.12343305984e-05,0.999999999512
1521813196534142971,0.0,0.0,-3.12328163523e-05,0.999999999512
1521813196574126958,0.0,0.0,-6.12191433564e-05,0.999999998126
1521813196613949060,0.0,0.0,-6.12100234137e-05,0.999999998127
1521813196614114999,0.0,0.0,-6.12061610952e-05,0.999999998127
1521813196658503055,0.0,0.0,-6.11938215951e-05,0.999999998128
1521813196658780097,0.0,0.0,-3.10371136003e-05,0.999999999518
1521813196698189973,0.0,0.0,-3.10333416433e-05,0.999999999518
1521813196698884010,0.0,0.0,-3.10302176016e-05,0.999999999519
1521813196737797021,0.0,0.0,-3.10126131509e-05,0.999999999519
1521813196739785909,0.0,0.0,-3.10106797385e-05,0.999999999519
1521813196777937889,0.0,0.0,-0.000113518501385,0.999999993557
1521813196819170951,0.0,0.0,-0.00011351271704,0.999999993557
1521813196858172893,0.0,0.0,-0.000113500153653,0.999999993559
1521813196858355045,0.0,0.0,-0.000113486094247,0.99999999356
1521813196897974967,0.0,0.0,-0.000113482599907,0.999999993561
1521813196900520086,0.0,0.0,8.50184996337e-06,0.999999999964
1521813196937823057,0.0,0.0,8.50512765364e-06,0.999999999964
1521813196978015899,0.0,0.0,8.51561945458e-06,0.999999999964
1521813196978163957,0.0,0.0,8.52259328705e-06,0.999999999964
1521813197017981052,0.0,0.0,8.52518350603e-06,0.999999999964
1521813197022300958,0.0,0.0,8.5275219918e-06,0.999999999964
1521813197062077045,0.0,0.0,8.52960873222e-06,0.999999999964
1521813197103120088,0.0,0.0,6.63782348209e-06,0.999999999978
1521813197142630100,0.0,0.0,6.64029003646e-06,0.999999999978
1521813197142749071,0.0,0.0,6.64165074692e-06,0.999999999978
1521813197181968927,0.0,0.0,-3.13378186932e-08,1.0
1521813197182073116,0.0,0.0,-2.45369888701e-08,1.0
1521813197221970081,0.0,0.0,-2.34562959393e-08,1.0
1521813197224935054,0.0,0.0,-2.30168057834e-08,1.0
1521813197263346910,0.0,0.0,-1.53801722623e-08,1.0
1521813197302146911,0.0,0.0,-6.44734929848e-06,0.999999999979
1521813197341883897,0.0,0.0,-6.44027592606e-06,0.999999999979
1521813197342006921,0.0,0.0,-6.43840273107e-06,0.999999999979
1521813197385848045,0.0,0.0,-6.43637725892e-06,0.999999999979
1521813197386667013,0.0,0.0,-6.42968185041e-06,0.999999999979
1521813197421838998,0.0,0.0,-0.000311477868659,0.999999951491
1521813197430875062,0.0,0.0,-0.000311467223719,0.999999951494
1521813197470714092,0.0,0.0,-0.000311465123084,0.999999951495
1521813197510368108,0.0,0.0,-0.000311460785325,0.999999951496
1521813197510536909,0.0,0.0,-0.000311455538238,0.999999951498
1521813197554914951,0.0,0.0,8.84901315362e-05,0.999999996085
1521813197555406093,0.0,0.0,8.84919046721e-05,0.999999996085
1521813197593981027,0.0,0.0,8.85071060517e-05,0.999999996083
1521813197615288019,0.0,0.0,8.85199401361e-05,0.999999996082
1521813197654937028,0.0,0.0,-4.29967959584e-06,0.999999999991
1521813197694217920,0.0,0.0,-4.2943004794e-06,0.999999999991
1521813197694303989,0.0,0.0,-4.28804528347e-06,0.999999999991
1521813197733994960,0.0,0.0,-4.28333338818e-06,0.999999999991
1521813197734134912,0.0,0.0,-4.27545080506e-06,0.999999999991
1521813197774118900,0.0,0.0,-4.27177385018e-06,0.999999999991
1521813197787334918,0.0,0.0,-4.25485495465e-06,0.999999999991
1521813197826323032,0.0,0.0,-4.24636380332e-06,0.999999999991
1521813197866277933,0.0,0.0,9.40196045307e-06,0.999999999956
1521813197866477966,0.0,0.0,9.4120414567e-06,0.999999999956
1521813197907166004,0.0,0.0,9.41476501099e-06,0.999999999956
1521813197915234088,0.0,0.0,3.11205004602e-06,0.999999999995
1521813197954673051,0.0,0.0,3.12752403065e-06,0.999999999995
1521813197994287014,0.0,0.0,3.12872187111e-06,0.999999999995
1521813197994394063,0.0,0.0,3.13448293135e-06,0.999999999995
1521813198034169912,0.0,0.0,3.13625790879e-06,0.999999999995
1521813198041027069,0.0,0.0,4.07403187898e-06,0.999999999992
1521813198078155994,0.0,0.0,4.08497929182e-06,0.999999999992
1521813198118805885,0.0,0.0,4.08597882676e-06,0.999999999992
1521813198119055032,0.0,0.0,4.08697836171e-06,0.999999999992
1521813198158200979,0.0,0.0,4.09341027385e-06,0.999999999992
1521813198158380985,0.0,0.0,4.09419356019e-06,0.999999999992
1521813198197907924,0.0,0.0,8.85286714005e-05,0.999999996081
1521813198206051111,0.0,0.0,8.85293036554e-05,0.999999996081
1521813198246840000,0.0,0.0,8.85317676485e-05,0.999999996081
1521813198285914897,0.0,0.0,8.85320477169e-05,0.999999996081
1521813198326261043,0.0,0.0,8.85396869646e-05,0.99999999608
1521813198326451063,0.0,0.0,8.85406745822e-05,0.99999999608
1521813198365907907,0.0,0.0,-2.07076439547e-06,0.999999999998
1521813198366151094,0.0,0.0,-2.06219709699e-06,0.999999999998
1521813198406244993,0.0,0.0,-2.05892500833e-06,0.999999999998
1521813198446132898,0.0,0.0,-2.05372492146e-06,0.999999999998
1521813198446245908,0.0,0.0,-2.0512522097e-06,0.999999999998
1521813198486026048,0.0,0.0,-2.04879876961e-06,0.999999999998
1521813198492255926,0.0,0.0,-2.04172613108e-06,0.999999999998
1521813198529943943,0.0,0.0,-2.02693624305e-06,0.999999999998
1521813198569868087,0.0,0.0,-2.02333683121e-06,0.999999999998
1521813198569977045,0.0,0.0,-2.01973741937e-06,0.999999999998
1521813198609952926,0.0,0.0,-2.01920696706e-06,0.999999999998
1521813198610049962,0.0,0.0,-2.0145735068e-06,0.999999999998
1521813198651077032,0.0,0.0,-2.00211104905e-06,0.999999999998
1521813198661242961,0.0,0.0,-1.97793731467e-06,0.999999999998
1521813198699099063,0.0,0.0,-1.97509446106e-06,0.999999999998
1521813198737947940,0.0,0.0,-1.9632607155e-06,0.999999999998
1521813198738059043,0.0,0.0,-1.95331299648e-06,0.999999999998
1521813198779011011,0.0,0.0,-1.94984286713e-06,0.999999999998
1521813198785397052,0.0,0.0,-1.94729400374e-06,0.999999999998
1521813198822710037,0.0,0.0,-1.94392571175e-06,0.999999999998
1521813198866206884,0.0,0.0,-1.93159979655e-06,0.999999999998
1521813198866400957,0.0,0.0,-1.92758770909e-06,0.999999999998
1521813198906021118,0.0,0.0,-1.91489149592e-06,0.999999999998
1521813198908809900,0.0,0.0,-1.91183471023e-06,0.999999999998
1521813198954953908,0.0,0.0,-1.89311434583e-06,0.999999999998
1521813198995125055,0.0,0.0,-1.89060313654e-06,0.999999999998
1521813198995250940,0.0,0.0,-1.88381224886e-06,0.999999999998
1521813199034363985,0.0,0.0,-1.87058275962e-06,0.999999999998
1521813199034656047,0.0,0.0,-1.86835648419e-06,0.999999999998
1521813199074984073,0.0,0.0,-1.86673616349e-06,0.999999999998
1521813199088025093,0.0,0.0,-1.86379452578e-06,0.999999999998
1521813199126075983,0.0,0.0,-1.85915542012e-06,0.999999999998
1521813199167123079,0.0,0.0,-1.85728318297e-06,0.999999999998
1521813199207461118,0.0,0.0,-1.85448242958e-06,0.999999999998
1521813199207602024,0.0,0.0,-1.85415199294e-06,0.999999999998
1521813199246011018,0.0,0.0,-1.8530182476e-06,0.999999999998
1521813199246097087,0.0,0.0,-1.85171217788e-06,0.999999999998
1521813199287300109,0.0,0.0,-1.84605567638e-06,0.999999999998
1521813199287419080,0.0,0.0,-1.84480017797e-06,0.999999999998
1521813199325994014,0.0,0.0,-1.8406749145e-06,0.999999999998
1521813199351253986,0.0,0.0,-1.83417199157e-06,0.999999999998
1521813199390718936,0.0,0.0,-1.83380599848e-06,0.999999999998
1521813199430162906,0.0,0.0,-1.83236546791e-06,0.999999999998
1521813199430363893,0.0,0.0,-1.83006705792e-06,0.999999999998
1521813199470045089,0.0,0.0,-1.82824096015e-06,0.999999999998
1521813199474606037,0.0,0.0,-1.81766070976e-06,0.999999999998
1521813199514122962,0.0,0.0,-1.81615324251e-06,0.999999999998
1521813199555207967,0.0,0.0,-1.81231686663e-06,0.999999999998
1521813199555624008,0.0,0.0,-1.80379346412e-06,0.999999999998
1521813199595045089,0.0,0.0,-1.80174131768e-06,0.999999999998
1521813199595233917,0.0,0.0,-1.80125350418e-06,0.999999999998
1521813199635289907,0.0,0.0,-1.78247196195e-06,0.999999999998
1521813199638127088,0.0,0.0,-1.77854660188e-06,0.999999999998
1521813199680167913,0.0,0.0,-1.76687389122e-06,0.999999999998
1521813199719352006,0.0,0.0,-1.7631068979e-06,0.999999999998
1521813199757971048,0.0,0.0,-1.7485078365e-06,0.999999999998
1521813199758065938,0.0,0.0,-1.73531452019e-06,0.999999999998
1521813199798799037,0.0,0.0,-1.73153992754e-06,0.999999999999
1521813199802436113,0.0,0.0,-1.72413744096e-06,0.999999999999
1521813199842144012,0.0,0.0,-1.71981295599e-06,0.999999999999
1521813199887145996,0.0,0.0,-1.70650967804e-06,0.999999999999
1521813199887757062,0.0,0.0,-1.69134441524e-06,0.999999999999
1521813199922885894,0.0,0.0,-1.68787548406e-06,0.999999999999
1521813199923320055,0.0,0.0,-1.68440655288e-06,0.999999999999
1521813199961850881,0.0,0.0,-1.67676847127e-06,0.999999999999
1521813199973294019,0.0,0.0,-1.66478074801e-06,0.999999999999
1521813200009861946,0.0,0.0,-1.66262636341e-06,0.999999999999
1521813200050376892,0.0,0.0,-1.65568126192e-06,0.999999999999
1521813200050679922,0.0,0.0,-1.65157251659e-06,0.999999999999
1521813200089793920,0.0,0.0,-1.64405324525e-06,0.999999999999
1521813200089874029,0.0,0.0,-1.64117287486e-06,0.999999999999
1521813200131165027,0.0,0.0,-1.63695303662e-06,0.999999999999
1521813200142481088,0.0,0.0,2.26987301952e-05,0.999999999742
1521813200181941986,0.0,0.0,1.00584831946e-05,0.999999999949
1521813200222842931,0.0,0.0,1.00655278311e-05,0.999999999949
1521813200223184108,0.0,0.0,1.00678006555e-05,0.999999999949
1521813200261801958,0.0,0.0,1.00733078943e-05,0.999999999949
1521813200275558948,0.0,0.0,5.66626927829e-06,0.999999999984
1521813200314759016,0.0,0.0,5.66875501335e-06,0.999999999984
1521813200354655027,0.0,0.0,5.670092744e-06,0.999999999984
1521813200354789972,0.0,0.0,5.67047220296e-06,0.999999999984
1521813200394798040,0.0,0.0,5.67837203005e-06,0.999999999984
1521813200395252943,0.0,0.0,5.68068952366e-06,0.999999999984
1521813200434267044,0.0,0.0,-3.48472483657e-06,0.999999999994
1521813200443377971,0.0,0.0,-3.48426561883e-06,0.999999999994
1521813200482754945,0.0,0.0,-3.48374723748e-06,0.999999999994
1521813200525995969,0.0,0.0,-3.47713482161e-06,0.999999999994
1521813200526087999,0.0,0.0,2.53634942858e-06,0.999999999997
1521813200567137956,0.0,0.0,2.54278958325e-06,0.999999999997
1521813200570573091,0.0,0.0,2.5452263326e-06,0.999999999997
1521813200606475114,0.0,0.0,2.54905619009e-06,0.999999999997
1521813200646982908,0.0,0.0,2.56335190772e-06,0.999999999997
1521813200686798095,0.0,0.0,-2.83666445198e-06,0.999999999996
1521813200687136888,0.0,0.0,-2.8243721687e-06,0.999999999996
1521813200725996017,0.0,0.0,-2.82277968335e-06,0.999999999996
1521813200727572917,0.0,0.0,-2.81644927409e-06,0.999999999996
1521813200766832113,0.0,0.0,-2.81399462946e-06,0.999999999996
1521813200806866884,0.0,0.0,-2.97553106405e-06,0.999999999996
1521813200807362079,0.0,0.0,-2.96657207668e-06,0.999999999996
1521813200846220970,0.0,0.0,-2.96270142562e-06,0.999999999996
1521813200846383094,0.0,0.0,-2.9536451756e-06,0.999999999996
1521813200885909080,0.0,0.0,-2.94321892224e-06,0.999999999996
1521813200894788026,0.0,0.0,-2.94096952212e-06,0.999999999996
1521813200935641050,0.0,0.0,-9.95127756688e-06,0.99999999995
1521813200974488973,0.0,0.0,-9.94052966648e-06,0.999999999951
1521813200974615097,0.0,0.0,-9.93750644788e-06,0.999999999951
1521813201014020919,0.0,0.0,-9.9276353509e-06,0.999999999951
1521813201027487993,0.0,0.0,-9.9184846662e-06,0.999999999951
1521813201070142030,0.0,0.0,3.92222200354e-06,0.999999999992
1521813201110505104,0.0,0.0,3.93466894355e-06,0.999999999992
1521813201110606908,0.0,0.0,3.94026849753e-06,0.999999999992
1521813201150438070,0.0,0.0,2.78224139648e-06,0.999999999996
1521813201158276081,0.0,0.0,2.7962603432e-06,0.999999999996
1521813201198020935,0.0,0.0,2.80362419551e-06,0.999999999996
1521813201198152065,0.0,0.0,2.80903983444e-06,0.999999999996
1521813201238106012,0.0,0.0,2.8132705948e-06,0.999999999996
1521813201245266914,0.0,0.0,2.81594796791e-06,0.999999999996
1521813201281986951,0.0,0.0,2.81930067982e-06,0.999999999996
1521813201324469089,0.0,0.0,3.55826546364e-06,0.999999999994
1521813201362150907,0.0,0.0,3.55955994761e-06,0.999999999994
1521813201362339019,0.0,0.0,3.56085443158e-06,0.999999999994
1521813201401884078,0.0,0.0,3.56910936936e-06,0.999999999994
1521813201402126073,0.0,0.0,3.57118931367e-06,0.999999999994
1521813201444425106,0.0,0.0,-6.43953397296e-06,0.999999999979
1521813201483067989,0.0,0.0,-6.43439686538e-06,0.999999999979
1521813201483263015,0.0,0.0,-6.42790908742e-06,0.999999999979
1521813201524365901,0.0,0.0,-6.42448200913e-06,0.999999999979
1521813201535511016,0.0,0.0,-0.000169300505355,0.999999985669
1521813201573844909,0.0,0.0,-0.000169293262917,0.99999998567
1521813201573956966,0.0,0.0,-0.000169292382932,0.99999998567
1521813201613931894,0.0,0.0,-0.000169282478025,0.999999985672
1521813201623971939,0.0,0.0,-0.000169280001696,0.999999985672
1521813201662367105,0.0,0.0,-0.000169274473012,0.999999985673
1521813201704009056,0.0,0.0,-0.000331939610412,0.999999944908
1521813201742674112,0.0,0.0,-0.000331936674503,0.999999944909
1521813201742770910,0.0,0.0,-0.000331923535637,0.999999944913
1521813201782891035,0.0,0.0,-0.00033190321285,0.99999994492
1521813201783324956,0.0,0.0,-2.32321478437e-05,0.99999999973
1521813201823889970,0.0,0.0,-2.3218618506e-05,0.99999999973
1521813201826175928,0.0,0.0,-2.32163032214e-05,0.999999999731
1521813201866084098,0.0,0.0,-2.32057150665e-05,0.999999999731
1521813201909801006,0.0,0.0,-2.3203189534e-05,0.999999999731
1521813201951222896,0.0,0.0,-2.31945181675e-05,0.999999999731
1521813201951787948,0.0,0.0,3.72066240866e-06,0.999999999993
1521813201990173101,0.0,0.0,3.74639938744e-06,0.999999999993
1521813201990293025,0.0,0.0,3.75668833177e-06,0.999999999993
1521813202030119895,0.0,0.0,3.75971392322e-06,0.999999999993
1521813202038594007,0.0,0.0,3.76921986778e-06,0.999999999993
1521813202074733972,0.0,0.0,5.40283327382e-07,1.0
1521813202114587068,0.0,0.0,5.46128279121e-07,1.0
1521813202115133047,0.0,0.0,5.5098354869e-07,1.0
1521813202155145883,0.0,0.0,5.52249997278e-07,1.0
1521813202174465894,0.0,0.0,-1.00586570899e-05,0.999999999949
1521813202217634916,0.0,0.0,-1.00560850273e-05,0.999999999949
1521813202217767953,0.0,0.0,-1.00506754034e-05,0.999999999949
1521813202256061077,0.0,0.0,-1.00445972319e-05,0.99999999995
1521813202260258913,0.0,0.0,7.17797148672e-06,0.999999999974
1521813202301898002,0.0,0.0,7.19217622186e-06,0.999999999974
1521813202342734098,0.0,0.0,7.19228523445e-06,0.999999999974
1521813202382868051,0.0,0.0,7.19224972296e-06,0.999999999974
1521813202383132934,0.0,0.0,7.19459474516e-06,0.999999999974
1521813202383339881,0.0,0.0,7.19550278092e-06,0.999999999974
1521813202425980091,0.0,0.0,7.19763425388e-06,0.999999999974
1521813202442914009,0.0,0.0,7.2096485028e-06,0.999999999974
1521813202486057043,0.0,0.0,7.20912569915e-06,0.999999999974
1521813202526124000,0.0,0.0,7.2193909563e-06,0.999999999974
1521813202526278018,0.0,0.0,7.21995344995e-06,0.999999999974
1521813202567393064,0.0,0.0,7.22298161618e-06,0.999999999974
1521813202567903041,0.0,0.0,7.2252983017e-06,0.999999999974
1521813202606389999,0.0,0.0,7.23216510153e-06,0.999999999974
1521813202608447074,0.0,0.0,7.23334090183e-06,0.999999999974
1521813202645847082,0.0,0.0,7.23801273697e-06,0.999999999974
1521813202687231063,0.0,0.0,7.24695090612e-06,0.999999999974
1521813202687603950,0.0,0.0,7.24869565662e-06,0.999999999974
1521813202725775957,0.0,0.0,7.25892993443e-06,0.999999999974
1521813202734327077,0.0,0.0,7.26157272248e-06,0.999999999974
1521813202770214080,0.0,0.0,7.27560897486e-06,0.999999999974
1521813202809956073,0.0,0.0,7.27848448777e-06,0.999999999974
1521813202850990056,0.0,0.0,7.2961011925e-06,0.999999999973
1521813202851686954,0.0,0.0,7.3004623843e-06,0.999999999973
1521813202890883922,0.0,0.0,7.30482357611e-06,0.999999999973
1521813202891351938,0.0,0.0,7.30471538047e-06,0.999999999973
1521813202930140018,0.0,0.0,7.33116053635e-06,0.999999999973
1521813202970563888,0.0,0.0,7.3344818208e-06,0.999999999973
1521813202970752954,0.0,0.0,7.34718244533e-06,0.999999999973
1521813203009917974,0.0,0.0,7.35520039879e-06,0.999999999973
1521813203010827064,0.0,0.0,7.36466137327e-06,0.999999999973
1521813203050666093,0.0,0.0,7.36827362485e-06,0.999999999973
1521813203089999914,0.0,0.0,7.37683768513e-06,0.999999999973
1521813203090120077,0.0,0.0,7.38135887461e-06,0.999999999973
1521813203129975080,0.0,0.0,7.39352922857e-06,0.999999999973
1521813203135833024,0.0,0.0,7.39786099448e-06,0.999999999973
1521813203173834085,0.0,0.0,7.40054555775e-06,0.999999999973
1521813203214730024,0.0,0.0,7.41504229319e-06,0.999999999973
1521813203254390001,0.0,0.0,7.41971035453e-06,0.999999999972
1521813203254611015,0.0,0.0,7.42273879985e-06,0.999999999972
1521813203295241117,0.0,0.0,7.42423471182e-06,0.999999999972
1521813203295686006,0.0,0.0,7.42665051428e-06,0.999999999972
1521813203335036039,0.0,0.0,7.42994062039e-06,0.999999999972
1521813203345381021,0.0,0.0,7.43932912557e-06,0.999999999972
1521813203382787942,0.0,0.0,7.43988841789e-06,0.999999999972
1521813203423254013,0.0,0.0,7.44411990208e-06,0.999999999972
1521813203423594951,0.0,0.0,7.4475668666e-06,0.999999999972
1521813203463342905,0.0,0.0,7.44821637952e-06,0.999999999972
1521813203467561960,0.0,0.0,7.45027387639e-06,0.999999999972
1521813203506741046,0.0,0.0,7.45870013766e-06,0.999999999972
1521813203546224117,0.0,0.0,7.46028908215e-06,0.999999999972
1521813203587395906,0.0,0.0,7.4677359936e-06,0.999999999972
1521813203587733030,0.0,0.0,7.47078244383e-06,0.999999999972
1521813203626079082,0.0,0.0,7.4728597392e-06,0.999999999972
1521813203626282930,0.0,0.0,7.47507602528e-06,0.999999999972
1521813203667639970,0.0,0.0,7.48617900352e-06,0.999999999972
1521813203667979001,0.0,0.0,7.48791451582e-06,0.999999999972
1521813203705899000,0.0,0.0,7.49919003037e-06,0.999999999972
1521813203746212005,0.0,0.0,7.50120021515e-06,0.999999999972
1521813203786109924,0.0,0.0,7.51726988668e-06,0.999999999972
1521813203786242961,0.0,0.0,7.52168951673e-06,0.999999999972
1521813203825941085,0.0,0.0,7.52630692103e-06,0.999999999972
1521813203829077005,0.0,0.0,7.54530823866e-06,0.999999999972
1521813203867626905,0.0,0.0,7.54821041258e-06,0.999999999972
1521813203907063007,0.0,0.0,7.55947804687e-06,0.999999999971
1521813203907407045,0.0,0.0,7.56279279085e-06,0.999999999971
1521813203947448015,0.0,0.0,7.57526022698e-06,0.999999999971
1521813203947634935,0.0,0.0,7.57924745661e-06,0.999999999971
1521813203986263990,0.0,0.0,7.59002515843e-06,0.999999999971
1521813204001327037,0.0,0.0,7.60558441761e-06,0.999999999971
1521813204037904977,0.0,0.0,7.6089971812e-06,0.999999999971
1521813204077821969,0.0,0.0,7.61816446573e-06,0.999999999971
1521813204077944993,0.0,0.0,7.62526067521e-06,0.999999999971
1521813204118820905,0.0,0.0,-0.00024849128429,0.999999969126
1521813204124706029,0.0,0.0,-0.000662557675798,0.999999780509
1521813204162169933,0.0,0.0,-0.00123457369123,0.999999237914
1521813204202327966,0.0,0.0,-0.00226233023802,0.999997440928
1521813204242265939,0.0,0.0,-0.0180048511455,0.999837899529
1521813204242449998,0.0,0.0,-0.0186069650558,0.99982687544
1521813204283050060,0.0,0.0,-0.0201665046515,0.999796635366
1521813204283521890,0.0,0.0,-0.0210576746467,0.999778262585
1521813204322012901,0.0,0.0,-0.0218420535338,0.999761433892
1521813204322159051,0.0,0.0,-0.0226264189764,0.999743989812
1521813204363115072,0.0,0.0,-0.0230489311386,0.999734338099
1521813204376003980,0.0,0.0,-0.0352601403652,0.999378167913
1521813204414494037,0.0,0.0,-0.0375013181885,0.999296578166
1521813204458177089,0.0,0.0,-0.0502360137071,0.998737374352
1521813204458339929,0.0,0.0,-0.0519056770867,0.99865199178
1521813204502038955,0.0,0.0,-0.0528441810766,0.998602770138
1521813204502171039,0.0,0.0,-0.053782638394,0.998552666517
1521813204542891979,0.0,0.0,-0.0538460732691,0.998549247856
1521813204558259963,0.0,0.0,-0.0637840304077,0.997963725526
1521813204598217010,0.0,0.0,-0.0659313579622,0.997824160881
1521813204639015913,0.0,0.0,-0.0789325130845,0.99687996187
1521813204639396905,0.0,0.0,-0.0845985251262,0.996415119088
1521813204679013967,0.0,0.0,-0.0889430818278,0.996036710265
1521813204679555892,0.0,0.0,-0.090956272962,0.995854887224
1521813204718909978,0.0,0.0,-0.0983451347454,0.995152367465
1521813204735001087,0.0,0.0,-0.101444025732,0.994841248463
1521813204773874998,0.0,0.0,-0.10238879324,0.994744457144
1521813204815279960,0.0,0.0,-0.103698513369,0.994608776517
1521813204815720081,0.0,0.0,-0.103635975817,0.994615294733
1521813204858632087,0.0,0.0,-0.1035901531,0.994620068258
1521813204858831882,0.0,0.0,-0.10358736972,0.994620358144
1521813204898194074,0.0,0.0,-0.103584416532,0.994620665707
1521813204904031038,0.0,0.0,-0.103578170541,0.994621316174
1521813204942343950,0.0,0.0,-0.103575270044,0.994621618222
1521813204982209920,0.0,0.0,-0.103574493638,0.994621699073
1521813205022891998,0.0,0.0,-0.105725738118,0.994395327975
1521813205023395061,0.0,0.0,-0.11281776521,0.993615696259
1521813205062211990,0.0,0.0,-0.120642572947,0.992696010666
1521813205062355995,0.0,0.0,-0.1249768838,0.992159653743
1521813205102061033,0.0,0.0,-0.130144515678,0.991495035307
1521813205102204084,0.0,0.0,-0.132395409161,0.991196981247
1521813205142070055,0.0,0.0,-0.138443201398,0.990370375156
1521813205153037071,0.0,0.0,-0.148657457156,0.988888750281
1521813205190543889,0.0,0.0,-0.151070953195,0.988522921889
1521813205231079101,0.0,0.0,-0.158264289019,0.987396786921
1521813205231585025,0.0,0.0,-0.162115198248,0.986771839129
1521813205270175933,0.0,0.0,-0.167560780752,0.985861747282
1521813205274324893,0.0,0.0,-0.169647684771,0.985504775763
1521813205314498901,0.0,0.0,-0.18050784581,0.983573544582
1521813205355184078,0.0,0.0,-0.187991767414,0.982170604012
1521813205355570077,0.0,0.0,-0.188749111742,0.982025342248
1521813205398821115,0.0,0.0,-0.190425624701,0.981701625473
1521813205408808946,0.0,0.0,-0.197562230063,0.980290347424
1521813205446350097,0.0,0.0,-0.199439527732,0.979910136073
1521813205485889911,0.0,0.0,-0.207901395508,0.978149789013
1521813205486018896,0.0,0.0,-0.210065954421,0.97768721726
1521813205526726961,0.0,0.0,-0.211605583663,0.977355143723
1521813205534495115,0.0,0.0,-0.214533397681,0.976716653528
1521813205574029922,0.0,0.0,-0.215928852653,0.976409100015
1521813205614104986,0.0,0.0,-0.218389430828,0.975861699475
1521813205614325046,0.0,0.0,-0.22158005457,0.975142184205
1521813205658211946,0.0,0.0,-0.224045170298,0.974578761141
1521813205661542892,0.0,0.0,-0.231632892248,0.972803270569
1521813205698085069,0.0,0.0,-0.243131609879,0.969993309398
1521813205739109039,0.0,0.0,-0.245234324263,0.969463834397
1521813205739568948,0.0,0.0,-0.247757095897,0.968822182566
1521813205777961015,0.0,0.0,-0.25325137465,0.967400507152
1521813205779550075,0.0,0.0,-0.258867890641,0.965912736843
1521813205818669080,0.0,0.0,-0.25964889006,0.965703087854
1521813205857882976,0.0,0.0,-0.267460411816,0.963568849699
1521813205897790908,0.0,0.0,-0.275593456139,0.961274282884
1521813205897871017,0.0,0.0,-0.278270775182,0.960502668231
1521813205938786029,0.0,0.0,-0.281373651657,0.95959828478
1521813205939153909,0.0,0.0,-0.282098204745,0.959385534016
1521813205977812051,0.0,0.0,-0.282797223803,0.959179717368
1521813205989614009,0.0,0.0,-0.28433137937,0.958726064476
1521813206025785923,0.0,0.0,-0.284323611444,0.958728368192
1521813206066071987,0.0,0.0,-0.284305421088,0.958733762595
1521813206066216945,0.0,0.0,-0.28430283469,0.958734529569
1521813206106405973,0.0,0.0,-0.284302338197,0.958734676798
1521813206113049030,0.0,0.0,-0.284301513924,0.958734921227
1521813206149827957,0.0,0.0,-0.284301576522,0.958734902665
1521813206190309047,0.0,0.0,-0.284301761331,0.958734847862
1521813206190409898,0.0,0.0,-0.284302159534,0.958734729779
1521813206229845046,0.0,0.0,-0.284295198744,0.958736793897
1521813206234124898,0.0,0.0,-0.284292725177,0.958737527382
1521813206273833036,0.0,0.0,-0.284288787358,0.958738695048
1521813206314508914,0.0,0.0,-0.284288189433,0.958738872347
1521813206314647912,0.0,0.0,-0.284286497375,0.95873937408
1521813206354809999,0.0,0.0,-0.284285823078,0.958739574023
1521813206358323097,0.0,0.0,-0.284285517508,0.95873966463
1521813206398803949,0.0,0.0,-0.284285220342,0.958739752746
1521813206437937021,0.0,0.0,-0.284284931145,0.958739838498
1521813206478669881,0.0,0.0,-0.284283545078,0.958740249493
1521813206478993892,0.0,0.0,-0.28428200973,0.95874070475
1521813206518158912,0.0,0.0,-0.28428117133,0.958740953348
1521813206518271923,0.0,0.0,-0.284280936783,0.958741022895
1521813206558783054,0.0,0.0,-0.284310939711,0.958732126071
1521813206568831920,0.0,0.0,-0.28521414637,0.958463818154
1521813206607091903,0.0,0.0,-0.285870255606,0.958268332441
1521813206645905971,0.0,0.0,-0.287871443124,0.957669061959
1521813206646001100,0.0,0.0,-0.289685639999,0.957121846986
1521813206686088085,0.0,0.0,-0.296928049184,0.954899855277
1521813206693213939,0.0,0.0,-0.298533700492,0.954399093498
1521813206729882001,0.0,0.0,-0.300053460184,0.953922387321
1521813206770944118,0.0,0.0,-0.303665343866,0.952778756551
1521813206771404981,0.0,0.0,-0.306056084067,0.952013483836
1521813206810287952,0.0,0.0,-0.310401293655,0.950605615856
1521813206830832004,0.0,0.0,-0.325694508678,0.945475058908
1521813206871005058,0.0,0.0,-0.328594866122,0.944470970416
1521813206910518884,0.0,0.0,-0.334795144434,0.942290937696
1521813206910744905,0.0,0.0,-0.33877405441,0.940867759071
1521813206950977087,0.0,0.0,-0.341091989479,0.940029922244
1521813206951241016,0.0,0.0,-0.343906043463,0.939004064565
1521813206989958047,0.0,0.0,-0.34455700858,0.938765395527
1521813206998348951,0.0,0.0,-0.345071268208,0.938576485886
1521813207038820028,0.0,0.0,-0.345029657025,0.938591783351
1521813207077830076,0.0,0.0,-0.345026995161,0.938592761857
1521813207119208097,0.0,0.0,-0.345022411002,0.938594446982
1521813207119690895,0.0,0.0,-0.345022179209,0.938594532188
1521813207162009000,0.0,0.0,-0.34501244649,0.938598109825
1521813207162157058,0.0,0.0,-0.345011451029,0.938598475739
1521813207206911087,0.0,0.0,-0.345010689118,0.938598755803
1521813207207247972,0.0,0.0,-0.345008922973,0.938599405001
1521813207245882034,0.0,0.0,-0.345008638061,0.938599509729
1521813207258182048,0.0,0.0,-0.345007369596,0.938599975988
1521813207294323921,0.0,0.0,-0.345006898643,0.938600149099
1521813207335313081,0.0,0.0,-0.345006444416,0.938600316062
1521813207335793018,0.0,0.0,-0.345006222153,0.93860039776
1521813207374238014,0.0,0.0,-0.34500557082,0.938600637174
1521813207377953052,0.0,0.0,-0.345004544516,0.938601014416
1521813207418402910,0.0,0.0,-0.34500433439,0.938601091653
1521813207459723949,0.0,0.0,-0.345003736806,0.938601311309
1521813207459912061,0.0,0.0,-0.345002930907,0.938601607534
1521813207498948097,0.0,0.0,-0.345002737321,0.938601678691
1521813207506444931,0.0,0.0,-0.345001955494,0.938601966067
1521813207546340942,0.0,0.0,-0.345001780546,0.938602030373
1521813207586222887,0.0,0.0,-0.345001109467,0.938602277041
1521813207586471080,0.0,0.0,-0.345000795034,0.938602392617
1521813207625941991,0.0,0.0,-0.345022402469,0.938594450119
1521813207626127004,0.0,0.0,-0.345074451465,0.938575315543
1521813207665921926,0.0,0.0,-0.345161813399,0.938543191639
1521813207672615051,0.0,0.0,-0.345653340519,0.93836227982
1521813207709867000,0.0,0.0,-0.35302686087,0.935613186902
1521813207749984025,0.0,0.0,-0.355262566245,0.934766553223
1521813207791146039,0.0,0.0,-0.365644160168,0.930754719642
1521813207791552066,0.0,0.0,-0.369748049156,0.929132057431
1521813207829822063,0.0,0.0,-0.370910479794,0.928668625495
1521813207829912900,0.0,0.0,-0.372426606839,0.928061648016
1521813207871109962,0.0,0.0,-0.372414306805,0.928066583865
1521813207888425111,0.0,0.0,-0.372398434799,0.928072952822
1521813207926904916,0.0,0.0,-0.37239309471,0.928075095567
1521813207967838048,0.0,0.0,-0.372380926487,0.928079978013
1521813207968523025,0.0,0.0,-0.372375399239,0.928082195736
1521813208006474018,0.0,0.0,-0.372375037266,0.92808234097
1521813208006974935,0.0,0.0,-0.372374255615,0.928082654592
1521813208046020030,0.0,0.0,-0.372382742931,0.928079249185
1521813208054126024,0.0,0.0,-0.373245175857,0.927732740987
1521813208091315984,0.0,0.0,-0.373833967209,0.927495641478
1521813208130708932,0.0,0.0,-0.374621993138,0.927177632526
1521813208170905113,0.0,0.0,-0.386458937298,0.922306613759
1521813208171184062,0.0,0.0,-0.389012492697,0.921232479087
1521813208211760044,0.0,0.0,-0.391203006078,0.920304410527
1521813208212022066,0.0,0.0,-0.393031553994,0.919524984742
1521813208250078916,0.0,0.0,-0.395004311377,0.918679266117
1521813208265568017,0.0,0.0,-0.407419119471,0.913241294013
1521813208302084922,0.0,0.0,-0.41009352677,0.912043474458
1521813208342866897,0.0,0.0,-0.417410614358,0.908717986518
1521813208343044996,0.0,0.0,-0.418017885149,0.90843879689
1521813208383053064,0.0,0.0,-0.418651981874,0.908146749195
1521813208383282899,0.0,0.0,-0.418642685414,0.908151034768
1521813208422869920,0.0,0.0,-0.418642520291,0.908151110886
1521813208431617975,0.0,0.0,-0.418766239926,0.908094067979
1521813208471122026,0.0,0.0,-0.42044140153,0.907319694418
1521813208509887933,0.0,0.0,-0.421140509984,0.906995408395
1521813208510021924,0.0,0.0,-0.425945610785,0.90474876991
1521813208550209999,0.0,0.0,-0.428006327242,0.903775737581
1521813208567567110,0.0,0.0,-0.441440863511,0.897290345442
1521813208605798006,0.0,0.0,-0.443296945374,0.896374820163
1521813208646025896,0.0,0.0,-0.450886696436,0.892581193493
1521813208646181106,0.0,0.0,-0.454505112464,0.890744128661
1521813208685931921,0.0,0.0,-0.456608024124,0.889667978689
1521813208687273979,0.0,0.0,-0.465445663299,0.885076456876
1521813208725883007,0.0,0.0,-0.467262436235,0.884118666065
1521813208771039962,0.0,0.0,-0.471532080914,0.881848908073
1521813208771148920,0.0,0.0,-0.474129996245,0.880454852142
1521813208810911893,0.0,0.0,-0.474269999177,0.880379445399
1521813208811171054,0.0,0.0,-0.474321472823,0.880351714044
1521813208850332021,0.0,0.0,-0.474315500922,0.880354931596
1521813208891225099,0.0,0.0,-0.474314450504,0.880355497537
1521813208931238889,0.0,0.0,-0.474304120943,0.880361062779
1521813208931597948,0.0,0.0,-0.474303563656,0.880361363023
1521813208970732927,0.0,0.0,-0.474304642313,0.880360781885
1521813208971088886,0.0,0.0,-0.474304458648,0.880360880836
1521813209010190963,0.0,0.0,-0.474304295178,0.880360968908
1521813209015916109,0.0,0.0,-0.474303991548,0.880361132492
1521813209055423021,0.0,0.0,-0.474304736327,0.880360731233
1521813209093965053,0.0,0.0,-0.474306260023,0.880359910322
1521813209094110965,0.0,0.0,-0.474306321134,0.880359877398
1521813209135047912,0.0,0.0,-0.474306360553,0.880359856161
1521813209142313957,0.0,0.0,-0.474306395139,0.880359837527
1521813209183341026,0.0,0.0,-0.474306390435,0.880359840061
1521813209222421884,0.0,0.0,-0.474306371999,0.880359849994
1521813209222524881,0.0,0.0,-0.474306344319,0.880359864907
1521813209261980056,0.0,0.0,-0.474306337691,0.880359868478
1521813209262095928,0.0,0.0,-0.474306331143,0.880359872006
1521813209302696943,0.0,0.0,-0.474306303696,0.880359886793
1521813209305711030,0.0,0.0,-0.474306298386,0.880359889654
1521813209346075057,0.0,0.0,-0.474306277741,0.880359900777
1521813209389010906,0.0,0.0,-0.474306234967,0.880359923822
1521813209428714990,0.0,0.0,-0.474308657097,0.880358618861
1521813209428837060,0.0,0.0,-0.47444145729,0.880287057501
1521813209467120885,0.0,0.0,-0.475799735733,0.87955364332
1521813209467551946,0.0,0.0,-0.476262054869,0.879303391948
1521813209506541013,0.0,0.0,-0.483037539041,0.875599643603
1521813209510476112,0.0,0.0,-0.487116118387,0.873337212769
1521813209550153970,0.0,0.0,-0.490764711314,0.871292142814
1521813209590679883,0.0,0.0,-0.493220954679,0.869904069346
1521813209590837955,0.0,0.0,-0.500074206932,0.865982556153
1521813209629801034,0.0,0.0,-0.501860460893,0.864948598352
1521813209638464927,0.0,0.0,-0.510360759156,0.859960403457
1521813209678344964,0.0,0.0,-0.515354012776,0.856977386817
1521813209718797922,0.0,0.0,-0.515838386985,0.856685915907
1521813209719300985,0.0,0.0,-0.517711368554,0.855555339455
1521813209759011030,0.0,0.0,-0.521048255371,0.853527220172
1521813209761810064,0.0,0.0,-0.523514157517,0.852016975699
1521813209797977924,0.0,0.0,-0.529361447364,0.848396403837
1521813209838865041,0.0,0.0,-0.538348534415,0.842722288475
1521813209839008092,0.0,0.0,-0.539919280939,0.841716799209
1521813209878048896,0.0,0.0,-0.544746632456,0.838600683536
1521813209889714956,0.0,0.0,-0.546758014013,0.837290674803
1521813209925998926,0.0,0.0,-0.55082835682,0.834618548394
1521813209967022895,0.0,0.0,-0.551942260697,0.833882330342
1521813209967463016,0.0,0.0,-0.552035481386,0.833820620572
1521813210006238937,0.0,0.0,-0.552076673078,0.833793347925
1521813210023156881,0.0,0.0,-0.552051054246,0.833810310266
1521813210061867952,0.0,0.0,-0.552050784063,0.833810489149
1521813210101943016,0.0,0.0,-0.552044397948,0.833814717245
1521813210102046012,0.0,0.0,-0.552039396167,0.833818028757
1521813210142808914,0.0,0.0,-0.552037543794,0.83381925514
1521813210148001909,0.0,0.0,-0.552036088344,0.833820218732
1521813210188091993,0.0,0.0,-0.55203589352,0.833820347716
1521813210226023912,0.0,0.0,-0.552036084988,0.833820220953
1521813210226175069,0.0,0.0,-0.552037844754,0.833819055886
1521813210267199993,0.0,0.0,-0.552037910805,0.833819012157
1521813210269843101,0.0,0.0,-0.552037992978,0.833818957753
1521813210309856891,0.0,0.0,-0.552037995637,0.833818955993
1521813210350750923,0.0,0.0,-0.552037984796,0.83381896317
1521813210351037979,0.0,0.0,-0.552037938183,0.833818994031
1521813210390147924,0.0,0.0,-0.552037914555,0.833819009674
1521813210390296936,0.0,0.0,-0.552037889973,0.833819025948
1521813210434695959,0.0,0.0,-0.552037788387,0.833819093205
1521813210440479993,0.0,0.0,-0.552037762581,0.83381911029
1521813210481688022,0.0,0.0,-0.552037634544,0.833819195058
1521813210518922090,0.0,0.0,-0.5520375393,0.833819258115
1521813210558824062,0.0,0.0,-0.552037525464,0.833819267275
1521813210559221029,0.0,0.0,-0.552037516387,0.833819273285
1521813210598043918,0.0,0.0,-0.552037516387,0.833819273285
1521813210598181962,0.0,0.0,-0.552037200125,0.833819482669
1521813210637917041,0.0,0.0,-0.552037191661,0.833819488272
1521813210646131992,0.0,0.0,-0.552037163283,0.833819507061
1521813210686786890,0.0,0.0,-0.552037138879,0.833819523217
1521813210728468894,0.0,0.0,-0.552037021367,0.833819601017
1521813210728729963,0.0,0.0,-0.552036997492,0.833819616824
1521813210766777038,0.0,0.0,-0.552036901735,0.83381968022
1521813210770515918,0.0,0.0,-0.552036894686,0.833819684887
1521813210806099891,0.0,0.0,-0.552036868701,0.833819702091
1521813210846086978,0.0,0.0,-0.55203683284,0.833819725833
1521813210846241950,0.0,0.0,-0.552036822398,0.833819732746
1521813210886902093,0.0,0.0,-0.552036793625,0.833819751796
1521813210897299051,0.0,0.0,-0.552036758386,0.833819775126
1521813210933826923,0.0,0.0,-0.552036749095,0.833819781277
1521813210973810911,0.0,0.0,-0.552036722851,0.833819798652
1521813210973917961,0.0,0.0,-0.552036714506,0.833819804177
1521813211014527082,0.0,0.0,-0.552036692167,0.833819818967
1521813211027081966,0.0,0.0,-0.552036658297,0.833819841391
1521813211066035985,0.0,0.0,-0.552036649382,0.833819847293
1521813211107090950,0.0,0.0,-0.552036640514,0.833819853164
1521813211107353925,0.0,0.0,-0.552036614934,0.833819870099
1521813211145889997,0.0,0.0,-0.55203652357,0.833819930588
1521813211146007061,0.0,0.0,-0.552036499991,0.833819946198
1521813211186099052,0.0,0.0,-0.552036410175,0.833820005661
1521813211203480005,0.0,0.0,-0.552036377798,0.833820027097
1521813211242497920,0.0,0.0,-0.552036370326,0.833820032044
1521813211283410072,0.0,0.0,-0.552036345185,0.833820048689
1521813211283719062,0.0,0.0,-0.552036336977,0.833820054123
1521813211322861909,0.0,0.0,-0.552036312469,0.833820070348
1521813211327248096,0.0,0.0,-0.552036278102,0.833820093101
1521813211370902061,0.0,0.0,-0.55203626996,0.833820098492
1521813211410028934,0.0,0.0,-0.552036245975,0.833820114371
1521813211410159111,0.0,0.0,-0.552036238186,0.833820119528
1521813211450603008,0.0,0.0,-0.552036215517,0.833820134536
1521813211453413009,0.0,0.0,-0.552036157159,0.833820173172
1521813211490144014,0.0,0.0,-0.552036137182,0.833820186399
1521813211529946088,0.0,0.0,-0.552036077752,0.833820225744
1521813211530055046,0.0,0.0,-0.552036057392,0.833820239224
1521813211569986104,0.0,0.0,-0.55203601625,0.833820266462
1521813211576132059,0.0,0.0,-0.552035835682,0.833820386008
1521813211614779949,0.0,0.0,-0.552035817706,0.833820397909
1521813211656455039,0.0,0.0,-0.552035760539,0.833820435757
1521813211693991899,0.0,0.0,-0.552035685589,0.833820485378
1521813211694133996,0.0,0.0,-0.552035666735,0.83382049786
1521813211738229036,0.0,0.0,-0.552035589498,0.833820548996
1521813211738434076,0.0,0.0,-0.552035581058,0.833820554584
1521813211779454946,0.0,0.0,-0.552035556794,0.833820570648
1521813211779720067,0.0,0.0,-0.552035548813,0.833820575932
1521813211818639039,0.0,0.0,-0.552035346093,0.833820710144
1521813211823697090,0.0,0.0,-0.552035337244,0.833820716002
1521813211863226890,0.0,0.0,-0.552035296751,0.833820742811
1521813211903016090,0.0,0.0,-0.55211074452,0.833770787318
1521813211903368949,0.0,0.0,-0.552490629372,0.833519108633
1521813211942257881,0.0,0.0,-0.552870399496,0.833267256864
1521813211950643062,0.0,0.0,-0.552987218804,0.833189735798
1521813211990000009,0.0,0.0,-0.558878950461,0.829249250064
1521813212029901027,0.0,0.0,-0.559650143345,0.82872897684
1521813212030008077,0.0,0.0,-0.560447969406,0.828189636248
1521813212070775985,0.0,0.0,-0.561633017205,0.827386459875
1521813212074265956,0.0,0.0,-0.562881548558,0.826537574641
1521813212114198923,0.0,0.0,-0.564198264236,0.82563933932
1521813212153949975,0.0,0.0,-0.57016009072,0.821533609142
1521813212154047012,0.0,0.0,-0.570454675307,0.821329083511
1521813212193942070,0.0,0.0,-0.570898475252,0.821020664146
1521813212202672004,0.0,0.0,-0.570886287907,0.821029138508
1521813212242650985,0.0,0.0,-0.570858528112,0.821048440034
1521813212283519029,0.0,0.0,-0.570854963336,0.82105091854
1521813212283992052,0.0,0.0,-0.570854403138,0.82105130803
1521813212321945905,0.0,0.0,-0.570874860796,0.821037084005
1521813212330789089,0.0,0.0,-0.570905602431,0.821015708201
1521813212371092081,0.0,0.0,-0.570970493852,0.820970581172
1521813212411178112,0.0,0.0,-0.580360457688,0.814359711155
1521813212411338090,0.0,0.0,-0.582100045475,0.813117173018
1521813212450104951,0.0,0.0,-0.587209531303,0.809434967336
1521813212459660053,0.0,0.0,-0.587452584446,0.809258587244
1521813212498051881,0.0,0.0,-0.587434618773,0.809271628483
1521813212537961959,0.0,0.0,-0.587430170628,0.809274857286
1521813212578372955,0.0,0.0,-0.587415223236,0.809285706973
1521813212578613996,0.0,0.0,-0.587412923555,0.809287376178
1521813212621432065,0.0,0.0,-0.587411226586,0.809288607902
1521813212621969938,0.0,0.0,-0.587409038074,0.8092901964
1521813212657968997,0.0,0.0,-0.587406071603,0.809292349552
1521813212660036087,0.0,0.0,-0.587405783654,0.809292558553
1521813212699033975,0.0,0.0,-0.587404472536,0.809293510196
1521813212738348960,0.0,0.0,-0.58740371872,0.809294057333
1521813212778121948,0.0,0.0,-0.587403499085,0.809294216749
1521813212778261899,0.0,0.0,-0.587403283516,0.809294373214
1521813212819072008,0.0,0.0,-0.58740204085,0.809295275165
1521813212819669961,0.0,0.0,-0.58740194996,0.809295341136
1521813212859123945,0.0,0.0,-0.587402392373,0.809295020023
1521813212864299058,0.0,0.0,-0.587404343808,0.809293603629
1521813212902529954,0.0,0.0,-0.587404785799,0.809293282821
1521813212942406892,0.0,0.0,-0.58740553435,0.809292739505
1521813212981987953,0.0,0.0,-0.587405576351,0.809292709019
1521813212982131958,0.0,0.0,-0.587405583909,0.809292703533
1521813213021806001,0.0,0.0,-0.587405582917,0.809292704254
1521813213021908044,0.0,0.0,-0.587405574732,0.809292710195
1521813213063477993,0.0,0.0,-0.587405569969,0.809292713652
1521813213074333906,0.0,0.0,-0.587408063107,0.809290904062
1521813213115151882,0.0,0.0,-0.592352733949,0.805678744031
1521813213153918027,0.0,0.0,-0.595258679091,0.803534134289
1521813213154026031,0.0,0.0,-0.597712884107,0.801710239533
1521813213194251060,0.0,0.0,-0.599724477106,0.800206568056
1521813213194380998,0.0,0.0,-0.601318306318,0.799009570961
1521813213234083890,0.0,0.0,-0.604632424986,0.796504633166
1521813213246915102,0.0,0.0,-0.608695012906,0.793404298742
1521813213286190986,0.0,0.0,-0.609009960653,0.793162573389
1521813213326153039,0.0,0.0,-0.61111183696,0.791544264541
1521813213326304912,0.0,0.0,-0.614488787462,0.788925554209
1521813213366945981,0.0,0.0,-0.614617872871,0.788824993485
1521813213375864028,0.0,0.0,-0.614571386639,0.78886121132
1521813213417853116,0.0,0.0,-0.614564476381,0.788866594787
1521813213453931093,0.0,0.0,-0.614807551875,0.78867716726
1521813213454035043,0.0,0.0,-0.615689140173,0.787989138677
1521813213494045972,0.0,0.0,-0.617427885933,0.786627488505
1521813213494174003,0.0,0.0,-0.619097605275,0.785314048737
1521813213535495042,0.0,0.0,-0.623831655974,0.781558740598
1521813213560036897,0.0,0.0,-0.627617949832,0.778521489137
1521813213602797031,0.0,0.0,-0.627720136914,0.778439098268
1521813213603214979,0.0,0.0,-0.627735723543,0.778426529216
1521813213642102003,0.0,0.0,-0.627727352996,0.778433279286
1521813213646183013,0.0,0.0,-0.627711634956,0.778445954027
1521813213685689926,0.0,0.0,-0.627701439665,0.778454175043
1521813213727478981,0.0,0.0,-0.627699436241,0.778455790487
1521813213728015899,0.0,0.0,-0.627694817543,0.778459514702
1521813213770524024,0.0,0.0,-0.627694108004,0.778460086823
1521813213778985023,0.0,0.0,-0.627734450122,0.778427556122
1521813213814080953,0.0,0.0,-0.628041016952,0.778180236851
1521813213853871107,0.0,0.0,-0.628347486342,0.777932796845
1521813213853940010,0.0,0.0,-0.629832985777,0.776730590377
1521813213893949031,0.0,0.0,-0.630544171842,0.776153365873
1521813213910887002,0.0,0.0,-0.631552870855,0.775332813258
1521813213950196027,0.0,0.0,-0.631526052472,0.775354657592
