%time,field.x,field.y,field.z
1521813188823548078,1.0543149105e-07,6.81711582958e-16,0.0
1521813188857558965,0.00545215155593,-0.00657228394445,0.0
1521813188877357959,0.00545246785008,-0.00657228394324,0.0
1521813188886816978,0.0054524942079,-0.00657228394313,0.0
1521813188910996913,0.00545252056574,-0.00657228394304,0.0
1521813188938797950,0.00545254692358,-0.00657228394296,0.0
1521813188961170911,0.00545257328144,-0.00657228394289,0.0
1521813188989761114,0.00545257328135,-0.00657228394279,0.0
1521813189019484043,0.00545331434963,-0.00657284920306,0.0
1521813189036766052,0.0054533407078,-0.00657284920327,0.0
1521813189062009096,0.00545336706643,-0.00657284920389,0.0
1521813189097435951,0.00547972181295,-0.00657284909257,0.0
1521813189116714954,0.00599916651938,-0.0065728483181,0.0
1521813189138863086,0.00666707609817,-0.00657284834158,0.0
1521813189180785894,0.0147341278823,-0.00657973284554,0.0
1521813189205267906,0.0561963562504,-0.00657951466247,0.0
1521813189220254898,0.0481239002023,0.00637960245606,0.0
1521813189247215032,0.0911837195516,0.00638111422135,0.0
1521813189273767948,0.140924740661,0.00756565975278,0.0
1521813189292985916,0.170512366095,0.00756624485261,0.0
1521813189316751003,0.17941435215,0.00756642041112,0.0
1521813189344257116,0.219433635562,0.00756725372382,0.0
1521813189367501974,0.239582240017,0.00756769333208,0.0
1521813189391201019,0.249672564725,0.00756791505419,0.0
1521813189429177999,0.199861649724,-0.00654154634555,0.0
1521813189440771102,0.20996468698,-0.00654271030377,0.0
1521813189467591047,0.220068247733,-0.0065438735538,0.0
1521813189496049880,0.220067202085,-0.00654387410149,0.0
1521813189529184103,0.292017216788,-0.0065521571603,0.0
1521813189548069953,0.341769581544,-0.00655788263439,0.0
1521813189572366952,0.392552669103,0.000671573765631,0.0
1521813189591589927,0.4026482049,0.00067522460272,0.0
1521813189622493028,0.403664412833,0.000675592035471,0.0
1521813189648652076,0.433081367699,0.000686232044716,0.0
1521813189679708957,0.445776937236,0.00053056046132,0.0
1521813189697818994,0.466054741058,0.000537681576647,0.0
1521813189723601102,0.486329067537,0.000544801701986,0.0
1521813189744899034,0.506599957759,0.000551920840826,0.0
1521813189776810884,0.526867454752,0.000559039071587,0.0
1521813189803987026,0.600130032868,-0.00230604582666,0.0
1521813189823445081,0.62038755987,-0.00235145652054,0.0
1521813189847292900,0.640641861078,-0.00239685996675,0.0
1521813189870893955,0.670003307992,-0.00246267757921,0.0
1521813189897705078,0.710319807891,-0.00255305344076,0.0
1521813189924716949,0.730474369803,-0.0025982328912,0.0
1521813189948487043,0.705364227755,-0.000466514056241,0.0
1521813189977279901,0.734696828783,-0.000466833606536,0.0
1521813189993433952,0.744771725738,-0.000466943916771,0.0
1521813190029345035,0.824269537819,0.00245795034995,0.0
1521813190044214010,0.834341022606,0.00245788536685,0.0
1521813190072400093,0.864553561706,0.00245769100395,0.0
1521813190097906112,0.884693390735,0.0024575618511,0.0
1521813190124943971,0.915910188913,0.00245736326912,0.0
1521813190155648946,0.956327144884,0.00245710493392,0.0
1521813190182184934,0.995337977849,0.00196048003194,0.0
1521813190196666955,1.01554074164,0.00196052527957,0.0
1521813190224167108,1.05593868821,0.00196061655316,0.0
1521813190244688034,1.06603614016,0.00196063918716,0.0
1521813190274121046,1.09632561197,0.00196070776674,0.0
1521813190294971942,1.10642063584,0.00196073056588,0.0
1521813190320934057,1.04773621736,-0.0585426725678,0.0
1521813190357872009,1.1270266469,-0.00659764621184,0.0
1521813190369910955,1.13708434885,-0.00659762066706,0.0
1521813190394506931,1.14714255922,-0.00659759445597,0.0
1521813190433298110,1.18744665519,-0.00659749085964,0.0
1521813190448926925,1.19850926916,-0.00659746230827,0.0
1521813190475423097,1.22775216367,-0.00659738507653,0.0
1521813190505363941,1.26796931398,-0.0065972785219,0.0
1521813190521138906,1.27802214575,-0.00659725193287,0.0
1521813190549891948,1.28807457747,-0.00659722532496,0.0
1521813190588814020,1.35955562156,-0.00659703157215,0.0
1521813190598491907,1.36963327843,-0.00659700435953,0.0
1521813190624500036,1.37971144531,-0.00659697651752,0.0
1521813190661602020,1.42001579614,-0.00659686704063,0.0
1521813190677522897,1.44016569283,-0.00659681173877,0.0
1521813190706106901,1.46937884769,-0.00659673052737,0.0
1521813190729331970,1.50956570338,-0.00659661928285,0.0
1521813190755101919,1.52965696361,-0.006596563481,0.0
1521813190778389930,1.54974708739,-0.00659650749107,0.0
1521813190806550979,1.56983608954,-0.00659645141692,0.0
1521813190828644037,1.58992398421,-0.00659639516843,0.0
1521813190853758096,1.61001078536,-0.00659633880917,0.0
1521813190877994060,1.63009650678,-0.00659628236494,0.0
1521813190901853084,1.64013863129,-0.00659625434416,0.0
1521813190933217048,1.7014986249,-0.00659608086802,0.0
1521813190957922935,1.72162433524,-0.00659602362271,0.0
1521813190980138063,1.7618710713,-0.00659590877608,0.0
1521813191002425909,1.78199213497,-0.00659585118709,0.0
1521813191026294946,1.79205174036,-0.00659582257128,0.0
1521813191059957027,1.82222887701,-0.00659573631127,0.0
1521813191079694032,1.84234546485,-0.00659567856196,0.0
1521813191102231025,1.87151122192,-0.00659559407826,0.0
1521813191135422945,1.90266274104,-0.00659550498049,0.0
1521813191153887033,1.92277353932,-0.00659544705704,0.0
1521813191176731109,1.93282811584,-0.00659541819787,0.0
1521813191211389064,1.97203763353,-0.00659530390599,0.0
1521813191230559110,2.01217430556,-0.00659518650696,0.0
1521813191255944967,2.03224106287,-0.00659512773442,0.0
1521813191275762081,2.04227383023,-0.00659509850841,0.0
1521813191311896085,2.07237140548,-0.00659501017335,0.0
1521813191329988002,2.11249921064,-0.00659489113479,0.0
1521813191353339910,2.13256192613,-0.00659483113779,0.0
1521813191378914117,2.15262386323,-0.00659477091605,0.0
1521813191405128955,2.17268503167,-0.00659471046654,0.0
1521813191432212114,2.19274544106,-0.00659464957319,0.0
1521813191457053899,2.21280510088,-0.00659458830132,0.0
1521813191487492084,2.25293669707,-0.00659446446165,0.0
1521813191506861925,2.27299518074,-0.00659440252943,0.0
1521813191528347015,2.28302337779,-0.00659437173372,0.0
1521813191555470943,2.30409381472,-0.00659430639672,0.0
1521813191581396102,2.32417946113,-0.00659424400583,0.0
1521813191609935998,2.35330074163,-0.00659415340394,0.0
1521813191638308048,2.40446944343,-0.00659399152037,0.0
1521813191662755012,2.42455045469,-0.00659392779075,0.0
1521813191679696083,2.43459030099,-0.00659389600918,0.0
1521813191718673944,2.48473506894,-0.00659373597514,0.0
1521813191730974912,2.49477262965,-0.00659370395257,0.0
1521813191760045051,2.52488650377,-0.00659360630876,0.0
1521813191785326004,2.54496170055,-0.00659354166674,0.0
1521813191805404901,2.55499865446,-0.0065935095049,0.0
1521813191843441009,2.60518092096,-0.00659334746845,0.0
1521813191864516019,2.62525241797,-0.0065932821971,0.0
1521813191891865968,2.66539275776,-0.00659315097932,0.0
1521813191911557912,2.68546162278,-0.00659308514654,0.0
1521813191939877033,2.70552963249,-0.00659301921769,0.0
1521813191962975025,2.73462630431,-0.00659292262402,0.0
1521813191989249944,2.75466930887,-0.00659285628322,0.0
1521813192018667936,2.79475300531,-0.00659272340581,0.0
1521813192036731004,2.8047733589,-0.00659269037485,0.0
1521813192063389062,2.81479418961,-0.00659265676061,0.0
1521813192095604896,2.86595094203,-0.00659248770768,0.0
1521813192118240118,2.87497680526,-0.00659245795334,0.0
1521813192141182899,2.90604028472,-0.00659235359446,0.0
1521813192166466951,2.9351250345,-0.00659225581416,0.0
1521813192188621044,2.94514385578,-0.00659222256179,0.0
1521813192220000028,2.99526601939,-0.0065920540582,0.0
1521813192237849950,3.00528398849,-0.00659202061224,0.0
1521813192262934923,3.00628742064,-0.00659201733978,0.0
1521813192288911104,3.11413633095,-0.00331268357002,0.0
1521813192315907955,3.19435970873,-0.00331009710841,0.0
1521813192343378067,3.21441276016,-0.00330945186951,0.0
1521813192367849111,3.25451689406,-0.00330816068508,0.0
1521813192387566089,3.26454226129,-0.00330783797113,0.0
1521813192415987968,3.20642201981,-0.00391327414242,0.0
1521813192440002918,3.2164470673,-0.0039131176128,0.0
1521813192462476015,3.2264725859,-0.0039129604176,0.0
1521813192504940986,3.28659340253,-0.00391201897453,0.0
1521813192520361900,3.33569242277,-0.0039112475856,0.0
1521813192541409969,3.36720692244,-0.00394507074105,0.0
1521813192566180944,3.38723675711,-0.00394493733473,0.0
1521813192592273950,3.42729533336,-0.00394466988063,0.0
1521813192619482994,3.44732408427,-0.0039445358422,0.0
1521813192642266988,3.37483668428,0.0199656336291,0.0
1521813192671005010,3.41461856861,-0.00399602375949,0.0
1521813192697304010,3.43464627514,-0.00399596860541,0.0
1521813192719218969,3.4747006758,-0.00399585763558,0.0
1521813192740776062,3.49472737848,-0.00399580188898,0.0
1521813192769767999,3.51475375503,-0.00399574592449,0.0
1521813192793081998,3.58203041506,-0.00574263745629,0.0
1521813192824397087,3.62208159347,-0.00574087791769,0.0
1521813192845989942,3.64210671585,-0.00573999802315,0.0
1521813192866059064,3.66213153233,-0.00573911800065,0.0
1521813192895566940,3.7185761652,0.0128169687271,0.0
1521813192917121887,3.74961481723,0.0128084366402,0.0
1521813192942553997,3.76965112052,0.0128029277561,0.0
1521813192967504978,3.77966898471,0.0128001729483,0.0
1521813192995277881,3.80972231326,0.0127919095506,0.0
1521813193018625974,3.81973974233,0.0127891549523,0.0
1521813193048398017,3.80524362866,-0.00760962831283,0.0
1521813193079437971,3.84531194166,-0.00761431112836,0.0
1521813193093898057,3.85532852296,-0.0076154818305,0.0
1521813193123357057,3.88537803276,-0.0076189935811,0.0
1521813193140760898,3.89539420631,-0.00762016418747,0.0
1521813193174690961,3.98388190662,-0.00850106424722,0.0
1521813193198050975,4.05298439931,-0.00850123657905,0.0
1521813193216794013,4.06299429536,-0.00850126194222,0.0
1521813193249721050,4.0930398179,-0.00850133718663,0.0
1521813193266271114,4.10304955505,-0.00850136249429,0.0
1521813193303042888,4.09164231904,0.00888131861376,0.0
1521813193322469949,4.14269201322,0.00886694004934,0.0
1521813193341701030,4.15270601565,0.00886411851967,0.0
1521813193376097917,4.18273476368,0.00885566179462,0.0
1521813193394834041,4.19274842188,0.00885284070123,0.0
1521813193425997972,4.17719950765,-0.0169937174414,0.0
1521813193452114105,4.2272549828,-0.0169941877879,0.0
1521813193471795082,4.23726823267,-0.0169942814325,0.0
1521813193501113891,4.26729532793,-0.0169945616292,0.0
1521813193517786026,4.27730816232,-0.0169946551021,0.0
1521813193556643009,4.41663774343,0.0135005742185,0.0
1521813193580027103,4.4566703857,0.0135527005745,0.0
1521813193596739053,4.47668641226,0.0135787636183,0.0
1521813193621551036,4.49670224571,0.0136048266561,0.0
1521813193648627996,4.53673334299,0.0136569529831,0.0
1521813193669738054,4.54674078422,0.0136699834832,0.0
1521813193704598903,4.50445952183,0.00332731778475,0.0
1521813193719202041,4.51447066956,0.00332741309332,0.0
1521813193746474027,4.52448167847,0.00332750829384,0.0
1521813193778650045,4.57479650843,-0.00761077112182,0.0
1521813193805821895,4.62384386003,-0.00761003506585,0.0
1521813193826828956,4.67488082852,-0.00760924525981,0.0
1521813193845331907,4.68489109431,-0.00760909053357,0.0
1521813193878278017,4.71492203154,-0.00760862578842,0.0
1521813193899689912,4.71621111409,-0.000300812585485,0.0
1521813193932262897,4.75625194317,-0.000301663946774,0.0
1521813193952866077,4.79629178613,-0.000302515612791,0.0
1521813193970468997,4.80630138755,-0.000302728869195,0.0
1521813194006587982,4.8363244957,-0.00030336777336,0.0
1521813194026645898,4.88536438536,-0.000304408532656,0.0
1521813194051774024,4.77452712778,0.00315703321663,0.0
1521813194074040889,4.78553376025,0.00315694662251,0.0
1521813194102684020,4.81456024954,0.00315672120582,0.0
1521813194125650882,4.82456605943,0.00315664251602,0.0
1521813194152023077,4.83457177065,0.00315656377901,0.0
1521813194187704086,5.03103739796,0.00225902286743,0.0
1521813194196345090,5.04104582824,0.00225900675831,0.0
1521813194229722976,5.10009048701,0.00225891564352,0.0
1521813194247405052,5.11009578399,0.00225889967325,0.0
1521813194286847114,5.12329179275,0.00491734981496,0.0
1521813194329930067,5.13329696141,0.00491736381234,0.0
1521813194371340990,5.19432974571,0.00491745469917,0.0
1521813194371788978,5.25437574607,0.00491754417405,0.0
1521813194410078048,5.2643830733,0.00491755879969,0.0
1521813194410221099,5.2743908284,0.00491757472812,0.0
1521813194450064897,5.28439901137,0.00491759195934,0.0
1521813194455775022,5.16152000048,0.00271693242955,0.0
1521813194493880033,5.23156108782,0.00271733008393,0.0
1521813194534204006,5.24156797347,0.00271738660299,0.0
1521813194534455060,5.25157476071,0.00271744302885,0.0
1521813194574081897,5.27158869488,0.00271755714922,0.0
1521813194582571983,5.30060821501,0.00271772263939,0.0
1521813194622672080,5.31061260056,0.00271777954031,0.0
1521813194661979913,5.36063554724,0.00271806884119,0.0
1521813194662082910,5.40065278053,0.00271830044999,0.0
1521813194702049970,5.41065683415,0.00271835808559,0.0
1521813194708079099,5.44066917678,0.00271853217193,0.0
1521813194745852947,5.48068562115,0.00271876608589,0.0
1521813194786457061,5.49068948369,0.00271882426279,0.0
1521813194825829029,5.53170649296,0.00271906651987,0.0
1521813194825915098,5.54171218267,0.00271912503264,0.0
1521813194865946054,5.57172941823,0.00271930158555,0.0
1521813194866056919,5.58173501008,0.00271936034622,0.0
1521813194907319068,5.61175185274,0.00271953758066,0.0
1521813194907874107,5.62175731009,0.00271959654606,0.0
1521813194945846080,5.65177375041,0.00271977429593,0.0
1521813194965130090,5.7118062793,0.00272013189985,0.0
1521813195001975059,5.72181141539,0.00272019115704,0.0
1521813195042135953,5.76083193181,0.00272042488104,0.0
1521813195042303085,5.78083886017,0.00272054444955,0.0
1521813195081899881,5.79084209099,0.00272060386441,0.0
1521813195084083080,5.80084524366,0.00272066316761,0.0
1521813195122051000,5.84085859613,0.00272090296072,0.0
1521813195162499904,5.8508617142,0.00272096259505,0.0
1521813195202505111,5.88087123799,0.00272114236094,0.0
1521813195202681064,5.92088400834,0.00272138335193,0.0
1521813195243100881,5.93088698346,0.00272144320986,0.0
1521813195243212938,5.96089607538,0.00272162354741,0.0
1521813195285120964,5.98090221298,0.00272174434702,0.0
1521813195287096023,5.99190547972,0.00272181033003,0.0
1521813195325937986,6.06093045422,0.0027222297094,0.0
1521813195366962909,6.07093319521,0.00272228996388,0.0
1521813195367069005,6.10094157704,0.00272247156076,0.0
1521813195406232118,6.13195117615,0.00272266204299,0.0
1521813195409344911,6.16096343876,0.00272284046667,0.0
1521813195445792913,6.17096604576,0.00272290120552,0.0
1521813195486445903,6.20097396098,0.00272308428698,0.0
1521813195526037931,6.24098461828,0.00272332986353,0.0
1521813195526154994,6.25098708452,0.002723391017,0.0
1521813195566169023,6.26098945932,0.00272345199051,0.0
1521813195566302061,6.28099463034,0.00272357523692,0.0
1521813195605994939,6.29099703927,0.00272363656543,0.0
1521813195615698099,6.34100941954,0.00272394552831,0.0
1521813195655102014,6.35101174498,0.00272400726342,0.0
1521813195693895101,6.40102370611,0.00272431831037,0.0
1521813195694016933,6.44103624479,0.0027245700555,0.0
1521813195735502958,6.46104063869,0.0027246955177,0.0
1521813195739727020,6.49204840965,0.00272489198667,0.0
1521813195777930974,6.50205158565,0.00272495454267,0.0
1521813195818902969,6.53206125496,0.00272514280385,0.0
1521813195819327116,6.54206439236,0.00272520549353,0.0
1521813195862673997,6.5720716118,0.00272539610996,0.0
1521813195864491939,6.62108446039,0.00272570951304,0.0
1521813195901983022,6.63108643819,0.00272577257824,0.0
1521813195941766977,6.66109248672,0.00272596252045,0.0
1521813195941859960,6.67109441754,0.00272602580757,0.0
1521813195983555078,6.71210336578,0.0027262883073,0.0
1521813195991424083,6.75211274729,0.00272654516692,0.0
1521813196030874967,6.76211548541,0.00272660893587,0.0
1521813196070408105,6.77211810218,0.00272667242979,0.0
1521813196070561885,6.7921237842,0.00272680072151,0.0
1521813196109891891,6.80212647639,0.00272686461481,0.0
1521813196118071079,6.85214009751,0.00272718538944,0.0
1521813196157917022,6.9572217401,-0.00374177540892,0.0
1521813196199476003,6.99723274175,-0.00374165384011,0.0
1521813196199978113,7.03724291115,-0.00374153146798,0.0
1521813196238332033,7.04724534837,-0.00374150128507,0.0
1521813196242676019,7.08625328801,-0.00374138236556,0.0
1521813196281929016,7.09625490555,-0.00374135214777,0.0
1521813196322681903,7.09433806292,-0.00361714605343,0.0
1521813196361974954,7.15434845392,-0.00361803027868,0.0
1521813196362097978,7.16434998323,-0.00361817788021,0.0
1521813196404165029,7.20535882329,-0.00361878134381,0.0
1521813196404675960,7.21536103676,-0.00361892871358,0.0
1521813196442050933,7.18534907156,0.023933800973,0.0
1521813196442164897,7.17619197016,-0.0266606070247,0.0
1521813196482817888,7.21620122761,-0.0266634668337,0.0
1521813196496118068,7.25621034681,-0.0266659649579,0.0
1521813196534215927,7.26621243504,-0.0266665894578,0.0
1521813196574166059,7.38966294048,-0.00361742460078,0.0
1521813196614213943,7.42966905631,-0.00362231481243,0.0
1521813196614289999,7.43967039597,-0.00362353808684,0.0
1521813196654103994,7.46967466623,-0.00362720602534,0.0
1521813196654246091,7.39456163461,-0.00380743730342,0.0
1521813196693881034,7.40456292705,-0.00380805705093,0.0
1521813196693991899,7.41456418312,-0.00380867687744,0.0
1521813196735270023,7.46557213275,-0.00381182893875,0.0
1521813196739737033,7.475573959,-0.00381244819051,0.0
1521813196777802944,7.61861473629,-0.00332360502698,0.0
1521813196818877935,7.63861860052,-0.00332814272394,0.0
1521813196858185052,7.66762458069,-0.00333471951708,0.0
1521813196858347892,7.70762991294,-0.00334379274547,0.0
1521813196897941112,7.71763106056,-0.00334606165306,0.0
1521813196900424003,7.73127133264,0.0124209754155,0.0
1521813196937793970,7.74127245538,0.012421147135,0.0
1521813196978260040,7.77127608065,0.0124216650094,0.0
1521813196978413105,7.82228409264,0.0124225542255,0.0
1521813197017910957,7.83228566232,0.0124227264378,0.0
1521813197022433042,7.84228717408,0.0124228982941,0.0
1521813197062064886,7.85228872676,0.0124230705933,0.0
1521813197103072881,7.7984703792,0.0118590280618,0.0
1521813197142414093,7.83847515844,0.0118595709253,0.0
1521813197142625093,7.84847617737,0.0118597053714,0.0
1521813197181965112,8.01049549704,0.0108743127823,0.0
1521813197182070970,8.05050005082,0.0108743218147,0.0
1521813197221993923,8.07050228944,0.0108743265008,0.0
1521813197225564956,8.09050450736,0.0108743312201,0.0
1521813197261960029,8.13050888205,0.0108743408903,0.0
1521813197302129983,8.11026742754,-0.0055512003263,0.0
1521813197341906070,8.15027173712,-0.0055517100939,0.0
1521813197342088937,8.16027264176,-0.00555183803519,0.0
1521813197382163047,8.17027351273,-0.00555196606761,0.0
1521813197382311105,8.20127739402,-0.00555235757252,0.0
1521813197421961069,8.17358644774,0.00321789031721,0.0
1521813197430730104,8.23359398907,0.00318052496559,0.0
1521813197470123052,8.24359519936,0.00317429612662,0.0
1521813197510440111,8.26259747221,0.0031624629186,0.0
1521813197510556936,8.28259946007,0.00315000762404,0.0
1521813197550008058,8.32127625517,0.00835726380159,0.0
1521813197550261974,8.33127707142,0.00835903518003,0.0
1521813197590960025,8.38128167693,0.00836789715995,0.0
1521813197630264997,8.43228630389,0.00837693785758,0.0
1521813197630383014,8.37291482871,0.0061742855296,0.0
1521813197670834064,8.40191881234,0.00617404609868,0.0
1521813197678518056,8.42192063957,0.0061738791644,0.0
1521813197719058990,8.43192138939,0.00617379473803,0.0
1521813197757858037,8.46192388252,0.00617354373352,0.0
1521813197757957935,8.47192461685,0.00617345955483,0.0
1521813197798645973,8.51292903488,0.00617311954803,0.0
1521813197807601928,8.54193281719,0.00617288274415,0.0
1521813197845998048,8.57316796995,0.00255981802474,0.0
1521813197886655092,8.61317134934,0.00256057890056,0.0
1521813197886790990,8.62317203353,0.00256076832113,0.0
1521813197925844907,8.75251230318,0.00984573329123,0.0
1521813197937427043,8.79251559606,0.00984599297031,0.0
1521813197976280927,8.80251625742,0.00984605694494,0.0
1521813198014157056,8.83251848954,0.00984625105224,0.0
1521813198014375925,8.84251913833,0.00984631516945,0.0
1521813198054009914,8.81649587123,0.00376172159162,0.0
1521813198068689107,8.86550070446,0.00376213094388,0.0
1521813198107645034,8.87550132976,0.00376221385672,0.0
1521813198108263015,8.88550228777,0.00376229899991,0.0
1521813198145886898,8.91650482357,0.00376255572731,0.0
1521813198155507087,8.92650567373,0.00376263885346,0.0
1521813198194475889,8.95041377923,-0.00302468421761,0.0
1521813198233851909,8.96041461388,-0.00302291257545,0.0
1521813198275059938,8.99041729741,-0.00301759626871,0.0
1521813198275298118,9.0004181146,-0.0030158244969,0.0
1521813198313954114,9.05942257557,-0.00300536686366,0.0
1521813198314104080,9.07942399188,-0.00300182162158,0.0
1521813198355499029,9.09825494065,0.00660878918158,0.0
1521813198366105079,9.12725737776,0.00660867501619,0.0
1521813198406229972,9.13725792964,0.00660863509408,0.0
1521813198446142911,9.15825955748,0.00660855388891,0.0
1521813198446255922,9.18726249087,0.00660844469019,0.0
1521813198486082077,9.19726302529,0.00660840499129,0.0
1521813198492253065,9.2382654316,0.00660824439262,0.0
1521813198529999017,9.30727087142,0.00660798263795,0.0
1521813198569816112,9.31727137482,0.0066079434097,0.0
1521813198569915056,9.3272721983,0.00660790663675,0.0
1521813198609889984,9.32727194349,0.00660790402195,0.0
1521813198610009908,9.33727262975,0.0066078650218,0.0
1521813198651302099,9.36727440538,0.00660774978399,0.0
1521813198661189079,9.41827847593,0.00660756197229,0.0
1521813198699472904,9.42827913458,0.00660752374968,0.0
1521813198737973928,9.46728164493,0.00660737833513,0.0
1521813198738069057,9.50728403431,0.00660723060784,0.0
1521813198779000997,9.51728449339,0.0066071928342,0.0
1521813198785384893,9.52728490508,0.00660715478787,0.0
1521813198822072982,9.54728606818,0.00660708134939,0.0
1521813198866199970,9.58728838009,0.00660693504011,0.0
1521813198866400957,9.60728952188,0.00660686224356,0.0
1521813198909831047,9.65829323391,0.00660668125761,0.0
1521813198909997940,9.66829381831,0.00660664430109,0.0
1521813198955060005,9.71829709406,0.00660646328018,0.0
1521813198999495983,9.72829766194,0.00660642673059,0.0
1521813199000089883,9.75829950465,0.00660631849905,0.0
1521813199038368940,9.79830218015,0.00660617677858,0.0
1521813199038518905,9.80830272726,0.00660614067548,0.0
1521813199077970027,9.81830320221,0.00660610409965,0.0
1521813199088677883,9.84730547111,0.00660600494855,0.0
1521813199126039981,9.88730753206,0.00660586449439,0.0
1521813199167095899,9.89730792224,0.00660582856352,0.0
1521813199207312107,9.92730925434,0.00660572218068,0.0
1521813199207526922,9.93730963878,0.00660568633722,0.0
1521813199245935916,9.96731181682,0.00660558393983,0.0
1521813199246052026,9.97731219781,0.00660554812679,0.0
1521813199286755084,10.0183145396,0.00660540501068,0.0
1521813199286895036,10.0283150371,0.0066053693861,0.0
1521813199325985908,10.0583166426,0.00660526356356,0.0
1521813199351258039,10.1183201852,0.00660505518481,0.0
1521813199390639066,10.1283206629,0.0066050197719,0.0
1521813199430003881,10.1673235522,0.00660489266519,0.0
1521813199430128097,10.177323906,0.00660485724501,0.0
1521813199470030069,10.1873241858,0.00660482132778,0.0
1521813199474545001,10.2473269212,0.0066046144403,0.0
1521813199514106035,10.2573272648,0.00660457930218,0.0
1521813199554985046,10.2873284213,0.00660447501946,0.0
1521813199555557012,10.3273301947,0.00660433822611,0.0
1521813199595190048,10.3373305281,0.00660430335888,0.0
1521813199595295906,10.3383305253,0.00660429946273,0.0
1521813199635253906,10.3783338103,0.0066041722067,0.0
1521813199638127088,10.3883342395,0.00660413782603,0.0
1521813199680073022,10.438336706,0.00660397128952,0.0
1521813199719599962,10.4483371219,0.00660393721219,0.0
1521813199757931947,10.4873397759,0.00660381492933,0.0
1521813199758025884,10.5273414179,0.00660368297026,0.0
1521813199798291921,10.537341726,0.00660364945292,0.0
1521813199802119016,10.558342254,0.0066035783439,0.0
1521813199842118978,10.5683426439,0.00660354511163,0.0
1521813199883559942,10.6073442028,0.00660341807927,0.0
1521813199884402036,10.6473457736,0.0066032894404,0.0
1521813199923029899,10.6573460672,0.00660325679071,0.0
1521813199923329114,10.6673466487,0.00660322635589,0.0
1521813199961858987,10.6873470336,0.00660315987873,0.0
1521813199971590042,10.7473497266,0.00660297283082,0.0
1521813200009871959,10.7573500115,0.00660294070027,0.0
1521813200050348997,10.7983517254,0.00660281193839,0.0
1521813200050684928,10.8083520824,0.00660278006956,0.0
1521813200089854955,10.8383531939,0.0066026850834,0.0
1521813200089950084,10.8483535454,0.00660265342454,0.0
1521813200131084918,10.8783546386,0.00660255898153,0.0
1521813200142463922,10.9781044255,0.0294203276555,0.0
1521813200181978940,10.9612179941,-0.0295118087564,0.0
1521813200224401950,11.0012198286,-0.029511018532,0.0
1521813200224756956,11.0112201663,-0.0295108191838,0.0
1521813200261832952,11.0502221324,-0.0295100494812,0.0
1521813200275465011,11.125079445,-0.00267933056613,0.0
1521813200314870119,11.1350797728,-0.0026792179537,0.0
1521813200354715108,11.1450800635,-0.00267910514422,0.0
1521813200354825973,11.1650809395,-0.00267888079143,0.0
1521813200394675016,11.2250835649,-0.00267820738005,0.0
1521813200395056962,11.2350838826,-0.00267809452039,0.0
1521813200434231996,11.2063457186,-0.00305429141528,0.0
1521813200442203998,11.2163460295,-0.00305436185322,0.0
1521813200482691049,11.2463471436,-0.00305457395517,0.0
1521813200522237062,11.2953494431,-0.00305492299922,0.0
1521813200522371053,11.3180702434,0.0182785663018,0.0
1521813200562227964,11.3580720682,0.0182787721921,0.0
1521813200570451021,11.3680723094,0.0182788233146,0.0
1521813200606544971,11.3890727851,0.0182789307553,0.0
1521813200646841049,11.4380750252,0.0182791837794,0.0
1521813200686811923,11.3764395539,0.00836637699639,0.0
1521813200687158107,11.4164412986,0.00836614813619,0.0
1521813200725842952,11.4264415279,0.00836609143013,0.0
1521813200728187084,11.4564424156,0.00836592119505,0.0
1521813200766824960,11.4664426409,0.00836586465261,0.0
1521813200806811094,11.6066089051,-0.00503092716316,0.0
1521813200807385921,11.6466102933,-0.00503117062925,0.0
1521813200846251010,11.6566105169,-0.00503123073077,0.0
1521813200846374034,11.677611295,-0.00503135822933,0.0
1521813200889432907,11.697612048,-0.0050314790769,0.0
1521813200894567012,11.7076123177,-0.0050315387754,0.0
1521813200935213088,11.7461791857,-0.00407286837931,0.0
1521813200974214076,11.7861806967,-0.00407366956092,0.0
1521813200974292039,11.7961809587,-0.00407386913468,0.0
1521813201014022111,11.8461828291,-0.00407486942766,0.0
1521813201026752948,11.8861844571,-0.00407566975442,0.0
1521813201070785999,11.7835272809,-0.00444758567287,0.0
1521813201109961986,11.8235295743,-0.00444728256754,0.0
1521813201110095024,11.8435301999,-0.00444712782381,0.0
1521813201150923967,11.9653645245,-0.00512354120509,0.0
1521813201157927989,12.0163660723,-0.00512326345929,0.0
1521813201198018074,12.0453674578,-0.00512310716532,0.0
1521813201198147058,12.0653681029,-0.00512299780895,0.0
1521813201238106966,12.0853687444,-0.00512288823136,0.0
1521813201245248079,12.0953689463,-0.00512283273594,0.0
1521813201281943082,12.1253697516,-0.00512266708491,0.0
1521813201322907924,12.1403760215,-0.0065599723094,0.0
1521813201362025022,12.1503762186,-0.00655990197231,0.0
1521813201362154960,12.1603766777,-0.00655983312029,0.0
1521813201401878118,12.1913773161,-0.00655961438462,0.0
1521813201402126073,12.2003774894,-0.00655955073074,0.0
1521813201442651987,12.1763136701,-0.00531635177201,0.0
1521813201483050107,12.2273156865,-0.00531701781721,0.0
1521813201483254909,12.276318108,-0.00531765999064,0.0
1521813201522284984,12.2863182984,-0.00531778931332,0.0
1521813201535389900,12.3356407006,-0.00605808091876,0.0
1521813201573842048,12.3756419163,-0.0060716311994,0.0
1521813201573937892,12.3856421042,-0.00607501794136,0.0
1521813201613910913,12.4156428644,-0.00608517919388,0.0
1521813201623971939,12.4256430506,-0.00608856571484,0.0
1521813201662369966,12.4466437213,-0.00609567889242,0.0
1521813201702702045,12.4931082193,0.00499360293228,0.0
1521813201746170997,12.5031084048,0.00498696387947,0.0
1521813201746292114,12.5441097146,0.00495974211428,0.0
1521813201786401033,12.6241129978,0.004906626358,0.0
1521813201786524057,12.5624309847,-0.00738063604475,0.0
1521813201826020002,12.6024322265,-0.00738250278428,0.0
1521813201826297998,12.612432431,-0.00738296823409,0.0
1521813201866020917,12.6424332085,-0.00738436553058,0.0
1521813201906742095,12.6514333578,-0.00738478397314,0.0
1521813201946077108,12.6824346527,-0.00738623139631,0.0
1521813201946260929,12.7021520149,0.0100858463786,0.0
1521813201986797094,12.7711545965,0.0100863597491,0.0
1521813201986969947,12.8111556996,0.0100866585113,0.0
1521813202026051998,12.8211558653,0.0100867334851,0.0
1521813202038481950,12.8511565448,0.0100869584897,0.0
1521813202074914932,12.7804593922,0.00845244479333,0.0
1521813202114810943,12.820460457,0.00845248622676,0.0
1521813202115195989,12.8404609865,0.00845250718861,0.0
1521813202155122995,12.8504611447,0.00845251796242,0.0
1521813202174094915,13.0213699909,0.00317313240926,0.0
1521813202210783958,13.0413705329,0.00317272832447,0.0
1521813202250669002,13.0613710727,0.00317232435844,0.0
1521813202250984907,13.0813716102,0.00317192061094,0.0
1521813202290915966,13.0941783741,-0.000166501359147,0.0
1521813202291270971,13.1651807417,-0.000165491265228,0.0
1521813202330157995,13.1751809246,-0.000165348073391,0.0
1521813202342747926,13.2141822016,-0.000164792229105,0.0
1521813202382765054,13.2251823741,-0.000164634658849,0.0
1521813202383064985,13.2351825539,-0.000164491422144,0.0
1521813202425956964,13.2541830374,-0.000164219935143,0.0
1521813202442926883,13.3141846036,-0.00016336238016,0.0
1521813202483213901,13.3241847609,-0.000163218804842,0.0
1521813202522078037,13.3741859217,-0.000162502435287,0.0
1521813202522300004,13.384186078,-0.000162358659479,0.0
1521813202562352895,13.4141871993,-0.000161930312149,0.0
1521813202562947034,13.424187355,-0.000161786457007,0.0
1521813202602782011,13.454187974,-0.000161355372913,0.0
1521813202608051061,13.4641881287,-0.000161211335741,0.0
1521813202645842075,13.4941887508,-0.000160779824621,0.0
1521813202687027931,13.5451904632,-0.000160048520712,0.0
1521813202687472105,13.5551906352,-0.000159904205217,0.0
1521813202730032920,13.5851912746,-0.000159471600135,0.0
1521813202734914064,13.595191445,-0.000159327054565,0.0
1521813202774267911,13.6451925902,-0.000158604764871,0.0
1521813202814785003,13.6551927579,-0.000158459860735,0.0
1521813202854698896,13.7051938822,-0.000157735939632,0.0
1521813202855504989,13.7151940471,-0.000157590634614,0.0
1521813202894057035,13.7251944446,-0.000157446318355,0.0
1521813202894191026,13.7251941608,-0.000157445009896,0.0
1521813202933932065,13.7941961405,-0.000156443989716,0.0
1521813202934040069,13.8041962832,-0.000156297952058,0.0
1521813202974020957,13.8541977255,-0.000155570399355,0.0
1521813202986412048,13.874198183,-0.000155278492067,0.0
1521813203026241064,13.894198638,-0.000154986258978,0.0
1521813203066746950,13.9041987769,-0.000154839548744,0.0
1521813203106030941,13.9341993125,-0.000154399628621,0.0
1521813203106138944,13.9441994502,-0.000154252667892,0.0
1521813203145997047,13.9741999793,-0.000153811897637,0.0
1521813203146100997,13.9942004233,-0.000153518106989,0.0
1521813203186028003,14.0042005592,-0.000153370724871,0.0
1521813203196125984,14.0542015177,-0.000152634339847,0.0
1521813203234525918,14.1052030124,-0.000151884647385,0.0
1521813203275274038,14.1342035516,-0.000151456504182,0.0
1521813203275528907,14.1442036851,-0.000151308616712,0.0
1521813203318926095,14.1542037634,-0.000151160442481,0.0
1521813203319279909,14.1642038967,-0.000151012474294,0.0
1521813203362047910,14.2142048731,-0.000150273214812,0.0
1521813203362147092,14.2242050059,-0.000150124991932,0.0
1521813203402021884,14.2742059235,-0.000149384923415,0.0
1521813203414783954,14.2942063452,-0.000149089006489,0.0
1521813203454137086,14.3042064776,-0.000148940617459,0.0
1521813203493855953,14.3252069282,-0.00014862973709,0.0
1521813203493984937,14.3652077857,-0.000148037173049,0.0
1521813203533971071,14.3752079314,-0.000147888588811,0.0
1521813203548196077,14.4252092727,-0.000147148245488,0.0
1521813203587205886,14.4352094177,-0.000146999461281,0.0
1521813203626274108,14.4452094904,-0.000146850296445,0.0
1521813203626370906,14.465209909,-0.000146553159661,0.0
1521813203666949033,14.5142112114,-0.000145826098142,0.0
1521813203667737960,14.5242113418,-0.000145676926983,0.0
1521813203706273078,14.5742122074,-0.000144931452709,0.0
1521813203746160984,14.5842123366,-0.000144782014712,0.0
1521813203786103010,14.6342131895,-0.000144035048953,0.0
1521813203786237955,14.6442133172,-0.000143885244643,0.0
1521813203829133033,14.6542133761,-0.000143735035506,0.0
1521813203829586029,14.7052147488,-0.000142972827526,0.0
1521813203866970062,14.7152148868,-0.000142822482893,0.0
1521813203907442092,14.7542163777,-0.000142240466169,0.0
1521813203907731056,14.7652164848,-0.000142074604962,0.0
1521813203946552038,14.7942173256,-0.000141639648811,0.0
1521813203946779966,14.8042174485,-0.000141488680125,0.0
1521813203986035108,14.834217865,-0.00014103561393,0.0
1521813204000444889,14.8852191681,-0.000140266826617,0.0
1521813204037873983,14.8952192995,-0.000140115264528,0.0
1521813204077801942,14.925219713,-0.000139660368949,0.0
1521813204077904939,14.9652083361,-0.000139397148764,0.0
1521813204118818998,14.9751553519,-0.000140747653475,0.0
1521813204124700069,14.9848474182,-0.000147385510013,0.0
1521813204162090063,14.9944356015,-0.000161993751881,0.0
1521813204202267885,15.0037058218,-0.000189524636125,0.0
1521813204245958089,15.071202454,-0.00119643465137,0.0
1521813204246090888,15.0794824755,-0.00148648354422,0.0
1521813204290205001,15.1135683284,-0.00276541354888,0.0
1521813204290406942,15.1509578686,-0.00428067999842,0.0
1521813204330073118,15.1598199989,-0.00465472827283,0.0
1521813204330189943,15.168680723,-0.00504264794472,0.0
1521813204370419025,15.1683298661,-0.0050313811228,0.0
1521813204375921964,15.2146244058,-0.0075009467287,0.0
1521813204414486885,15.221233819,-0.00796775959253,0.0
1521813204458501100,15.2525318413,-0.0105883719927,0.0
1521813204458626031,15.2657952376,-0.0119192467209,0.0
1521813204507006883,15.2725821739,-0.0126267969355,0.0
1521813204507524013,15.2793651327,-0.0133468238603,0.0
1521813204546264886,15.2792053643,-0.0133338616648,0.0
1521813204558279037,15.3155716219,-0.0174678810008,0.0
1521813204598228931,15.3206641185,-0.0181211868586,0.0
1521813204639012098,15.3496597514,-0.0221716369316,0.0
1521813204639386892,15.3561832281,-0.0232343666947,0.0
1521813204678896903,15.3614211216,-0.0241413045039,0.0
1521813204679301023,15.3635224241,-0.0245186026141,0.0
1521813204719300985,15.3685663714,-0.0254802719625,0.0
1521813204734999895,15.3739855875,-0.0265262130763,0.0
1521813204773818016,15.3764960927,-0.027043470223,0.0
1521813204815707921,15.3822266339,-0.0282147057412,0.0
1521813204816276073,15.3884209402,-0.0294963116127,0.0
1521813204855962991,15.4138968757,-0.0347955441212,0.0
1521813204856724977,15.4192450249,-0.0359217830301,0.0
1521813204894854068,15.4250534796,-0.0371225079556,0.0
1521813204902617931,15.4371258948,-0.0396422656104,0.0
1521813204942364931,15.4503860177,-0.0424120355379,0.0
1521813204981745958,15.4575287821,-0.0439159716474,0.0
1521813205022952079,15.5126703787,-0.0555436808063,0.0
1521813205023478031,15.5419413419,-0.0619872587733,0.0
1521813205062465906,15.5607777443,-0.066377866343,0.0
1521813205062630891,15.5715158413,-0.0690527809493,0.0
1521813205102224111,15.5810289248,-0.0715138301765,0.0
1521813205102416992,15.5853090387,-0.0726567082172,0.0
1521813205142030000,15.596310166,-0.075741163592,0.0
1521813205153019905,15.607075385,-0.0789367694638,0.0
1521813205190510988,15.6089398012,-0.0795105605143,0.0
1521813205231353044,15.6128637242,-0.0808179579031,0.0
1521813205231692075,15.6142278524,-0.0812920773568,0.0
1521813205270119905,15.6148116034,-0.0815032870326,0.0
1521813205274652957,15.6149315597,-0.0815444166237,0.0
1521813205314498901,15.6148904906,-0.0815398535947,0.0
1521813205357242107,15.6145878378,-0.0814224682364,0.0
1521813205357958078,15.6145052563,-0.0813869764183,0.0
1521813205398819923,15.6144470134,-0.0813615879186,0.0
1521813205408641099,15.6141930027,-0.0812551146718,0.0
1521813205446336984,15.6141363401,-0.0812324616399,0.0
1521813205485887050,15.6136509646,-0.0810235429841,0.0
1521813205486013889,15.6135747175,-0.0809897960059,0.0
1521813205526138067,15.6134930454,-0.0809514121827,0.0
1521813205529278039,15.613194111,-0.0808089048169,0.0
1521813205570015907,15.6129677752,-0.080698176425,0.0
1521813205609952926,15.612831334,-0.0806440605634,0.0
1521813205610064983,15.612513439,-0.0804727902718,0.0
1521813205650659084,15.6123850133,-0.0804200382254,0.0
1521813205661542892,15.61191856,-0.0801743638506,0.0
1521813205698070049,15.6113551187,-0.0798768184218,0.0
1521813205739502906,15.6112069692,-0.0797920731641,0.0
1521813205739897012,15.6111478482,-0.0797621641545,0.0
1521813205777956962,15.6109685075,-0.079676590652,0.0
1521813205779535055,15.6107576968,-0.0795588181295,0.0
1521813205818672895,15.6106903719,-0.0795089841008,0.0
1521813205857880115,15.6103030662,-0.0792807167512,0.0
1521813205897790908,15.6100318523,-0.079101295027,0.0
1521813205897887945,15.6102657802,-0.0791983586466,0.0
1521813205939013004,15.6111541015,-0.0796941307938,0.0
1521813205939307928,15.6128881115,-0.0807286792908,0.0
1521813205977812051,15.614133391,-0.0815307625152,0.0
1521813205989612102,15.6214016936,-0.0860756588956,0.0
1521813206025784969,15.6236245002,-0.0875213052709,0.0
1521813206065958976,15.6355547559,-0.0950340140682,0.0
1521813206066085100,15.6432301894,-0.099943147633,0.0
1521813206106401920,15.6474805376,-0.102706976779,0.0
1521813206112991094,15.6671263477,-0.115317178623,0.0
1521813206150163888,15.6832971816,-0.12567350281,0.0
1521813206190310955,15.6895750846,-0.129755729656,0.0
1521813206190417051,15.7171726481,-0.147536662546,0.0
1521813206230113983,15.747824439,-0.167339140444,0.0
1521813206234575986,15.7559712104,-0.172636481333,0.0
1521813206273829936,15.7809049475,-0.18881266288,0.0
1521813206314470052,15.7892892193,-0.194264277317,0.0
1521813206314640045,15.8221373606,-0.215617303214,0.0
1521813206354928970,15.8389883801,-0.226573782338,0.0
1521813206358419895,15.8474170283,-0.232054174944,0.0
1521813206399363994,15.8558463684,-0.237535097894,0.0
1521813206437854051,15.8642768407,-0.243016661471,0.0
1521813206478720903,15.9064315861,-0.270426992337,0.0
1521813206479123115,15.957087022,-0.303364442083,0.0
1521813206518035888,15.9832320241,-0.320361073405,0.0
1521813206518158912,15.9916844198,-0.325856789954,0.0
1521813206558212041,16.000135312,-0.331352226424,0.0
1521813206568212985,16.0333615494,-0.353050939279,0.0
1521813206606977939,16.0412686381,-0.358215489828,0.0
1521813206645926952,16.0632856203,-0.372769858462,0.0
1521813206646018028,16.0702932605,-0.377403976861,0.0
1521813206686191082,16.0968924291,-0.395308376084,0.0
1521813206693227052,16.1190602837,-0.410532375479,0.0
1521813206729865074,16.1336263474,-0.420665142087,0.0
1521813206770944118,16.1539444056,-0.434986834953,0.0
1521813206771398067,16.1602794016,-0.439483472498,0.0
1521813206810075044,16.1726733498,-0.448490733059,0.0
1521813206830270051,16.2071515996,-0.474582744767,0.0
1521813206870992898,16.2109502427,-0.477553448106,0.0
1521813206910267114,16.2208947556,-0.485606308064,0.0
1521813206910480976,16.2272314862,-0.490724075909,0.0
1521813206952558994,16.2304959732,-0.493425577618,0.0
1521813206952682018,16.2412991091,-0.50232253838,0.0
1521813206989960908,16.2452145292,-0.505634777344,0.0
1521813206998155117,16.2584230359,-0.516637283759,0.0
1521813207038795948,16.2788748856,-0.533804004134,0.0
1521813207077824115,16.2845654127,-0.538641412882,0.0
1521813207119048118,16.3166709007,-0.565601092569,0.0
1521813207119633913,16.3309585565,-0.577677704901,0.0
1521813207158907890,16.3538667727,-0.597112613809,0.0
1521813207159264087,16.3613944187,-0.603511249229,0.0
1521813207198786973,16.3689927285,-0.609953175693,0.0
1521813207200115919,16.399494814,-0.635868363267,0.0
1521813207238591909,16.4071494893,-0.642374871122,0.0
1521813207278187990,16.4454757535,-0.674950479559,0.0
1521813207278304100,16.4608139605,-0.68798834285,0.0
1521813207318381071,16.4761529054,-0.701026939697,0.0
1521813207318684101,16.4838223514,-0.707545932427,0.0
1521813207357922077,16.5068282315,-0.727102028914,0.0
1521813207398174047,16.5443950195,-0.759038893796,0.0
1521813207398447036,16.5520457581,-0.765541932183,0.0
1521813207439131021,16.5750433278,-0.785090772486,0.0
1521813207452404975,16.6056414369,-0.811099931124,0.0
1521813207489849090,16.6132903965,-0.817601412041,0.0
1521813207529799938,16.6446577997,-0.844261121705,0.0
1521813207529903888,16.6523209828,-0.8507746648,0.0
1521813207570935964,16.6821982508,-0.876174494255,0.0
1521813207579566001,16.7127334207,-0.902153661835,0.0
1521813207617923974,16.7202751035,-0.908563932542,0.0
1521813207658508062,16.7384202884,-0.923980455517,0.0
1521813207658797025,16.7424937491,-0.927594212893,0.0
1521813207698710918,16.7493997914,-0.933461428561,0.0
1521813207709778070,16.7812455344,-0.9610995976,0.0
1521813207746308088,16.7867748126,-0.965965016645,0.0
1521813207785880088,16.8076386172,-0.984864832369,0.0
1521813207785964012,16.8172052234,-0.993702294163,0.0
1521813207825951099,16.8316385907,-1.00714851881,0.0
1521813207828695058,16.8547602001,-1.02895365387,0.0
1521813207865952014,16.8610402117,-1.03496124866,0.0
1521813207906922101,16.8803216686,-1.05320865925,0.0
1521813207907228946,16.8872958347,-1.05987966302,0.0
1521813207946085929,16.9086818637,-1.08027707697,0.0
1521813207959165096,16.9519803065,-1.12167482274,0.0
1521813207997839927,16.9592221067,-1.12860113498,0.0
1521813208038981914,16.980916278,-1.14937125038,0.0
1521813208039391994,16.9880869429,-1.15622950661,0.0
1521813208077903985,17.0092568774,-1.1766626946,0.0
1521813208078130960,17.0157892354,-1.18293450947,0.0
1521813208118982076,17.0219242516,-1.18894583621,0.0
1521813208158051967,17.0615463192,-1.22805985075,0.0
1521813208158195972,17.0662976386,-1.23289218801,0.0
1521813208199019908,17.0705577417,-1.2374068874,0.0
1521813208203943967,17.0748320292,-1.24183814227,0.0
1521813208242760896,17.0786310963,-1.24595107989,0.0
1521813208282872915,17.0981302321,-1.26731729873,0.0
1521813208283297061,17.1006272397,-1.270103708,0.0
1521813208322222948,17.1126955053,-1.2837906712,0.0
1521813208326761960,17.1153713096,-1.28690681812,0.0
1521813208366029977,17.1353134546,-1.30959396639,0.0
1521813208406991958,17.14376563,-1.31936680111,0.0
1521813208407366991,17.1481913289,-1.32454824776,0.0
1521813208446024894,17.1525616288,-1.32968565518,0.0
1521813208461046934,17.1692287689,-1.34945287956,0.0
1521813208498368978,17.1730542556,-1.35396790799,0.0
1521813208539303064,17.1831575929,-1.36627608274,0.0
1521813208539740085,17.1862347142,-1.36999893362,0.0
1521813208578093051,17.201337005,-1.38933673879,0.0
1521813208578305959,17.2031797567,-1.39172944123,0.0
1521813208618176937,17.2072091695,-1.39744218721,0.0
1521813208634028911,17.2090759054,-1.40016805838,0.0
1521813208669857978,17.2097638753,-1.40111899463,0.0
1521813208710788965,17.210837914,-1.40294531367,0.0
1521813208710913896,17.2109770088,-1.40314657699,0.0
1521813208750160932,17.2121102002,-1.40452777687,0.0
1521813208763952970,17.2153083945,-1.40889713429,0.0
1521813208803100109,17.2164522385,-1.41063140022,0.0
1521813208841969966,17.2211802286,-1.41733513307,0.0
1521813208842097997,17.2250197739,-1.42292564292,0.0
1521813208882230043,17.2273621484,-1.42648098956,0.0
1521813208894912004,17.2487134195,-1.45794790723,0.0
1521813208933727025,17.252173788,-1.46320148179,0.0
1521813208973923921,17.2640665731,-1.48078107496,0.0
1521813208974119901,17.2682031943,-1.48706131678,0.0
1521813209014101982,17.2727584198,-1.49374362545,0.0
1521813209015599012,17.2966051982,-1.52935270838,0.0
1521813209055304050,17.3019308179,-1.53743812793,0.0
1521813209093952894,17.3241951162,-1.57112942466,0.0
1521813209094090938,17.3296845103,-1.57946350878,0.0
1521813209135047912,17.3352035158,-1.58782678528,0.0
1521813209142301082,17.3683626557,-1.63815926873,0.0
1521813209183501958,17.3738973547,-1.64656213582,0.0
1521813209222196102,17.3905033187,-1.67177521935,0.0
1521813209222327947,17.4126464944,-1.70539615877,0.0
1521813209262032985,17.4181823425,-1.713800768,0.0
1521813209262161970,17.423716307,-1.72220405222,0.0
1521813209302699089,17.4458558496,-1.7558197662,0.0
1521813209305706977,17.4513905696,-1.76422266108,0.0
1521813209346731901,17.4618879781,-1.78017008653,0.0
1521813209387388944,17.4729321797,-1.79693913614,0.0
1521813209429239034,17.5059168591,-1.84713543455,0.0
1521813209429325103,17.5112678413,-1.85525968845,0.0
1521813209467123031,17.526241061,-1.87838979388,0.0
1521813209467547893,17.5310385789,-1.88572749376,0.0
1521813209506575107,17.5493007493,-1.91431807087,0.0
1521813209510437965,17.557183729,-1.9270427702,0.0
1521813209550160884,17.5643246382,-1.93885170258,0.0
1521813209590678930,17.5676563764,-1.94435331566,0.0
1521813209590872049,17.5765790751,-1.95978210446,0.0
1521813209629873991,17.579186076,-1.96429839834,0.0
1521813209638183116,17.5875789457,-1.97951079304,0.0
1521813209680252075,17.5965869049,-1.99572903241,0.0
1521813209718859910,17.5990305122,-2.00033189479,0.0
1521813209719305038,17.6101020595,-2.02127568948,0.0
1521813209760792970,17.6178335301,-2.03663782405,0.0
1521813209761903047,17.6197185594,-2.04031483335,0.0
1521813209797977924,17.6241242441,-2.0496931503,0.0
1521813209838864088,17.6282198376,-2.05884104545,0.0
1521813209839005947,17.6289441126,-2.06039549827,0.0
1521813209877933979,17.6301478139,-2.06353542995,0.0
1521813209887007951,17.6304947789,-2.06431953555,0.0
1521813209922772884,17.6329472857,-2.06921455844,0.0
1521813209961870908,17.6347273813,-2.07299783468,0.0
1521813209961994886,17.6357154864,-2.07532470373,0.0
1521813210002058982,17.6370568121,-2.07808932308,0.0
1521813210023098945,17.6464904877,-2.09911394955,0.0
1521813210061877965,17.6484088454,-2.10363678819,0.0
1521813210101942062,17.6574099541,-2.12404946191,0.0
1521813210102046966,17.6624463104,-2.13551685746,0.0
1521813210142781019,17.6679598488,-2.14811016045,0.0
1521813210147952079,17.6804192514,-2.17667771826,0.0
1521813210187074899,17.6837639461,-2.18456263576,0.0
1521813210229643106,17.6948347714,-2.20997289351,0.0
1521813210229778051,17.7101778225,-2.24592647095,0.0
1521813210267195940,17.7140665514,-2.25509391569,0.0
1521813210270020008,17.725819676,-2.28275182682,0.0
1521813210309850931,17.7297409957,-2.2919960968,0.0
1521813210352164030,17.7450494733,-2.32809149625,0.0
1521813210352438926,17.7528910321,-2.34657938079,0.0
1521813210390156030,17.7568123893,-2.35582373842,0.0
1521813210390299081,17.7607324049,-2.36506717549,0.0
1521813210436592102,17.7764164924,-2.40204656524,0.0
1521813210440452098,17.780337832,-2.4112908719,0.0
1521813210481580018,17.7999397786,-2.45750929148,0.0
1521813210519020080,17.8199591681,-2.5046970907,0.0
1521813210558818101,17.8278152881,-2.52322020628,0.0
1521813210559253931,17.8317436418,-2.53248102541,0.0
1521813210598041057,17.831734272,-2.53247307845,0.0
1521813210598165988,17.8513571153,-2.57872686726,0.0
1521813210637980937,17.8552846213,-2.58798566806,0.0
1521813210646119117,17.8705902633,-2.62408645124,0.0
1521813210687093973,17.8745095903,-2.63332597488,0.0
1521813210726880073,17.8941007844,-2.67951868042,0.0
1521813210727431058,17.8980194743,-2.68875669358,0.0
1521813210766591072,17.9140909308,-2.72663933152,0.0
1521813210771699905,17.9180161783,-2.73589279601,0.0
1521813210809936046,17.9297889201,-2.76365119905,0.0
1521813210852706909,17.9454858803,-2.80066080471,0.0
1521813210852945089,17.9494102988,-2.8099123048,0.0
1521813210889983892,17.9611801066,-2.83766389632,0.0
1521813210897001028,17.9768733016,-2.87466448836,0.0
1521813210933821916,17.9807967867,-2.88391378372,0.0
1521813210973798036,17.992563874,-2.91165883069,0.0
1521813210973903894,17.9964869099,-2.920907065,0.0
1521813211014518022,18.0082526902,-2.94864896627,0.0
1521813211026859045,18.023940601,-2.98563690572,0.0
1521813211066032886,18.0278627738,-2.99488310172,0.0
1521813211107008934,18.0317831553,-3.00412754692,0.0
1521813211107369899,18.0431500964,-3.03093646989,0.0
1521813211145934104,18.0588116626,-3.06786207881,0.0
1521813211146037101,18.0627272795,-3.07709281729,0.0
1521813211186100006,18.0787847289,-3.11494456914,0.0
1521813211203428030,18.0944653153,-3.15191476536,0.0
1521813211242491960,18.0983857013,-3.16115673256,0.0
1521813211283124923,18.1101437563,-3.18888000994,0.0
1521813211283499956,18.1140637727,-3.19812110372,0.0
1521813211322860956,18.1258207523,-3.22584178944,0.0
1521813211327246904,18.1414971032,-3.26280199265,0.0
1521813211370899915,18.1454164083,-3.27204140565,0.0
1521813211410023927,18.1571713194,-3.29975710442,0.0
1521813211410157918,18.1610902822,-3.30899570871,0.0
1521813211450599908,18.172844198,-3.33670900735,0.0
1521813211453411102,18.1920296909,-3.38194927684,0.0
1521813211490144014,18.1959433672,-3.39117541846,0.0
1521813211529944896,18.2076818344,-3.41885199968,0.0
1521813211530055999,18.2115953074,-3.42807765738,0.0
1521813211569983005,18.2233397686,-3.45576807286,0.0
1521813211576131105,18.2389912351,-3.4926692753,0.0
1521813211614779949,18.2429043237,-3.50189401172,0.0
1521813211655127048,18.2546410931,-3.52956641388,0.0
1521813211693984031,18.2702909109,-3.56646340189,0.0
1521813211694134950,18.2742036266,-3.57568725029,0.0
1521813211735296964,18.2902478618,-3.613509578,0.0
1521813211735721111,18.2941641574,-3.62274185933,0.0
1521813211775089025,18.3059105909,-3.65043690455,0.0
1521813211778811931,18.3094305051,-3.65874088155,0.0
1521813211814403057,18.3215625112,-3.68733889539,0.0
1521813211854587078,18.3254782822,-3.69656992476,0.0
1521813211893959045,18.3450534805,-3.74272235811,0.0
1521813211894089937,18.3638625978,-3.7873872111,0.0
1521813211935288906,18.3675509084,-3.7960869492,0.0
1521813211935965061,18.3712317019,-3.80479102362,0.0
1521813211973992109,18.370938728,-3.80437113449,0.0
1521813211982125043,18.3913461121,-3.85325105683,0.0
1521813212018842935,18.3947900552,-3.86175637792,0.0
1521813212057964086,18.4056086485,-3.88843018456,0.0
1521813212058064937,18.4232030023,-3.93283258562,0.0
1521813212099086046,18.4264651609,-3.94104790519,0.0
1521813212104124069,18.4294289255,-3.94886149024,0.0
1521813212142745018,18.4416609039,-3.98030817593,0.0
1521813212182698011,18.4447215193,-3.98849509704,0.0
1521813212221952915,18.4546151285,-4.01449922005,0.0
1521813212222038984,18.4579582181,-4.02350009728,0.0
1521813212262866973,18.4714284785,-4.05952703518,0.0
1521813212265574932,18.4783785467,-4.07822031319,0.0
1521813212304217100,18.4818578255,-4.08758568608,0.0
1521813212342398881,18.4891756925,-4.10727370268,0.0
1521813212342547893,18.4926614524,-4.11665806959,0.0
1521813212383018016,18.4989365449,-4.13393776656,0.0
1521813212399333000,18.5225234419,-4.19980455487,0.0
1521813212439532041,18.5249960754,-4.20696576327,0.0
1521813212478148937,18.5405950036,-4.25277469281,0.0
1521813212478296995,18.5461795154,-4.26943702524,0.0
1521813212519216060,18.5520387579,-4.28709197858,0.0
1521813212519752025,18.5550127217,-4.29621815283,0.0
1521813212559773921,18.5642272891,-4.32424574723,0.0
1521813212562997102,18.5673004857,-4.33367478265,0.0
1521813212602253913,18.5704020501,-4.34315132947,0.0
1521813212642030954,18.5765916183,-4.3621228706,0.0
1521813212682049036,18.5979981063,-4.42779216933,0.0
1521813212682190895,18.6011012966,-4.43731243478,0.0
1521813212722043991,18.6166157739,-4.48491558894,0.0
1521813212722202062,18.6262388762,-4.51443633232,0.0
1521813212761799097,18.6293444689,-4.5239637798,0.0
1521813212762629032,18.6324487853,-4.53348973549,0.0
1521813212802076101,18.6510812752,-4.59065847547,0.0
1521813212842025995,18.6541866522,-4.60018512318,0.0
1521813212882067918,18.6572906338,-4.60971006453,0.0
1521813212882199048,18.6635002768,-4.62876258118,0.0
1521813212922141075,18.6666054173,-4.63828868317,0.0
1521813212926156997,18.6821274184,-4.68591570643,0.0
1521813212966799020,18.6883363238,-4.70496636196,0.0
1521813213005964994,18.6945450895,-4.72401658387,0.0
1521813213006083011,18.6976498276,-4.73354155413,0.0
1521813213046541929,18.7069617149,-4.76211421284,0.0
1521813213046663045,18.7100663173,-4.77163876625,0.0
1521813213087028026,18.7255527127,-4.81921839544,0.0
1521813213101886987,18.7449982891,-4.88067406141,0.0
1521813213138900041,18.749541425,-4.89570794678,0.0
1521813213178111076,18.7516985983,-4.9027928816,0.0
1521813213178250074,18.7536945297,-4.90968032112,0.0
1521813213219182968,18.7557104171,-4.91657272841,0.0
1521813213223830938,18.7619366674,-4.93788447113,0.0
1521813213262042045,18.7728922857,-4.97706967774,0.0
1521813213302472114,18.7750701626,-4.98519389252,0.0
1521813213346884012,18.7812547933,-5.00897510554,0.0
1521813213347104072,18.7912364653,-5.04672481333,0.0
1521813213347206115,18.793357862,-5.05512576282,0.0
1521813213387203931,18.80008951,-5.08083673066,0.0
1521813213389847993,18.8024363234,-5.09013972503,0.0
1521813213425857067,18.809283792,-5.11771753461,0.0
1521813213466075897,18.8135964141,-5.13533144122,0.0
1521813213507535934,18.8176129443,-5.15203537567,0.0
1521813213507814884,18.8195595627,-5.15999634151,0.0
1521813213545865058,18.8250933577,-5.18337803634,0.0
1521813213560044050,18.8347029888,-5.22515460368,0.0
1521813213602758884,18.8366229426,-5.23399451862,0.0
1521813213603172063,18.8429086818,-5.26206340199,0.0
1521813213642122030,18.8449795759,-5.27161484793,0.0
1521813213645698070,18.8513300177,-5.3006688356,0.0
1521813213681802034,18.8598038155,-5.33968756459,0.0
1521813213722040891,18.8619248481,-5.34946589758,0.0
1521813213722168922,18.8702027791,-5.38762869833,0.0
1521813213762058019,18.8723252523,-5.39741286841,0.0
1521813213777913093,18.882706748,-5.44584162054,0.0
1521813213814809083,18.884733012,-5.4551874031,0.0
1521813213853853940,18.8867521294,-5.46453578374,0.0
1521813213853951930,18.8906642023,-5.48307794909,0.0
1521813213899162054,18.8925900242,-5.4921975253,0.0
1521813213910635948,18.9026642863,-5.53993642687,0.0
1521813213950275897,18.9066954293,-5.55939582898,0.0
1521813213950470924,18.9147768178,-5.5984702166,0.0
1521813213989871025,18.9251116094,-5.64846149644,0.0
1521813213995408058,18.9271393292,-5.65827120999,0.0
1521813214034049034,18.9330614737,-5.68740645209,0.0
1521813214073924064,18.94033779,-5.72399086221,0.0
1521813214074068069,18.9420643528,-5.73274300465,0.0
1521813214114689111,18.9474166319,-5.75957887441,0.0
1521813214121959924,18.949187539,-5.76881701666,0.0
1521813214162008047,18.9564628861,-5.80618033455,0.0
1521813214203047990,18.9600990791,-5.82553569161,0.0
1521813214203459978,18.9619187086,-5.83505875906,0.0
1521813214241853952,18.9687128049,-5.87209543974,0.0
1521813214246670007,18.9703177727,-5.88072153112,0.0
1521813214286705970,18.9766146548,-5.91444871724,0.0
1521813214326466083,18.9781467336,-5.92366251517,0.0
1521813214366194009,18.9825086864,-5.95093320103,0.0
1521813214366569042,18.9876300464,-5.98455304045,0.0
1521813214405997037,18.9888175727,-5.99232051568,0.0
1521813214406632900,18.9934643725,-6.02406140055,0.0
1521813214446007966,18.9945220529,-6.0320170144,0.0
1521813214487098932,18.9957519497,-6.04042650706,0.0
1521813214487268924,19.0031282554,-6.09454430926,0.0
1521813214525919914,19.0043758632,-6.10421395104,0.0
1521813214528599977,19.0056804109,-6.11402300778,0.0
1521813214567208051,19.0082344228,-6.13366810829,0.0
1521813214606163978,19.0095081715,-6.14353753292,0.0
1521813214651238918,19.0170690492,-6.2020144402,0.0
1521813214651746034,19.0221947737,-6.24173191987,0.0
1521813214690018892,19.0261683982,-6.27251039393,0.0
1521813214690179109,19.0274507546,-6.28244343185,0.0
1521813214730366945,19.032446458,-6.32116545324,0.0
1521813214730551958,19.0337282303,-6.3310935442,0.0
1521813214770052909,19.0375716501,-6.36087565962,0.0
1521813214775579929,19.0388534246,-6.37080349021,0.0
1521813214815412044,19.0401341673,-6.38072968242,0.0
1521813214855489015,19.0478222341,-6.44029429464,0.0
1521813214856012105,19.0491040017,-6.4502215863,0.0
1521813214893868923,19.0503847511,-6.46014724741,0.0
1521813214908263921,19.052947434,-6.48000129296,0.0
1521813214946187019,19.0580735849,-6.51971439349,0.0
1521813214985954999,19.0593553675,-6.52964134649,0.0
1521813215026623964,19.0671751495,-6.59021501282,0.0
1521813215027142047,19.0684573816,-6.6001456561,0.0
1521813215067805051,19.0734527854,-6.63885921465,0.0
1521813215068456888,19.0774257527,-6.66963084622,0.0
1521813215106226921,19.0787078261,-6.67956058163,0.0
1521813215111401081,19.0837031012,-6.71827227867,0.0
1521813215150048017,19.0849846423,-6.72819788635,0.0
1521813215191040039,19.0862652193,-6.73812191422,0.0
1521813215191205024,19.0928016007,-6.78875315428,0.0
1521813215229921102,19.0940836013,-6.79868229619,0.0
1521813215234402894,19.0979277772,-6.82846737114,0.0
1521813215274291038,19.0992097444,-6.83839624636,0.0
1521813215314583063,19.1030527736,-6.8681724356,0.0
1521813215314987897,19.10933126,-6.91682082533,0.0
1521813215355057001,19.1106127046,-6.92674563069,0.0
1521813215362483024,19.1144568539,-6.95652984946,0.0
1521813215402688026,19.1195809918,-6.99622761115,0.0
1521813215441950082,19.1208623912,-7.00615204988,0.0
1521813215442060947,19.1247049009,-7.03592333912,0.0
1521813215481894016,19.1298289185,-7.07561977216,0.0
1521813215481985092,19.1311102812,-7.08554390702,0.0
1521813215525892972,19.132390741,-7.09546648952,0.0
1521813215539232015,19.1349527093,-7.11531430736,0.0
1521813215578213930,19.1362340547,-7.12523829768,0.0
1521813215617888927,19.1440503607,-7.18578821791,0.0
1521813215617957115,19.1453320646,-7.19571496365,0.0
1521813215658453941,19.1503269575,-7.23441930736,0.0
1521813215663410902,19.1528888357,-7.25426618926,0.0
1521813215702598094,19.1541701259,-7.26418970887,0.0
1521813215741899013,19.1594233905,-7.30488357038,0.0
1521813215741986989,19.160705021,-7.31480970937,0.0
1521813215783065080,19.1656996268,-7.35351089865,0.0
1521813215791306018,19.1715939172,-7.39916140832,0.0
1521813215830080986,19.1728759282,-7.40909048058,0.0
1521813215873748064,19.1759475312,-7.43290063645,0.0
1521813215873831987,19.1772287457,-7.44282352637,0.0
1521813215915033102,19.1824815953,-7.48351405749,0.0
1521813215915313959,19.1837631223,-7.49343935141,0.0
1521813215953839063,19.1876061165,-7.52321302465,0.0
1521813215968287944,19.1927307235,-7.56291255862,0.0
1521813216007430076,19.1940122079,-7.57283750874,0.0
1521813216046596050,19.1952928435,-7.5827608578,0.0
1521813216087069988,19.1990075488,-7.61154245497,0.0
1521813216087512969,19.2081010174,-7.68199444268,0.0
1521813216126329898,19.2093816658,-7.69191331843,0.0
1521813216126550912,19.2138345809,-7.7289256196,0.0
1521813216166057109,19.214931543,-7.73766860511,0.0
1521813216169711112,19.2157888118,-7.74579664998,0.0
1521813216207087993,19.2190938164,-7.77661333136,0.0
1521813216246792078,19.2198147045,-7.78364855864,0.0
1521813216286578893,19.221049102,-7.79795548553,0.0
1521813216287045955,19.2216224602,-7.80436863104,0.0
1521813216326119899,19.2232734417,-7.83505672488,0.0
1521813216326272964,19.2234984897,-7.83908487731,0.0
1521813216365839958,19.2236138292,-7.8488926646,0.0
1521813216372011899,19.2235718874,-7.85820110641,0.0
1521813216410965919,19.2236013329,-7.85981453157,0.0
1521813216450606107,19.2234260843,-7.86074107879,0.0
1521813216450706958,19.2234353841,-7.86172934324,0.0
1521813216489869117,19.2231448298,-7.86343304636,0.0
