%time;field.header.seq;field.header.stamp;field.header.frame_id;field.pose.pose.position.x;field.pose.pose.position.y;field.pose.pose.position.z;field.pose.pose.orientation.x;field.pose.pose.orientation.y;field.pose.pose.orientation.z;field.pose.pose.orientation.w;field.pose.covariance0;field.pose.covariance1;field.pose.covariance2;field.pose.covariance3;field.pose.covariance4;field.pose.covariance5;field.pose.covariance6;field.pose.covariance7;field.pose.covariance8;field.pose.covariance9;field.pose.covariance10;field.pose.covariance11;field.pose.covariance12;field.pose.covariance13;field.pose.covariance14;field.pose.covariance15;field.pose.covariance16;field.pose.covariance17;field.pose.covariance18;field.pose.covariance19;field.pose.covariance20;field.pose.covariance21;field.pose.covariance22;field.pose.covariance23;field.pose.covariance24;field.pose.covariance25;field.pose.covariance26;field.pose.covariance27;field.pose.covariance28;field.pose.covariance29;field.pose.covariance30;field.pose.covariance31;field.pose.covariance32;field.pose.covariance33;field.pose.covariance34;field.pose.covariance35;field.twist.twist.linear.x;field.twist.twist.linear.y;field.twist.twist.linear.z;field.twist.twist.angular.x;field.twist.twist.angular.y;field.twist.twist.angular.z;field.twist.covariance0;field.twist.covariance1;field.twist.covariance2;field.twist.covariance3;field.twist.covariance4;field.twist.covariance5;field.twist.covariance6;field.twist.covariance7;field.twist.covariance8;field.twist.covariance9;field.twist.covariance10;field.twist.covariance11;field.twist.covariance12;field.twist.covariance13;field.twist.covariance14;field.twist.covariance15;field.twist.covariance16;field.twist.covariance17;field.twist.covariance18;field.twist.covariance19;field.twist.covariance20;field.twist.covariance21;field.twist.covariance22;field.twist.covariance23;field.twist.covariance24;field.twist.covariance25;field.twist.covariance26;field.twist.covariance27;field.twist.covariance28;field.twist.covariance29;field.twist.covariance30;field.twist.covariance31;field.twist.covariance32;field.twist.covariance33;field.twist.covariance34;field.twist.covariance35
2.58429E+11;12902;2.58429E+11;odom;11.67167714;-0.001338158;0;0;0;-5.70E-05;0.999999998;12.90798485;0.227356447;0;0;0;0.019790115;0.227356447;1994.906536;0;0;0;172.5369033;0;0;9.98E-07;2.40E-23;-1.53E-14;0;0;0;2.40E-23;9.96E-07;1.98E-28;0;0;0;-1.53E-14;1.98E-28;9.96E-07;0;0.019790115;172.5369033;0;0;0;15.48309301;0.499999784;0;0;0;0;-1.73E-07;0.000506229;0;0;0;0;0;0;0.000506229;0;0;0;0;0;0;9.97E-07;1.05E-27;-9.22E-24;0;0;0;1.05E-27;9.89E-07;3.39E-32;0;0;0;-9.22E-24;3.39E-32;9.89E-07;0;0;0;0;0;0;0.000178927
2.58449E+11;12903;2.58449E+11;odom;11.68167713;-0.001339297;0;0;0;-5.70E-05;0.999999998;12.90898532;0.227751091;0;0;0;0.019807755;0.227751091;1998.359821;0;0;0;172.6917371;0;0;9.98E-07;-2.94E-23;-1.53E-14;0;0;0;-2.94E-23;9.96E-07;-2.43E-28;0;0;0;-1.53E-14;-2.43E-28;9.96E-07;0;0.019807755;172.6917371;0;0;0;15.48429302;0.499999772;0;0;0;0;2.12E-07;0.000506229;0;0;0;0;0;0;0.000506229;0;0;0;0;0;0;9.97E-07;1.05E-27;-9.22E-24;0;0;0;1.05E-27;9.89E-07;3.39E-32;0;0;0;-9.22E-24;3.39E-32;9.89E-07;0;0;0;0;0;0;0.000178927
2.58469E+11;12904;2.58469E+11;odom;11.69167713;-0.001340436;0;0;0;-5.70E-05;0.999999998;12.90998579;0.228146083;0;0;0;0.019825396;0.228146083;2001.816203;0;0;0;172.8465829;0;0;9.98E-07;-4.16E-24;-1.53E-14;0;0;0;-4.16E-24;9.96E-07;-3.44E-29;0;0;0;-1.53E-14;-3.44E-29;9.96E-07;0;0.019825396;172.8465829;0;0;0;15.48549303;0.499999761;0;0;0;0;3.03E-08;0.000506229;0;0;0;0;0;0;0.000506229;0;0;0;0;0;0;9.97E-07;1.05E-27;-9.22E-24;0;0;0;1.05E-27;9.89E-07;3.39E-32;0;0;0;-9.22E-24;3.39E-32;9.89E-07;0;0;0;0;0;0;0.000178927
2.58489E+11;12905;2.58489E+11;odom;11.70167712;-0.001341576;0;0;0;-5.70E-05;0.999999998;12.91098626;0.228541427;0;0;0;0.019843038;0.228541427;2005.275682;0;0;0;173.0014407;0;0;9.98E-07;5.74E-24;-1.53E-14;0;0;0;5.74E-24;9.96E-07;4.75E-29;0;0;0;-1.53E-14;4.75E-29;9.96E-07;0;0.019843038;173.0014407;0;0;0;15.48669305;0.499999749;0;0;0;0;-4.13E-08;0.000506229;0;0;0;0;0;0;0.000506229;0;0;0;0;0;0;9.97E-07;1.05E-27;-9.22E-24;0;0;0;1.05E-27;9.89E-07;3.39E-32;0;0;0;-9.22E-24;3.39E-32;9.89E-07;0;0;0;0;0;0;0.000178927
2.58509E+11;12906;2.58509E+11;odom;11.71167712;-0.001342715;0;0;0;-5.70E-05;0.999999998;12.91198672;0.228937124;0;0;0;0.019860681;0.228937124;2008.738259;0;0;0;173.1563106;0;0;9.98E-07;3.80E-24;-1.53E-14;0;0;0;3.80E-24;9.96E-07;3.14E-29;0;0;0;-1.53E-14;3.14E-29;9.96E-07;0;0.019860681;173.1563106;0;0;0;15.48789306;0.499999738;0;0;0;0;-2.72E-08;0.000506229;0;0;0;0;0;0;0.000506229;0;0;0;0;0;0;9.97E-07;1.05E-27;-9.22E-24;0;0;0;1.05E-27;9.89E-07;3.39E-32;0;0;0;-9.22E-24;3.39E-32;9.89E-07;0;0;0;0;0;0;0.000178927
2.58529E+11;12907;2.58529E+11;odom;11.72167711;-0.001343854;0;0;0;-5.70E-05;0.999999998;12.91298719;0.229333174;0;0;0;0.019878326;0.229333174;2012.203932;0;0;0;173.3111924;0;0;9.98E-07;-2.68E-23;-1.53E-14;0;0;0;-2.68E-23;9.96E-07;-2.22E-28;0;0;0;-1.53E-14;-2.22E-28;9.96E-07;0;0.019878326;173.3111924;0;0;0;15.48909307;0.499999727;0;0;0;0;1.94E-07;0.000506229;0;0;0;0;0;0;0.000506229;0;0;0;0;0;0;9.97E-07;1.05E-27;-9.22E-24;0;0;0;1.05E-27;9.89E-07;3.39E-32;0;0;0;-9.22E-24;3.39E-32;9.89E-07;0;0;0;0;0;0;0.000178927
2.58549E+11;12908;2.58549E+11;odom;11.73167711;-0.001344993;0;0;0;-5.70E-05;0.999999998;12.91398766;0.229729573;0;0;0;0.019895972;0.229729573;2015.672703;0;0;0;173.4660862;0;0;9.98E-07;-5.59E-24;-1.53E-14;0;0;0;-5.59E-24;9.96E-07;-4.62E-29;0;0;0;-1.53E-14;-4.62E-29;9.96E-07;0;0.019895972;173.4660862;0;0;0;15.49029308;0.499999716;0;0;0;0;4.06E-08;0.000506229;0;0;0;0;0;0;0.000506229;0;0;0;0;0;0;9.97E-07;1.05E-27;-9.22E-24;0;0;0;1.05E-27;9.89E-07;3.39E-32;0;0;0;-9.22E-24;3.39E-32;9.89E-07;0;0;0;0;0;0;0.000178927
2.58569E+11;12909;2.58569E+11;odom;11.7416771;-0.001346133;0;0;0;-5.70E-05;0.999999998;12.91498813;0.230126322;0;0;0;0.019913619;0.230126322;2019.144573;0;0;0;173.620992;0;0;9.98E-07;1.26E-23;-1.53E-14;0;0;0;1.26E-23;9.96E-07;1.04E-28;0;0;0;-1.53E-14;1.04E-28;9.96E-07;0;0.019913619;173.620992;0;0;0;15.49149309;0.499999705;0;0;0;0;-9.06E-08;0.000506229;0;0;0;0;0;0;0.000506229;0;0;0;0;0;0;9.97E-07;1.05E-27;-9.22E-24;0;0;0;1.05E-27;9.89E-07;3.39E-32;0;0;0;-9.22E-24;3.39E-32;9.89E-07;0;0;0;0;0;0;0.000178927
2.58589E+11;12910;2.58589E+11;odom;11.75167709;-0.001347272;0;0;0;-5.70E-05;0.999999998;12.9159886;0.230523426;0;0;0;0.019931267;0.230523426;2022.61954;0;0;0;173.7759098;0;0;9.98E-07;-1.01E-23;-1.53E-14;0;0;0;-1.01E-23;9.96E-07;-8.40E-29;0;0;0;-1.53E-14;-8.40E-29;9.96E-07;0;0.019931267;173.7759098;0;0;0;15.49269311;0.499999694;0;0;0;0;7.36E-08;0.000506229;0;0;0;0;0;0;0.000506229;0;0;0;0;0;0;9.97E-07;1.05E-27;-9.22E-24;0;0;0;1.05E-27;9.89E-07;3.39E-32;0;0;0;-9.22E-24;3.39E-32;9.89E-07;0;0;0;0;0;0;0.000178927
2.58609E+11;12911;2.58609E+11;odom;11.76167709;-0.001348411;0;0;0;-5.70E-05;0.999999998;12.91698906;0.230920881;0;0;0;0.019948917;0.230920881;2026.097606;0;0;0;173.9308396;0;0;9.98E-07;-2.36E-23;-1.53E-14;0;0;0;-2.36E-23;9.96E-07;-1.95E-28;0;0;0;-1.53E-14;-1.95E-28;9.96E-07;0;0.019948917;173.9308396;0;0;0;15.49389312;0.499999683;0;0;0;0;1.71E-07;0.000506229;0;0;0;0;0;0;0.000506229;0;0;0;0;0;0;9.97E-07;1.05E-27;-9.22E-24;0;0;0;1.05E-27;9.89E-07;3.39E-32;0;0;0;-9.22E-24;3.39E-32;9.89E-07;0;0;0;0;0;0;0.000178927
2.58629E+11;12912;2.58629E+11;odom;11.77167708;-0.00134955;0;0;0;-5.70E-05;0.999999998;12.91798953;0.231318684;0;0;0;0.019966567;0.231318684;2029.57877;0;0;0;174.0857814;0;0;9.98E-07;-1.03E-23;-1.53E-14;0;0;0;-1.03E-23;9.96E-07;-8.56E-29;0;0;0;-1.53E-14;-8.56E-29;9.96E-07;0;0.019966567;174.0857814;0;0;0;15.49509313;0.499999673;0;0;0;0;7.50E-08;0.000506229;0;0;0;0;0;0;0.000506229;0;0;0;0;0;0;9.97E-07;1.05E-27;-9.22E-24;0;0;0;1.05E-27;9.89E-07;3.39E-32;0;0;0;-9.22E-24;3.39E-32;9.89E-07;0;0;0;0;0;0;0.000178927
2.58649E+11;12913;2.58649E+11;odom;11.78167707;-0.001350689;0;0;0;-5.70E-05;0.999999998;12.91899;0.231716837;0;0;0;0.019984219;0.231716837;2033.063033;0;0;0;174.2407352;0;0;9.98E-07;-2.66E-23;-1.53E-14;0;0;0;-2.66E-23;9.96E-07;-2.20E-28;0;0;0;-1.53E-14;-2.20E-28;9.96E-07;0;0.019984219;174.2407352;0;0;0;15.49629314;0.499999664;0;0;0;0;1.92E-07;0.000506229;0;0;0;0;0;0;0.000506229;0;0;0;0;0;0;9.97E-07;1.05E-27;-9.22E-24;0;0;0;1.05E-27;9.89E-07;3.39E-32;0;0;0;-9.22E-24;3.39E-32;9.89E-07;0;0;0;0;0;0;0.000178927
2.58669E+11;12914;2.58669E+11;odom;11.79167707;-0.001351828;0;0;0;-5.70E-05;0.999999998;12.91999047;0.232115337;0;0;0;0.020001872;0.232115337;2036.550396;0;0;0;174.395701;0;0;9.98E-07;-9.58E-24;-1.53E-14;0;0;0;-9.58E-24;9.96E-07;-7.93E-29;0;0;0;-1.53E-14;-7.93E-29;9.96E-07;0;0.020001872;174.395701;0;0;0;15.49749315;0.499999654;0;0;0;0;6.94E-08;0.000506229;0;0;0;0;0;0;0.000506229;0;0;0;0;0;0;9.97E-07;1.05E-27;-9.22E-24;0;0;0;1.05E-27;9.89E-07;3.39E-32;0;0;0;-9.22E-24;3.39E-32;9.89E-07;0;0;0;0;0;0;0.000178927
2.58689E+11;12915;2.58689E+11;odom;11.80167706;-0.001352968;0;0;0;-5.70E-05;0.999999998;12.92099094;0.232514187;0;0;0;0.020019525;0.232514187;2040.040858;0;0;0;174.5506788;0;0;9.98E-07;-7.39E-24;-1.53E-14;0;0;0;-7.39E-24;9.96E-07;-6.11E-29;0;0;0;-1.53E-14;-6.11E-29;9.96E-07;0;0.020019525;174.5506788;0;0;0;15.49869316;0.499999645;0;0;0;0;5.36E-08;0.000506229;0;0;0;0;0;0;0.000506229;0;0;0;0;0;0;9.97E-07;1.05E-27;-9.22E-24;0;0;0;1.05E-27;9.89E-07;3.39E-32;0;0;0;-9.22E-24;3.39E-32;9.89E-07;0;0;0;0;0;0;0.000178927
2.58709E+11;12916;2.58709E+11;odom;11.81167705;-0.001354107;0;0;0;-5.70E-05;0.999999998;12.92199141;0.232913388;0;0;0;0.02003718;0.232913388;2043.534419;0;0;0;174.7056686;0;0;9.98E-07;-5.97E-24;-1.53E-14;0;0;0;-5.97E-24;9.96E-07;-4.94E-29;0;0;0;-1.53E-14;-4.94E-29;9.96E-07;0;0.02003718;174.7056686;0;0;0;15.49989318;0.499999637;0;0;0;0;4.33E-08;0.000506229;0;0;0;0;0;0;0.000506229;0;0;0;0;0;0;9.97E-07;1.05E-27;-9.22E-24;0;0;0;1.05E-27;9.89E-07;3.39E-32;0;0;0;-9.22E-24;3.39E-32;9.89E-07;0;0;0;0;0;0;0.000178927
2.58729E+11;12917;2.58729E+11;odom;11.82167704;-0.001355246;0;0;0;-5.70E-05;0.999999998;12.92299187;0.23331294;0;0;0;0.020054836;0.23331294;2047.03108;0;0;0;174.8606704;0;0;9.98E-07;-2.98E-23;-1.53E-14;0;0;0;-2.98E-23;9.96E-07;-2.46E-28;0;0;0;-1.53E-14;-2.46E-28;9.96E-07;0;0.020054836;174.8606704;0;0;0;15.50109319;0.499999629;0;0;0;0;2.15E-07;0.000506229;0;0;0;0;0;0;0.000506229;0;0;0;0;0;0;9.97E-07;1.05E-27;-9.22E-24;0;0;0;1.05E-27;9.89E-07;3.39E-32;0;0;0;-9.22E-24;3.39E-32;9.89E-07;0;0;0;0;0;0;0.000178927
2.58749E+11;12918;2.58749E+11;odom;11.83167704;-0.001356385;0;0;0;-5.69E-05;0.999999998;12.92399234;0.233712838;0;0;0;0.020072493;0.233712838;2050.530842;0;0;0;175.0156842;0;0;9.98E-07;-4.11E-23;-1.53E-14;0;0;0;-4.11E-23;9.96E-07;-3.40E-28;0;0;0;-1.53E-14;-3.40E-28;9.96E-07;0;0.020072493;175.0156842;0;0;0;15.5022932;0.499999621;0;0;0;0;2.97E-07;0.000506229;0;0;0;0;0;0;0.000506229;0;0;0;0;0;0;9.97E-07;1.05E-27;-9.22E-24;0;0;0;1.05E-27;9.89E-07;3.39E-32;0;0;0;-9.22E-24;3.39E-32;9.89E-07;0;0;0;0;0;0;0.000178927
2.58769E+11;12919;2.58769E+11;odom;11.84167703;-0.001357524;0;0;0;-5.69E-05;0.999999998;12.92499281;0.234113081;0;0;0;0.02009015;0.234113081;2054.033703;0;0;0;175.17071;0;0;9.98E-07;5.68E-24;-1.53E-14;0;0;0;5.68E-24;9.96E-07;4.70E-29;0;0;0;-1.53E-14;4.70E-29;9.96E-07;0;0.02009015;175.17071;0;0;0;15.50349321;0.499999614;0;0;0;0;-4.10E-08;0.000506229;0;0;0;0;0;0;0.000506229;0;0;0;0;0;0;9.97E-07;1.05E-27;-9.22E-24;0;0;0;1.05E-27;9.89E-07;3.39E-32;0;0;0;-9.22E-24;3.39E-32;9.89E-07;0;0;0;0;0;0;0.000178927
2.58789E+11;12920;2.58789E+11;odom;11.85167702;-0.001358663;0;0;0;-5.70E-05;0.999999998;12.92599328;0.234513676;0;0;0;0.020107809;0.234513676;2057.539665;0;0;0;175.3257477;0;0;9.98E-07;2.41E-23;-1.53E-14;0;0;0;2.41E-23;9.96E-07;2.00E-28;0;0;0;-1.53E-14;2.00E-28;9.96E-07;0;0.020107809;175.3257477;0;0;0;15.50469322;0.499999608;0;0;0;0;-1.74E-07;0.000506229;0;0;0;0;0;0;0.000506229;0;0;0;0;0;0;9.97E-07;1.05E-27;-9.22E-24;0;0;0;1.05E-27;9.89E-07;3.39E-32;0;0;0;-9.22E-24;3.39E-32;9.89E-07;0;0;0;0;0;0;0.000178927
2.58809E+11;12921;2.58809E+11;odom;11.86167701;-0.001359802;0;0;0;-5.70E-05;0.999999998;12.92699375;0.23491463;0;0;0;0.020125469;0.23491463;2061.048729;0;0;0;175.4807975;0;0;9.98E-07;7.16E-24;-1.53E-14;0;0;0;7.16E-24;9.96E-07;5.93E-29;0;0;0;-1.53E-14;5.93E-29;9.96E-07;0;0.020125469;175.4807975;0;0;0;15.50589324;0.499999602;0;0;0;0;-5.17E-08;0.000506229;0;0;0;0;0;0;0.000506229;0;0;0;0;0;0;9.97E-07;1.05E-27;-9.22E-24;0;0;0;1.05E-27;9.89E-07;3.39E-32;0;0;0;-9.22E-24;3.39E-32;9.89E-07;0;0;0;0;0;0;0.000178927
2.58829E+11;12922;2.58829E+11;odom;11.87167701;-0.001360941;0;0;0;-5.70E-05;0.999999998;12.92799422;0.235315941;0;0;0;0.020143131;0.235315941;2064.560893;0;0;0;175.6358593;0;0;9.98E-07;3.12E-23;-1.53E-14;0;0;0;3.12E-23;9.96E-07;2.58E-28;0;0;0;-1.53E-14;2.58E-28;9.96E-07;0;0.020143131;175.6358593;0;0;0;15.50709325;0.499999597;0;0;0;0;-2.25E-07;0.000506229;0;0;0;0;0;0;0.000506229;0;0;0;0;0;0;9.97E-07;1.05E-27;-9.22E-24;0;0;0;1.05E-27;9.89E-07;3.39E-32;0;0;0;-9.22E-24;3.39E-32;9.89E-07;0;0;0;0;0;0;0.000178927
2.58849E+11;12923;2.58849E+11;odom;11.881677;-0.00136208;0;0;0;-5.70E-05;0.999999998;12.92899469;0.235717608;0;0;0;0.020160795;0.235717608;2068.076158;0;0;0;175.7909331;0;0;9.98E-07;-7.44E-23;-1.53E-14;0;0;0;-7.44E-23;9.96E-07;-6.16E-28;0;0;0;-1.53E-14;-6.16E-28;9.96E-07;0;0.020160795;175.7909331;0;0;0;15.50829326;0.499999593;0;0;0;0;5.38E-07;0.000506229;0;0;0;0;0;0;0.000506229;0;0;0;0;0;0;9.97E-07;1.05E-27;-9.22E-24;0;0;0;1.05E-27;9.89E-07;3.39E-32;0;0;0;-9.22E-24;3.39E-32;9.89E-07;0;0;0;0;0;0;0.000178927
2.58869E+11;12924;2.58869E+11;odom;11.89167699;-0.001363219;0;0;0;-5.69E-05;0.999999998;12.92999515;0.236119617;0;0;0;0.020178459;0.236119617;2071.594525;0;0;0;175.9460189;0;0;9.98E-07;2.34E-23;-1.53E-14;0;0;0;2.34E-23;9.96E-07;1.93E-28;0;0;0;-1.53E-14;1.93E-28;9.96E-07;0;0.020178459;175.9460189;0;0;0;15.50949327;0.499999589;0;0;0;0;-1.69E-07;0.000506229;0;0;0;0;0;0;0.000506229;0;0;0;0;0;0;9.97E-07;1.05E-27;-9.22E-24;0;0;0;1.05E-27;9.89E-07;3.39E-32;0;0;0;-9.22E-24;3.39E-32;9.89E-07;0;0;0;0;0;0;0.000178927
2.58889E+11;12925;2.58889E+11;odom;11.90167698;-0.001364358;0;0;0;-5.70E-05;0.999999998;12.93099562;0.236521982;0;0;0;0.020196125;0.236521982;2075.115994;0;0;0;176.1011166;0;0;9.98E-07;4.38E-23;-1.53E-14;0;0;0;4.38E-23;9.96E-07;3.62E-28;0;0;0;-1.53E-14;3.62E-28;9.96E-07;0;0.020196125;176.1011166;0;0;0;15.51069328;0.499999585;0;0;0;0;-3.16E-07;0.000506229;0;0;0;0;0;0;0.000506229;0;0;0;0;0;0;9.97E-07;1.05E-27;-9.22E-24;0;0;0;1.05E-27;9.89E-07;3.39E-32;0;0;0;-9.22E-24;3.39E-32;9.89E-07;0;0;0;0;0;0;0.000178927
2.589E+11;12926;2.589E+11;odom;11.90717698;-0.001364984;0;0;0;-5.70E-05;0.999999998;12.93154605;0.236743437;0;0;0;0.020205842;0.236743437;2077.054124;0;0;0;176.1864254;0;0;5.00E-07;2.17E-23;-6.25E-15;0;0;0;2.17E-23;4.99E-07;3.60E-28;0;0;0;-6.25E-15;3.60E-28;4.99E-07;0;0.020205842;176.1864254;0;0;0;15.5113533;0.499999585;0;0;0;0;-2.48E-07;0.000790086;0;0;0;0;0;0;0.000790086;0;0;0;0;0;0;4.99E-07;1.72E-27;-1.51E-23;0;0;0;1.72E-27;4.98E-07;1.11E-31;0;0;0;-1.51E-23;1.11E-31;4.98E-07;0;0;0;0;0;0;1.00E-09
2.58929E+11;12927;2.58929E+11;odom;11.92167696;-0.001366636;0;0;0;-5.70E-05;0.999999998;12.93299656;0.2373278;0;0;0;0.020231463;0.2373278;2082.168238;0;0;0;176.4113482;0;0;9.98E-07;2.47E-23;-1.53E-14;0;0;0;2.47E-23;9.96E-07;2.04E-28;0;0;0;-1.53E-14;2.04E-28;9.96E-07;0;0.020231463;176.4113482;0;0;0;15.51309331;0.499999581;0;0;0;0;-1.78E-07;0.000506229;0;0;0;0;0;0;0.000506229;0;0;0;0;0;0;9.97E-07;1.05E-27;-9.22E-24;0;0;0;1.05E-27;9.89E-07;3.39E-32;0;0;0;-9.22E-24;3.39E-32;9.89E-07;0;0;0;0;0;0;0.000178927
2.5894E+11;12928;2.5894E+11;odom;11.92717696;-0.001367263;0;0;0;-5.70E-05;0.999999998;12.93354699;0.237549654;0;0;0;0.020241183;0.237549654;2084.109781;0;0;0;176.4966701;0;0;5.00E-07;1.23E-23;-6.25E-15;0;0;0;1.23E-23;4.99E-07;2.03E-28;0;0;0;-6.25E-15;2.03E-28;4.99E-07;0;0.020241183;176.4966701;0;0;0;15.51375332;0.49999958;0;0;0;0;4.31E-08;0.000790086;0;0;0;0;0;0;0.000790086;0;0;0;0;0;0;4.99E-07;1.72E-27;-1.51E-23;0;0;0;1.72E-27;4.98E-07;1.11E-31;0;0;0;-1.51E-23;1.11E-31;4.98E-07;0;0;0;0;0;0;1.00E-09
2.58969E+11;12929;2.58969E+11;odom;11.94167695;-0.001368914;0;0;0;-5.70E-05;0.999999998;12.9349975;0.238135053;0;0;0;0.020266809;0.238135053;2089.232892;0;0;0;176.7216277;0;0;9.98E-07;-3.71E-24;-1.53E-14;0;0;0;-3.71E-24;9.96E-07;-3.07E-29;0;0;0;-1.53E-14;-3.07E-29;9.96E-07;0;0.020266809;176.7216277;0;0;0;15.51549333;0.499999579;0;0;0;0;2.68E-08;0.000506229;0;0;0;0;0;0;0.000506229;0;0;0;0;0;0;9.97E-07;1.05E-27;-9.22E-24;0;0;0;1.05E-27;9.89E-07;3.39E-32;0;0;0;-9.22E-24;3.39E-32;9.89E-07;0;0;0;0;0;0;0.000178927
2.58989E+11;12930;2.58989E+11;odom;11.95167694;-0.001370053;0;0;0;-5.70E-05;0.999999998;12.93599797;0.23853921;0;0;0;0.020284483;0.23853921;2092.769874;0;0;0;176.8767855;0;0;9.98E-07;3.91E-23;-1.53E-14;0;0;0;3.91E-23;9.96E-07;3.23E-28;0;0;0;-1.53E-14;3.23E-28;9.96E-07;0;0.020284483;176.8767855;0;0;0;15.51669334;0.49999958;0;0;0;0;-2.82E-07;0.000506229;0;0;0;0;0;0;0.000506229;0;0;0;0;0;0;9.97E-07;1.05E-27;-9.22E-24;0;0;0;1.05E-27;9.89E-07;3.39E-32;0;0;0;-9.22E-24;3.39E-32;9.89E-07;0;0;0;0;0;0;0.000178927
2.59009E+11;12931;2.59009E+11;odom;11.96167693;-0.001371193;0;0;0;-5.70E-05;0.999999998;12.93699844;0.238943728;0;0;0;0.02030216;0.238943728;2096.309959;0;0;0;177.0319553;0;0;9.98E-07;2.94E-23;-1.53E-14;0;0;0;2.94E-23;9.96E-07;2.43E-28;0;0;0;-1.53E-14;2.43E-28;9.96E-07;0;0.02030216;177.0319553;0;0;0;15.51789336;0.499999581;0;0;0;0;-2.12E-07;0.000506229;0;0;0;0;0;0;0.000506229;0;0;0;0;0;0;9.97E-07;1.05E-27;-9.22E-24;0;0;0;1.05E-27;9.89E-07;3.39E-32;0;0;0;-9.22E-24;3.39E-32;9.89E-07;0;0;0;0;0;0;0.000178927
2.59029E+11;12932;2.59029E+11;odom;11.97167692;-0.001372332;0;0;0;-5.70E-05;0.999999998;12.93799891;0.239348606;0;0;0;0.020319839;0.239348606;2099.853147;0;0;0;177.187137;0;0;9.98E-07;1.05E-24;-1.53E-14;0;0;0;1.05E-24;9.96E-07;8.65E-30;0;0;0;-1.53E-14;8.65E-30;9.96E-07;0;0.020319839;177.187137;0;0;0;15.51909337;0.499999582;0;0;0;0;-7.60E-09;0.000506229;0;0;0;0;0;0;0.000506229;0;0;0;0;0;0;9.97E-07;1.05E-27;-9.22E-24;0;0;0;1.05E-27;9.89E-07;3.39E-32;0;0;0;-9.22E-24;3.39E-32;9.89E-07;0;0;0;0;0;0;0.000178927
2.59049E+11;12933;2.59049E+11;odom;11.98167691;-0.001373471;0;0;0;-5.70E-05;0.999999998;12.93899937;0.239753841;0;0;0;0.020337519;0.239753841;2103.399439;0;0;0;177.3423308;0;0;9.98E-07;2.66E-23;-1.53E-14;0;0;0;2.66E-23;9.96E-07;2.20E-28;0;0;0;-1.53E-14;2.20E-28;9.96E-07;0;0.020337519;177.3423308;0;0;0;15.52029338;0.499999585;0;0;0;0;-1.93E-07;0.000506229;0;0;0;0;0;0;0.000506229;0;0;0;0;0;0;9.97E-07;1.05E-27;-9.22E-24;0;0;0;1.05E-27;9.89E-07;3.39E-32;0;0;0;-9.22E-24;3.39E-32;9.89E-07;0;0;0;0;0;0;0.000178927
2.59069E+11;12934;2.59069E+11;odom;11.9916769;-0.00137461;0;0;0;-5.70E-05;0.999999998;12.93999984;0.240159435;0;0;0;0.020355202;0.240159435;2106.948835;0;0;0;177.4975366;0;0;9.98E-07;1.17E-23;-1.53E-14;0;0;0;1.17E-23;9.96E-07;9.68E-29;0;0;0;-1.53E-14;9.68E-29;9.96E-07;0;0.020355202;177.4975366;0;0;0;15.52149339;0.499999588;0;0;0;0;-8.46E-08;0.000506229;0;0;0;0;0;0;0.000506229;0;0;0;0;0;0;9.97E-07;1.05E-27;-9.22E-24;0;0;0;1.05E-27;9.89E-07;3.39E-32;0;0;0;-9.22E-24;3.39E-32;9.89E-07;0;0;0;0;0;0;0.000178927
2.59089E+11;12935;2.59089E+11;odom;12.0016769;-0.00137575;0;0;0;-5.70E-05;0.999999998;12.94100031;0.240565385;0;0;0;0.020372885;0.240565385;2110.501336;0;0;0;177.6527544;0;0;9.98E-07;-1.19E-23;-1.53E-14;0;0;0;-1.19E-23;9.96E-07;-9.81E-29;0;0;0;-1.53E-14;-9.81E-29;9.96E-07;0;0.020372885;177.6527544;0;0;0;15.5226934;0.499999591;0;0;0;0;8.56E-08;0.000506229;0;0;0;0;0;0;0.000506229;0;0;0;0;0;0;9.97E-07;1.05E-27;-9.22E-24;0;0;0;1.05E-27;9.89E-07;3.39E-32;0;0;0;-9.22E-24;3.39E-32;9.89E-07;0;0;0;0;0;0;0.000178927
2.59109E+11;12936;2.59109E+11;odom;12.01167689;-0.001376889;0;0;0;-5.70E-05;0.999999998;12.94200078;0.240971687;0;0;0;0.020390571;0.240971687;2114.05694;0;0;0;177.8079841;0;0;9.98E-07;8.20E-24;-1.53E-14;0;0;0;8.20E-24;9.96E-07;6.79E-29;0;0;0;-1.53E-14;6.79E-29;9.96E-07;0;0.020390571;177.8079841;0;0;0;15.52389342;0.499999596;0;0;0;0;-5.94E-08;0.000506229;0;0;0;0;0;0;0.000506229;0;0;0;0;0;0;9.97E-07;1.05E-27;-9.22E-24;0;0;0;1.05E-27;9.89E-07;3.39E-32;0;0;0;-9.22E-24;3.39E-32;9.89E-07;0;0;0;0;0;0;0.000178927
2.59129E+11;12937;2.59129E+11;odom;12.02167688;-0.001378028;0;0;0;-5.70E-05;0.999999998;12.94300125;0.241378345;0;0;0;0.020408257;0.241378345;2117.61565;0;0;0;177.9632259;0;0;9.98E-07;2.31E-23;-1.53E-14;0;0;0;2.31E-23;9.96E-07;1.91E-28;0;0;0;-1.53E-14;1.91E-28;9.96E-07;0;0.020408257;177.9632259;0;0;0;15.52509343;0.4999996;0;0;0;0;-1.67E-07;0.000506229;0;0;0;0;0;0;0.000506229;0;0;0;0;0;0;9.97E-07;1.05E-27;-9.22E-24;0;0;0;1.05E-27;9.89E-07;3.39E-32;0;0;0;-9.22E-24;3.39E-32;9.89E-07;0;0;0;0;0;0;0.000178927
2.59149E+11;12938;2.59149E+11;odom;12.03167687;-0.001379168;0;0;0;-5.70E-05;0.999999998;12.94400172;0.24178536;0;0;0;0.020425945;0.24178536;2121.177465;0;0;0;178.1184797;0;0;9.98E-07;-3.04E-23;-1.53E-14;0;0;0;-3.04E-23;9.96E-07;-2.51E-28;0;0;0;-1.53E-14;-2.51E-28;9.96E-07;0;0.020425945;178.1184797;0;0;0;15.52629344;0.499999606;0;0;0;0;2.19E-07;0.000506229;0;0;0;0;0;0;0.000506229;0;0;0;0;0;0;9.97E-07;1.05E-27;-9.22E-24;0;0;0;1.05E-27;9.89E-07;3.39E-32;0;0;0;-9.22E-24;3.39E-32;9.89E-07;0;0;0;0;0;0;0.000178927
2.59169E+11;12939;2.59169E+11;odom;12.04167686;-0.001380307;0;0;0;-5.70E-05;0.999999998;12.94500219;0.242192725;0;0;0;0.020443635;0.242192725;2124.742384;0;0;0;178.2737455;0;0;9.98E-07;5.79E-24;-1.53E-14;0;0;0;5.79E-24;9.96E-07;4.79E-29;0;0;0;-1.53E-14;4.79E-29;9.96E-07;0;0.020443635;178.2737455;0;0;0;15.52749345;0.499999612;0;0;0;0;-4.20E-08;0.000506229;0;0;0;0;0;0;0.000506229;0;0;0;0;0;0;9.97E-07;1.05E-27;-9.22E-24;0;0;0;1.05E-27;9.89E-07;3.39E-32;0;0;0;-9.22E-24;3.39E-32;9.89E-07;0;0;0;0;0;0;0.000178927
2.59189E+11;12940;2.59189E+11;odom;12.05167686;-0.001381446;0;0;0;-5.70E-05;0.999999998;12.94600266;0.242600443;0;0;0;0.020461325;0.242600443;2128.31041;0;0;0;178.4290232;0;0;9.98E-07;-9.65E-24;-1.53E-14;0;0;0;-9.65E-24;9.96E-07;-7.99E-29;0;0;0;-1.53E-14;-7.99E-29;9.96E-07;0;0.020461325;178.4290232;0;0;0;15.52869346;0.499999619;0;0;0;0;6.96E-08;0.000506229;0;0;0;0;0;0;0.000506229;0;0;0;0;0;0;9.97E-07;1.05E-27;-9.22E-24;0;0;0;1.05E-27;9.89E-07;3.39E-32;0;0;0;-9.22E-24;3.39E-32;9.89E-07;0;0;0;0;0;0;0.000178927
2.59209E+11;12941;2.59209E+11;odom;12.06167685;-0.001382585;0;0;0;-5.70E-05;0.999999998;12.94700313;0.243008514;0;0;0;0.020479017;0.243008514;2131.881541;0;0;0;178.584313;0;0;9.98E-07;3.06E-23;-1.53E-14;0;0;0;3.06E-23;9.96E-07;2.53E-28;0;0;0;-1.53E-14;2.53E-28;9.96E-07;0;0.020479017;178.584313;0;0;0;15.52989348;0.499999626;0;0;0;0;-2.21E-07;0.000506229;0;0;0;0;0;0;0.000506229;0;0;0;0;0;0;9.97E-07;1.05E-27;-9.22E-24;0;0;0;1.05E-27;9.89E-07;3.39E-32;0;0;0;-9.22E-24;3.39E-32;9.89E-07;0;0;0;0;0;0;0.000178927
2.59229E+11;12942;2.59229E+11;odom;12.07167684;-0.001383725;0;0;0;-5.70E-05;0.999999998;12.9480036;0.243416944;0;0;0;0.020496711;0.243416944;2135.455778;0;0;0;178.7396148;0;0;9.98E-07;-1.14E-23;-1.53E-14;0;0;0;-1.14E-23;9.96E-07;-9.47E-29;0;0;0;-1.53E-14;-9.47E-29;9.96E-07;0;0.020496711;178.7396148;0;0;0;15.53109349;0.499999634;0;0;0;0;8.25E-08;0.000506229;0;0;0;0;0;0;0.000506229;0;0;0;0;0;0;9.97E-07;1.05E-27;-9.22E-24;0;0;0;1.05E-27;9.89E-07;3.39E-32;0;0;0;-9.22E-24;3.39E-32;9.89E-07;0;0;0;0;0;0;0.000178927
2.59249E+11;12943;2.59249E+11;odom;12.08167684;-0.001384864;0;0;0;-5.70E-05;0.999999998;12.94900407;0.243825728;0;0;0;0.020514406;0.243825728;2139.033121;0;0;0;178.8949286;0;0;9.98E-07;3.38E-23;-1.53E-14;0;0;0;3.38E-23;9.96E-07;2.79E-28;0;0;0;-1.53E-14;2.79E-28;9.96E-07;0;0.020514406;178.8949286;0;0;0;15.5322935;0.499999642;0;0;0;0;-2.44E-07;0.000506229;0;0;0;0;0;0;0.000506229;0;0;0;0;0;0;9.97E-07;1.05E-27;-9.22E-24;0;0;0;1.05E-27;9.89E-07;3.39E-32;0;0;0;-9.22E-24;3.39E-32;9.89E-07;0;0;0;0;0;0;0.000178927
2.59269E+11;12944;2.59269E+11;odom;12.09167683;-0.001386003;0;0;0;-5.70E-05;0.999999998;12.95000454;0.244234871;0;0;0;0.020532103;0.244234871;2142.613571;0;0;0;179.0502544;0;0;9.98E-07;-2.06E-23;-1.53E-14;0;0;0;-2.06E-23;9.96E-07;-1.70E-28;0;0;0;-1.53E-14;-1.70E-28;9.96E-07;0;0.020532103;179.0502544;0;0;0;15.53349351;0.499999651;0;0;0;0;1.49E-07;0.000506229;0;0;0;0;0;0;0.000506229;0;0;0;0;0;0;9.97E-07;1.05E-27;-9.22E-24;0;0;0;1.05E-27;9.89E-07;3.39E-32;0;0;0;-9.22E-24;3.39E-32;9.89E-07;0;0;0;0;0;0;0.000178927
2.59289E+11;12945;2.59289E+11;odom;12.10167682;-0.001387143;0;0;0;-5.70E-05;0.999999998;12.95100501;0.244644365;0;0;0;0.020549801;0.244644365;2146.197127;0;0;0;179.2055922;0;0;9.98E-07;-1.08E-23;-1.53E-14;0;0;0;-1.08E-23;9.96E-07;-8.93E-29;0;0;0;-1.53E-14;-8.93E-29;9.96E-07;0;0.020549801;179.2055922;0;0;0;15.53469352;0.49999966;0;0;0;0;7.78E-08;0.000506229;0;0;0;0;0;0;0.000506229;0;0;0;0;0;0;9.97E-07;1.05E-27;-9.22E-24;0;0;0;1.05E-27;9.89E-07;3.39E-32;0;0;0;-9.22E-24;3.39E-32;9.89E-07;0;0;0;0;0;0;0.000178927
2.59309E+11;12946;2.59309E+11;odom;12.11167682;-0.001388282;0;0;0;-5.70E-05;0.999999998;12.95200548;0.245054212;0;0;0;0.0205675;0.245054212;2149.78379;0;0;0;179.360942;0;0;9.98E-07;3.54E-23;-1.53E-14;0;0;0;3.54E-23;9.96E-07;2.93E-28;0;0;0;-1.53E-14;2.93E-28;9.96E-07;0;0.0205675;179.360942;0;0;0;15.53589354;0.49999967;0;0;0;0;-2.56E-07;0.000506229;0;0;0;0;0;0;0.000506229;0;0;0;0;0;0;9.97E-07;1.05E-27;-9.22E-24;0;0;0;1.05E-27;9.89E-07;3.39E-32;0;0;0;-9.22E-24;3.39E-32;9.89E-07;0;0;0;0;0;0;0.000178927
2.59329E+11;12947;2.59329E+11;odom;12.12167681;-0.001389421;0;0;0;-5.70E-05;0.999999998;12.95300595;0.245464419;0;0;0;0.020585201;0.245464419;2153.373561;0;0;0;179.5163038;0;0;9.98E-07;2.56E-23;-1.53E-14;0;0;0;2.56E-23;9.96E-07;2.12E-28;0;0;0;-1.53E-14;2.12E-28;9.96E-07;0;0.020585201;179.5163038;0;0;0;15.53709355;0.49999968;0;0;0;0;-1.85E-07;0.000506229;0;0;0;0;0;0;0.000506229;0;0;0;0;0;0;9.97E-07;1.05E-27;-9.22E-24;0;0;0;1.05E-27;9.89E-07;3.39E-32;0;0;0;-9.22E-24;3.39E-32;9.89E-07;0;0;0;0;0;0;0.000178927
2.59349E+11;12948;2.59349E+11;odom;12.1316768;-0.001390561;0;0;0;-5.70E-05;0.999999998;12.95400642;0.245874986;0;0;0;0.020602905;0.245874986;2156.966439;0;0;0;179.6716776;0;0;9.98E-07;-1.92E-23;-1.53E-14;0;0;0;-1.92E-23;9.96E-07;-1.59E-28;0;0;0;-1.53E-14;-1.59E-28;9.96E-07;0;0.020602905;179.6716776;0;0;0;15.53829356;0.49999969;0;0;0;0;1.38E-07;0.000506229;0;0;0;0;0;0;0.000506229;0;0;0;0;0;0;9.97E-07;1.05E-27;-9.22E-24;0;0;0;1.05E-27;9.89E-07;3.39E-32;0;0;0;-9.22E-24;3.39E-32;9.89E-07;0;0;0;0;0;0;0.000178927
2.59369E+11;12949;2.59369E+11;odom;12.1416768;-0.0013917;0;0;0;-5.70E-05;0.999999998;12.95500689;0.246285905;0;0;0;0.020620609;0.246285905;2160.562424;0;0;0;179.8270634;0;0;9.98E-07;2.12E-24;-1.53E-14;0;0;0;2.12E-24;9.96E-07;1.75E-29;0;0;0;-1.53E-14;1.75E-29;9.96E-07;0;0.020620609;179.8270634;0;0;0;15.53949357;0.499999701;0;0;0;0;-1.55E-08;0.000506229;0;0;0;0;0;0;0.000506229;0;0;0;0;0;0;9.97E-07;1.05E-27;-9.22E-24;0;0;0;1.05E-27;9.89E-07;3.39E-32;0;0;0;-9.22E-24;3.39E-32;9.89E-07;0;0;0;0;0;0;0.000178927
2.59389E+11;12950;2.59389E+11;odom;12.15167679;-0.00139284;0;0;0;-5.70E-05;0.999999998;12.95600736;0.246697179;0;0;0;0.020638314;0.246697179;2164.161518;0;0;0;179.9824612;0;0;9.98E-07;2.76E-23;-1.53E-14;0;0;0;2.76E-23;9.96E-07;2.28E-28;0;0;0;-1.53E-14;2.28E-28;9.96E-07;0;0.020638314;179.9824612;0;0;0;15.54069358;0.499999712;0;0;0;0;-2.00E-07;0.000506229;0;0;0;0;0;0;0.000506229;0;0;0;0;0;0;9.97E-07;1.05E-27;-9.22E-24;0;0;0;1.05E-27;9.89E-07;3.39E-32;0;0;0;-9.22E-24;3.39E-32;9.89E-07;0;0;0;0;0;0;0.000178927
2.59409E+11;12951;2.59409E+11;odom;12.16167679;-0.001393979;0;0;0;-5.70E-05;0.999999998;12.95700783;0.247108811;0;0;0;0.020656022;0.247108811;2167.763719;0;0;0;180.137871;0;0;9.98E-07;-1.14E-23;-1.53E-14;0;0;0;-1.14E-23;9.96E-07;-9.40E-29;0;0;0;-1.53E-14;-9.40E-29;9.96E-07;0;0.020656022;180.137871;0;0;0;15.54189359;0.499999723;0;0;0;0;8.19E-08;0.000506229;0;0;0;0;0;0;0.000506229;0;0;0;0;0;0;9.97E-07;1.05E-27;-9.22E-24;0;0;0;1.05E-27;9.89E-07;3.39E-32;0;0;0;-9.22E-24;3.39E-32;9.89E-07;0;0;0;0;0;0;0.000178927
2.59429E+11;12952;2.59429E+11;odom;12.17167678;-0.001395118;0;0;0;-5.70E-05;0.999999998;12.9580083;0.247520797;0;0;0;0.020673731;0.247520797;2171.369029;0;0;0;180.2932929;0;0;9.98E-07;1.88E-23;-1.53E-14;0;0;0;1.88E-23;9.96E-07;1.56E-28;0;0;0;-1.53E-14;1.56E-28;9.96E-07;0;0.020673731;180.2932929;0;0;0;15.54309361;0.499999734;0;0;0;0;-1.36E-07;0.000506229;0;0;0;0;0;0;0.000506229;0;0;0;0;0;0;9.97E-07;1.05E-27;-9.22E-24;0;0;0;1.05E-27;9.89E-07;3.39E-32;0;0;0;-9.22E-24;3.39E-32;9.89E-07;0;0;0;0;0;0;0.000178927
2.59449E+11;12953;2.59449E+11;odom;12.18167677;-0.001396258;0;0;0;-5.70E-05;0.999999998;12.95900876;0.247933141;0;0;0;0.020691441;0.247933141;2174.977448;0;0;0;180.4487267;0;0;9.98E-07;2.05E-23;-1.53E-14;0;0;0;2.05E-23;9.96E-07;1.69E-28;0;0;0;-1.53E-14;1.69E-28;9.96E-07;0;0.020691441;180.4487267;0;0;0;15.54429362;0.499999746;0;0;0;0;-1.48E-07;0.000506229;0;0;0;0;0;0;0.000506229;0;0;0;0;0;0;9.97E-07;1.05E-27;-9.22E-24;0;0;0;1.05E-27;9.89E-07;3.39E-32;0;0;0;-9.22E-24;3.39E-32;9.89E-07;0;0;0;0;0;0;0.000178927
2.59469E+11;12954;2.59469E+11;odom;12.19167677;-0.001397397;0;0;0;-5.70E-05;0.999999998;12.96000923;0.248345844;0;0;0;0.020709153;0.248345844;2178.588976;0;0;0;180.6041725;0;0;9.98E-07;-3.38E-24;-1.53E-14;0;0;0;-3.38E-24;9.96E-07;-2.79E-29;0;0;0;-1.53E-14;-2.79E-29;9.96E-07;0;0.020709153;180.6041725;0;0;0;15.54549363;0.499999757;0;0;0;0;2.42E-08;0.000506229;0;0;0;0;0;0;0.000506229;0;0;0;0;0;0;9.97E-07;1.05E-27;-9.22E-24;0;0;0;1.05E-27;9.89E-07;3.39E-32;0;0;0;-9.22E-24;3.39E-32;9.89E-07;0;0;0;0;0;0;0.000178927
2.59489E+11;12955;2.59489E+11;odom;12.20167677;-0.001398537;0;0;0;-5.70E-05;0.999999998;12.9610097;0.248758902;0;0;0;0.020726867;0.248758902;2182.203612;0;0;0;180.7596303;0;0;9.98E-07;-8.97E-24;-1.53E-14;0;0;0;-8.97E-24;9.96E-07;-7.42E-29;0;0;0;-1.53E-14;-7.42E-29;9.96E-07;0;0.020726867;180.7596303;0;0;0;15.54669364;0.499999769;0;0;0;0;6.46E-08;0.000506229;0;0;0;0;0;0;0.000506229;0;0;0;0;0;0;9.97E-07;1.05E-27;-9.22E-24;0;0;0;1.05E-27;9.89E-07;3.39E-32;0;0;0;-9.22E-24;3.39E-32;9.89E-07;0;0;0;0;0;0;0.000178927
2.59509E+11;12956;2.59509E+11;odom;12.21167676;-0.001399676;0;0;0;-5.70E-05;0.999999998;12.96201017;0.24917231;0;0;0;0.020744582;0.24917231;2185.821358;0;0;0;180.9151002;0;0;9.98E-07;-3.94E-23;-1.53E-14;0;0;0;-3.94E-23;9.96E-07;-3.26E-28;0;0;0;-1.53E-14;-3.26E-28;9.96E-07;0;0.020744582;180.9151002;0;0;0;15.54789365;0.49999978;0;0;0;0;2.85E-07;0.000506229;0;0;0;0;0;0;0.000506229;0;0;0;0;0;0;9.97E-07;1.05E-27;-9.22E-24;0;0;0;1.05E-27;9.89E-07;3.39E-32;0;0;0;-9.22E-24;3.39E-32;9.89E-07;0;0;0;0;0;0;0.000178927
2.59529E+11;12957;2.59529E+11;odom;12.22167676;-0.001400815;0;0;0;-5.70E-05;0.999999998;12.96301064;0.249586064;0;0;0;0.020762297;0.249586064;2189.442214;0;0;0;181.070582;0;0;9.98E-07;-2.44E-23;-1.53E-14;0;0;0;-2.44E-23;9.96E-07;-2.02E-28;0;0;0;-1.53E-14;-2.02E-28;9.96E-07;0;0.020762297;181.070582;0;0;0;15.54909367;0.499999792;0;0;0;0;1.76E-07;0.000506229;0;0;0;0;0;0;0.000506229;0;0;0;0;0;0;9.97E-07;1.05E-27;-9.22E-24;0;0;0;1.05E-27;9.89E-07;3.39E-32;0;0;0;-9.22E-24;3.39E-32;9.89E-07;0;0;0;0;0;0;0.000178927
2.59549E+11;12958;2.59549E+11;odom;12.23167675;-0.001401955;0;0;0;-5.70E-05;0.999999998;12.96401112;0.250000167;0;0;0;0.020780013;0.250000167;2193.066179;0;0;0;181.2260759;0;0;9.98E-07;9.83E-24;-1.53E-14;0;0;0;9.83E-24;9.96E-07;8.13E-29;0;0;0;-1.53E-14;8.13E-29;9.96E-07;0;0.020780013;181.2260759;0;0;0;15.55029368;0.499999803;0;0;0;0;-7.13E-08;0.000506229;0;0;0;0;0;0;0.000506229;0;0;0;0;0;0;9.97E-07;1.05E-27;-9.22E-24;0;0;0;1.05E-27;9.89E-07;3.39E-32;0;0;0;-9.22E-24;3.39E-32;9.89E-07;0;0;0;0;0;0;0.000178927
2.59569E+11;12959;2.59569E+11;odom;12.24167675;-0.001403094;0;0;0;-5.70E-05;0.999999998;12.96501159;0.250414623;0;0;0;0.020797731;0.250414623;2196.693255;0;0;0;181.3815817;0;0;9.98E-07;-5.63E-23;-1.53E-14;0;0;0;-5.63E-23;9.96E-07;-4.66E-28;0;0;0;-1.53E-14;-4.66E-28;9.96E-07;0;0.020797731;181.3815817;0;0;0;15.55149369;0.499999814;0;0;0;0;4.07E-07;0.000506229;0;0;0;0;0;0;0.000506229;0;0;0;0;0;0;9.97E-07;1.05E-27;-9.22E-24;0;0;0;1.05E-27;9.89E-07;3.39E-32;0;0;0;-9.22E-24;3.39E-32;9.89E-07;0;0;0;0;0;0;0.000178927
2.59589E+11;12960;2.59589E+11;odom;12.25167675;-0.001404233;0;0;0;-5.70E-05;0.999999998;12.96601206;0.250829425;0;0;0;0.020815449;0.250829425;2200.323441;0;0;0;181.5370995;0;0;9.98E-07;8.29E-23;-1.53E-14;0;0;0;8.29E-23;9.96E-07;6.86E-28;0;0;0;-1.53E-14;6.86E-28;9.96E-07;0;0.020815449;181.5370995;0;0;0;15.5526937;0.499999825;0;0;0;0;-5.99E-07;0.000506229;0;0;0;0;0;0;0.000506229;0;0;0;0;0;0;9.97E-07;1.05E-27;-9.22E-24;0;0;0;1.05E-27;9.89E-07;3.39E-32;0;0;0;-9.22E-24;3.39E-32;9.89E-07;0;0;0;0;0;0;0.000178927
2.59609E+11;12961;2.59609E+11;odom;12.26167674;-0.001405373;0;0;0;-5.70E-05;0.999999998;12.96701253;0.251244595;0;0;0;0.020833169;0.251244595;2203.956737;0;0;0;181.6926294;0;0;9.98E-07;-1.54E-23;-1.53E-14;0;0;0;-1.54E-23;9.96E-07;-1.28E-28;0;0;0;-1.53E-14;-1.28E-28;9.96E-07;0;0.020833169;181.6926294;0;0;0;15.55389371;0.499999836;0;0;0;0;1.11E-07;0.000506229;0;0;0;0;0;0;0.000506229;0;0;0;0;0;0;9.97E-07;1.05E-27;-9.22E-24;0;0;0;1.05E-27;9.89E-07;3.39E-32;0;0;0;-9.22E-24;3.39E-32;9.89E-07;0;0;0;0;0;0;0.000178927
2.5962E+11;12962;2.5962E+11;odom;12.26717674;-0.001405999;0;0;0;-5.70E-05;0.999999998;12.96756296;0.25147309;0;0;0;0.020842916;0.25147309;2205.956376;0;0;0;181.7781758;0;0;5.00E-07;-7.65E-24;-6.25E-15;0;0;0;-7.65E-24;4.99E-07;-1.26E-28;0;0;0;-6.25E-15;-1.26E-28;4.99E-07;0;0.020842916;181.7781758;0;0;0;15.55455373;0.499999837;0;0;0;0;1.41E-07;0.000790086;0;0;0;0;0;0;0.000790086;0;0;0;0;0;0;4.99E-07;1.72E-27;-1.51E-23;0;0;0;1.72E-27;4.98E-07;1.11E-31;0;0;0;-1.51E-23;1.11E-31;4.98E-07;0;0;0;0;0;0;1.00E-09
2.59649E+11;12963;2.59649E+11;odom;12.28167674;-0.001407652;0;0;0;-5.70E-05;0.999999998;12.96901347;0.252075994;0;0;0;0.020868614;0.252075994;2211.232663;0;0;0;182.0037251;0;0;9.98E-07;-4.82E-24;-1.53E-14;0;0;0;-4.82E-24;9.96E-07;-3.99E-29;0;0;0;-1.53E-14;-3.99E-29;9.96E-07;0;0.020868614;182.0037251;0;0;0;15.55629374;0.499999857;0;0;0;0;3.46E-08;0.000506229;0;0;0;0;0;0;0.000506229;0;0;0;0;0;0;9.97E-07;1.05E-27;-9.22E-24;0;0;0;1.05E-27;9.89E-07;3.39E-32;0;0;0;-9.22E-24;3.39E-32;9.89E-07;0;0;0;0;0;0;0.000178927
2.59669E+11;12964;2.59669E+11;odom;12.29167673;-0.001408791;0;0;0;-5.70E-05;0.999999998;12.97001394;0.252492222;0;0;0;0.020886339;0.252492222;2214.875292;0;0;0;182.159291;0;0;9.98E-07;2.78E-23;-1.53E-14;0;0;0;2.78E-23;9.96E-07;2.30E-28;0;0;0;-1.53E-14;2.30E-28;9.96E-07;0;0.020886339;182.159291;0;0;0;15.55749375;0.499999867;0;0;0;0;-2.01E-07;0.000506229;0;0;0;0;0;0;0.000506229;0;0;0;0;0;0;9.97E-07;1.05E-27;-9.22E-24;0;0;0;1.05E-27;9.89E-07;3.39E-32;0;0;0;-9.22E-24;3.39E-32;9.89E-07;0;0;0;0;0;0;0.000178927
2.59689E+11;12965;2.59689E+11;odom;12.30167673;-0.00140993;0;0;0;-5.70E-05;0.999999998;12.97101441;0.252908809;0;0;0;0.020904065;0.252908809;2218.521033;0;0;0;182.3148688;0;0;9.98E-07;1.08E-23;-1.53E-14;0;0;0;1.08E-23;9.96E-07;8.90E-29;0;0;0;-1.53E-14;8.90E-29;9.96E-07;0;0.020904065;182.3148688;0;0;0;15.55869376;0.499999877;0;0;0;0;-7.79E-08;0.000506229;0;0;0;0;0;0;0.000506229;0;0;0;0;0;0;9.97E-07;1.05E-27;-9.22E-24;0;0;0;1.05E-27;9.89E-07;3.39E-32;0;0;0;-9.22E-24;3.39E-32;9.89E-07;0;0;0;0;0;0;0.000178927
2.59709E+11;12966;2.59709E+11;odom;12.31167673;-0.00141107;0;0;0;-5.70E-05;0.999999998;12.97201488;0.253325754;0;0;0;0.020921792;0.253325754;2222.169886;0;0;0;182.4704587;0;0;9.98E-07;-2.46E-23;-1.53E-14;0;0;0;-2.46E-23;9.96E-07;-2.03E-28;0;0;0;-1.53E-14;-2.03E-28;9.96E-07;0;0.020921792;182.4704587;0;0;0;15.55989377;0.499999886;0;0;0;0;1.77E-07;0.000506229;0;0;0;0;0;0;0.000506229;0;0;0;0;0;0;9.97E-07;1.05E-27;-9.22E-24;0;0;0;1.05E-27;9.89E-07;3.39E-32;0;0;0;-9.22E-24;3.39E-32;9.89E-07;0;0;0;0;0;0;0.000178927
2.59729E+11;12967;2.59729E+11;odom;12.32167673;-0.001412209;0;0;0;-5.70E-05;0.999999998;12.97301535;0.25374305;0;0;0;0.020939521;0.25374305;2225.821851;0;0;0;182.6260606;0;0;9.98E-07;1.15E-23;-1.53E-14;0;0;0;1.15E-23;9.96E-07;9.52E-29;0;0;0;-1.53E-14;9.52E-29;9.96E-07;0;0.020939521;182.6260606;0;0;0;15.56109379;0.499999895;0;0;0;0;-8.34E-08;0.000506229;0;0;0;0;0;0;0.000506229;0;0;0;0;0;0;9.97E-07;1.05E-27;-9.22E-24;0;0;0;1.05E-27;9.89E-07;3.39E-32;0;0;0;-9.22E-24;3.39E-32;9.89E-07;0;0;0;0;0;0;0.000178927
2.59749E+11;12968;2.59749E+11;odom;12.33167673;-0.001413348;0;0;0;-5.70E-05;0.999999998;12.97401582;0.2541607;0;0;0;0.020957251;0.2541607;2229.476928;0;0;0;182.7816745;0;0;9.98E-07;-4.21E-23;-1.53E-14;0;0;0;-4.21E-23;9.96E-07;-3.49E-28;0;0;0;-1.53E-14;-3.49E-28;9.96E-07;0;0.020957251;182.7816745;0;0;0;15.5622938;0.499999904;0;0;0;0;3.04E-07;0.000506229;0;0;0;0;0;0;0.000506229;0;0;0;0;0;0;9.97E-07;1.05E-27;-9.22E-24;0;0;0;1.05E-27;9.89E-07;3.39E-32;0;0;0;-9.22E-24;3.39E-32;9.89E-07;0;0;0;0;0;0;0.000178927
2.59769E+11;12969;2.59769E+11;odom;12.34167672;-0.001414488;0;0;0;-5.70E-05;0.999999998;12.97501629;0.254578696;0;0;0;0.020974982;0.254578696;2233.135117;0;0;0;182.9373003;0;0;9.98E-07;-2.42E-23;-1.53E-14;0;0;0;-2.42E-23;9.96E-07;-2.00E-28;0;0;0;-1.53E-14;-2.00E-28;9.96E-07;0;0.020974982;182.9373003;0;0;0;15.56349381;0.499999912;0;0;0;0;1.75E-07;0.000506229;0;0;0;0;0;0;0.000506229;0;0;0;0;0;0;9.97E-07;1.05E-27;-9.22E-24;0;0;0;1.05E-27;9.89E-07;3.39E-32;0;0;0;-9.22E-24;3.39E-32;9.89E-07;0;0;0;0;0;0;0.000178927
2.59789E+11;12970;2.59789E+11;odom;12.35167672;-0.001415627;0;0;0;-5.70E-05;0.999999998;12.97601676;0.254997041;0;0;0;0.020992714;0.254997041;2236.796419;0;0;0;183.0929382;0;0;9.98E-07;1.18E-23;-1.53E-14;0;0;0;1.18E-23;9.96E-07;9.75E-29;0;0;0;-1.53E-14;9.75E-29;9.96E-07;0;0.020992714;183.0929382;0;0;0;15.56469382;0.499999919;0;0;0;0;-8.53E-08;0.000506229;0;0;0;0;0;0;0.000506229;0;0;0;0;0;0;9.97E-07;1.05E-27;-9.22E-24;0;0;0;1.05E-27;9.89E-07;3.39E-32;0;0;0;-9.22E-24;3.39E-32;9.89E-07;0;0;0;0;0;0;0.000178927
2.59809E+11;12971;2.59809E+11;odom;12.36167672;-0.001416766;0;0;0;-5.70E-05;0.999999998;12.97701723;0.255415741;0;0;0;0.021010447;0.255415741;2240.460834;0;0;0;183.2485881;0;0;9.98E-07;-3.22E-24;-1.53E-14;0;0;0;-3.22E-24;9.96E-07;-2.66E-29;0;0;0;-1.53E-14;-2.66E-29;9.96E-07;0;0.021010447;183.2485881;0;0;0;15.56589383;0.499999952;0;0;0;0;2.33E-08;0.000506229;0;0;0;0;0;0;0.000506229;0;0;0;0;0;0;9.97E-07;1.05E-27;-9.22E-24;0;0;0;1.05E-27;9.89E-07;3.39E-32;0;0;0;-9.22E-24;3.39E-32;9.89E-07;0;0;0;0;0;0;0.000178927
2.59829E+11;12972;2.59829E+11;odom;12.37167672;-0.001417906;0;0;0;-5.70E-05;0.999999998;12.9780177;0.255834796;0;0;0;0.021028181;0.255834796;2244.128363;0;0;0;183.40425;0;0;9.98E-07;-3.49E-23;-1.53E-14;0;0;0;-3.49E-23;9.96E-07;-2.89E-28;0;0;0;-1.53E-14;-2.89E-28;9.96E-07;0;0.021028181;183.40425;0;0;0;15.56709385;0.500000013;0;0;0;0;2.52E-07;0.000506229;0;0;0;0;0;0;0.000506229;0;0;0;0;0;0;9.97E-07;1.05E-27;-9.22E-24;0;0;0;1.05E-27;9.89E-07;3.39E-32;0;0;0;-9.22E-24;3.39E-32;9.89E-07;0;0;0;0;0;0;0.000178927
2.59849E+11;12973;2.59849E+11;odom;12.38167672;-0.001419045;0;0;0;-5.70E-05;0.999999998;12.97901817;0.256254197;0;0;0;0.021045916;0.256254197;2247.799005;0;0;0;183.5599239;0;0;9.98E-07;-9.82E-24;-1.53E-14;0;0;0;-9.82E-24;9.96E-07;-8.13E-29;0;0;0;-1.53E-14;-8.13E-29;9.96E-07;0;0.021045916;183.5599239;0;0;0;15.56829386;0.500000085;0;0;0;0;7.13E-08;0.000506229;0;0;0;0;0;0;0.000506229;0;0;0;0;0;0;9.97E-07;1.05E-27;-9.22E-24;0;0;0;1.05E-27;9.89E-07;3.39E-32;0;0;0;-9.22E-24;3.39E-32;9.89E-07;0;0;0;0;0;0;0.000178927
2.59869E+11;12974;2.59869E+11;odom;12.39167673;-0.001420184;0;0;0;-5.70E-05;0.999999998;12.98001864;0.25667395;0;0;0;0.021063652;0.25667395;2251.472761;0;0;0;183.7156098;0;0;9.98E-07;-2.10E-23;-1.53E-14;0;0;0;-2.10E-23;9.96E-07;-1.74E-28;0;0;0;-1.53E-14;-1.74E-28;9.96E-07;0;0.021063652;183.7156098;0;0;0;15.56949387;0.500000156;0;0;0;0;1.52E-07;0.000506229;0;0;0;0;0;0;0.000506229;0;0;0;0;0;0;9.97E-07;1.05E-27;-9.22E-24;0;0;0;1.05E-27;9.89E-07;3.39E-32;0;0;0;-9.22E-24;3.39E-32;9.89E-07;0;0;0;0;0;0;0.000178927
2.59889E+11;12975;2.59889E+11;odom;12.40167673;-0.001421323;0;0;0;-5.70E-05;0.999999998;12.98101911;0.257094051;0;0;0;0.021081389;0.257094051;2255.149632;0;0;0;183.8713078;0;0;9.98E-07;-5.18E-23;-1.53E-14;0;0;0;-5.18E-23;9.96E-07;-4.28E-28;0;0;0;-1.53E-14;-4.28E-28;9.96E-07;0;0.021081389;183.8713078;0;0;0;15.57069388;0.500000222;0;0;0;0;3.74E-07;0.000506229;0;0;0;0;0;0;0.000506229;0;0;0;0;0;0;9.97E-07;1.05E-27;-9.22E-24;0;0;0;1.05E-27;9.89E-07;3.39E-32;0;0;0;-9.22E-24;3.39E-32;9.89E-07;0;0;0;0;0;0;0.000178927
2.59909E+11;12976;2.59909E+11;odom;12.41167674;-0.001422462;0;0;0;-5.70E-05;0.999999998;12.98201958;0.257514495;0;0;0;0.021099126;0.257514495;2258.829617;0;0;0;184.0270178;0;0;9.98E-07;-2.77E-23;-1.53E-14;0;0;0;-2.77E-23;9.96E-07;-2.30E-28;0;0;0;-1.53E-14;-2.30E-28;9.96E-07;0;0.021099126;184.0270178;0;0;0;15.57189389;0.500000279;0;0;0;0;2.01E-07;0.000506229;0;0;0;0;0;0;0.000506229;0;0;0;0;0;0;9.97E-07;1.05E-27;-9.22E-24;0;0;0;1.05E-27;9.89E-07;3.39E-32;0;0;0;-9.22E-24;3.39E-32;9.89E-07;0;0;0;0;0;0;0.000178927
2.59929E+11;12977;2.59929E+11;odom;12.42167675;-0.001423601;0;0;0;-5.70E-05;0.999999998;12.98302005;0.257935285;0;0;0;0.021116864;0.257935285;2262.512717;0;0;0;184.1827398;0;0;9.98E-07;-4.73E-23;-1.53E-14;0;0;0;-4.73E-23;9.96E-07;-3.91E-28;0;0;0;-1.53E-14;-3.91E-28;9.96E-07;0;0.021116864;184.1827398;0;0;0;15.57309391;0.500000325;0;0;0;0;3.42E-07;0.000506229;0;0;0;0;0;0;0.000506229;0;0;0;0;0;0;9.97E-07;1.05E-27;-9.22E-24;0;0;0;1.05E-27;9.89E-07;3.39E-32;0;0;0;-9.22E-24;3.39E-32;9.89E-07;0;0;0;0;0;0;0.000178927
2.5994E+11;12978;2.5994E+11;odom;12.42717675;-0.001424228;0;0;0;-5.70E-05;0.999999998;12.98357049;0.258166866;0;0;0;0.02112662;0.258166866;2264.53975;0;0;0;184.2683918;0;0;5.00E-07;-2.35E-23;-6.25E-15;0;0;0;-2.35E-23;4.99E-07;-3.88E-28;0;0;0;-6.25E-15;-3.88E-28;4.99E-07;0;0.02112662;184.2683918;0;0;0;15.57375392;0.500000329;0;0;0;0;-2.98E-08;0.000790086;0;0;0;0;0;0;0.000790086;0;0;0;0;0;0;4.99E-07;1.72E-27;-1.51E-23;0;0;0;1.72E-27;4.98E-07;1.11E-31;0;0;0;-1.51E-23;1.11E-31;4.98E-07;0;0;0;0;0;0;1.00E-09
2.59969E+11;12979;2.59969E+11;odom;12.44167676;-0.001425879;0;0;0;-5.70E-05;0.999999998;12.985021;0.258777908;0;0;0;0.021152343;0.258777908;2269.888262;0;0;0;184.4942198;0;0;9.98E-07;7.00E-24;-1.53E-14;0;0;0;7.00E-24;9.96E-07;5.80E-29;0;0;0;-1.53E-14;5.80E-29;9.96E-07;0;0.021152343;184.4942198;0;0;0;15.57549393;0.500000377;0;0;0;0;-5.06E-08;0.000506229;0;0;0;0;0;0;0.000506229;0;0;0;0;0;0;9.97E-07;1.05E-27;-9.22E-24;0;0;0;1.05E-27;9.89E-07;3.39E-32;0;0;0;-9.22E-24;3.39E-32;9.89E-07;0;0;0;0;0;0;0.000178927
2.59989E+11;12980;2.59989E+11;odom;12.45167677;-0.001427018;0;0;0;-5.70E-05;0.999999998;12.98602147;0.259199753;0;0;0;0.021170084;0.259199753;2273.580707;0;0;0;184.6499778;0;0;9.98E-07;2.28E-23;-1.53E-14;0;0;0;2.28E-23;9.96E-07;1.88E-28;0;0;0;-1.53E-14;1.88E-28;9.96E-07;0;0.021170084;184.6499778;0;0;0;15.57669394;0.500000387;0;0;0;0;-1.65E-07;0.000506229;0;0;0;0;0;0;0.000506229;0;0;0;0;0;0;9.97E-07;1.05E-27;-9.22E-24;0;0;0;1.05E-27;9.89E-07;3.39E-32;0;0;0;-9.22E-24;3.39E-32;9.89E-07;0;0;0;0;0;0;0.000178927
2.60009E+11;12981;2.60009E+11;odom;12.46167678;-0.001428158;0;0;0;-5.70E-05;0.999999998;12.98702194;0.259621959;0;0;0;0.021187827;0.259621959;2277.276268;0;0;0;184.8057479;0;0;9.98E-07;1.50E-23;-1.53E-14;0;0;0;1.50E-23;9.96E-07;1.24E-28;0;0;0;-1.53E-14;1.24E-28;9.96E-07;0;0.021187827;184.8057479;0;0;0;15.57789395;0.500000391;0;0;0;0;-1.09E-07;0.000506229;0;0;0;0;0;0;0.000506229;0;0;0;0;0;0;9.97E-07;1.05E-27;-9.22E-24;0;0;0;1.05E-27;9.89E-07;3.39E-32;0;0;0;-9.22E-24;3.39E-32;9.89E-07;0;0;0;0;0;0;0.000178927
2.60029E+11;12982;2.60029E+11;odom;12.47167678;-0.001429297;0;0;0;-5.70E-05;0.999999998;12.98802241;0.260044523;0;0;0;0.021205572;0.260044523;2280.974944;0;0;0;184.9615299;0;0;9.98E-07;1.14E-23;-1.53E-14;0;0;0;1.14E-23;9.96E-07;9.43E-29;0;0;0;-1.53E-14;9.43E-29;9.96E-07;0;0.021205572;184.9615299;0;0;0;15.57909396;0.500000384;0;0;0;0;-8.24E-08;0.000506229;0;0;0;0;0;0;0.000506229;0;0;0;0;0;0;9.97E-07;1.05E-27;-9.22E-24;0;0;0;1.05E-27;9.89E-07;3.39E-32;0;0;0;-9.22E-24;3.39E-32;9.89E-07;0;0;0;0;0;0;0.000178927
2.60049E+11;12983;2.60049E+11;odom;12.48167679;-0.001430436;0;0;0;-5.70E-05;0.999999998;12.98902288;0.260467445;0;0;0;0.021223318;0.260467445;2284.676736;0;0;0;185.1173239;0;0;9.98E-07;-7.76E-24;-1.53E-14;0;0;0;-7.76E-24;9.96E-07;-6.42E-29;0;0;0;-1.53E-14;-6.42E-29;9.96E-07;0;0.021223318;185.1173239;0;0;0;15.58029398;0.500000366;0;0;0;0;5.60E-08;0.000506229;0;0;0;0;0;0;0.000506229;0;0;0;0;0;0;9.97E-07;1.05E-27;-9.22E-24;0;0;0;1.05E-27;9.89E-07;3.39E-32;0;0;0;-9.22E-24;3.39E-32;9.89E-07;0;0;0;0;0;0;0.000178927
2.60069E+11;12984;2.60069E+11;odom;12.4916768;-0.001431575;0;0;0;-5.70E-05;0.999999998;12.99002335;0.260890721;0;0;0;0.021241066;0.260890721;2288.381644;0;0;0;185.2731299;0;0;9.98E-07;-2.11E-23;-1.53E-14;0;0;0;-2.11E-23;9.96E-07;-1.74E-28;0;0;0;-1.53E-14;-1.74E-28;9.96E-07;0;0.021241066;185.2731299;0;0;0;15.58149399;0.500000334;0;0;0;0;1.52E-07;0.000506229;0;0;0;0;0;0;0.000506229;0;0;0;0;0;0;9.97E-07;1.05E-27;-9.22E-24;0;0;0;1.05E-27;9.89E-07;3.39E-32;0;0;0;-9.22E-24;3.39E-32;9.89E-07;0;0;0;0;0;0;0.000178927
2.60089E+11;12985;2.60089E+11;odom;12.5016768;-0.001432714;0;0;0;-5.70E-05;0.999999998;12.99102382;0.261314346;0;0;0;0.021258814;0.261314346;2292.089667;0;0;0;185.428948;0;0;9.98E-07;-2.92E-23;-1.53E-14;0;0;0;-2.92E-23;9.96E-07;-2.42E-28;0;0;0;-1.53E-14;-2.42E-28;9.96E-07;0;0.021258814;185.428948;0;0;0;15.582694;0.500000289;0;0;0;0;2.11E-07;0.000506229;0;0;0;0;0;0;0.000506229;0;0;0;0;0;0;9.97E-07;1.05E-27;-9.22E-24;0;0;0;1.05E-27;9.89E-07;3.39E-32;0;0;0;-9.22E-24;3.39E-32;9.89E-07;0;0;0;0;0;0;0.000178927
2.60109E+11;12986;2.60109E+11;odom;12.5116768;-0.001433853;0;0;0;-5.70E-05;0.999999998;12.99202429;0.26173832;0;0;0;0.021276564;0.26173832;2295.800807;0;0;0;185.584778;0;0;9.98E-07;3.78E-23;-1.53E-14;0;0;0;3.78E-23;9.96E-07;3.13E-28;0;0;0;-1.53E-14;3.13E-28;9.96E-07;0;0.021276564;185.584778;0;0;0;15.58389401;0.500000233;0;0;0;0;-2.74E-07;0.000506229;0;0;0;0;0;0;0.000506229;0;0;0;0;0;0;9.97E-07;1.05E-27;-9.22E-24;0;0;0;1.05E-27;9.89E-07;3.39E-32;0;0;0;-9.22E-24;3.39E-32;9.89E-07;0;0;0;0;0;0;0.000178927
2.60129E+11;12987;2.60129E+11;odom;12.52167681;-0.001434992;0;0;0;-5.70E-05;0.999999998;12.99302477;0.262162656;0;0;0;0.021294315;0.262162656;2299.515063;0;0;0;185.7406199;0;0;9.98E-07;8.81E-24;-1.53E-14;0;0;0;8.81E-24;9.96E-07;7.29E-29;0;0;0;-1.53E-14;7.29E-29;9.96E-07;0;0.021294315;185.7406199;0;0;0;15.58509402;0.500000165;0;0;0;0;-6.40E-08;0.000506229;0;0;0;0;0;0;0.000506229;0;0;0;0;0;0;9.97E-07;1.05E-27;-9.22E-24;0;0;0;1.05E-27;9.89E-07;3.39E-32;0;0;0;-9.22E-24;3.39E-32;9.89E-07;0;0;0;0;0;0;0.000178927
2.60149E+11;12988;2.60149E+11;odom;12.53167681;-0.001436131;0;0;0;-5.70E-05;0.999999998;12.99402524;0.262587349;0;0;0;0.021312068;0.262587349;2303.232436;0;0;0;185.8964739;0;0;9.98E-07;-1.04E-23;-1.53E-14;0;0;0;-1.04E-23;9.96E-07;-8.63E-29;0;0;0;-1.53E-14;-8.63E-29;9.96E-07;0;0.021312068;185.8964739;0;0;0;15.58629404;0.500000086;0;0;0;0;7.50E-08;0.000506229;0;0;0;0;0;0;0.000506229;0;0;0;0;0;0;9.97E-07;1.05E-27;-9.22E-24;0;0;0;1.05E-27;9.89E-07;3.39E-32;0;0;0;-9.22E-24;3.39E-32;9.89E-07;0;0;0;0;0;0;0.000178927
2.60169E+11;12989;2.60169E+11;odom;12.54167681;-0.00143727;0;0;0;-5.70E-05;0.999999998;12.99502571;0.263012397;0;0;0;0.021329822;0.263012397;2306.952925;0;0;0;186.0523398;0;0;9.98E-07;1.51E-23;-1.53E-14;0;0;0;1.51E-23;9.96E-07;1.25E-28;0;0;0;-1.53E-14;1.25E-28;9.96E-07;0;0.021329822;186.0523398;0;0;0;15.58749405;0.50000001;0;0;0;0;-1.09E-07;0.000506229;0;0;0;0;0;0;0.000506229;0;0;0;0;0;0;9.97E-07;1.05E-27;-9.22E-24;0;0;0;1.05E-27;9.89E-07;3.39E-32;0;0;0;-9.22E-24;3.39E-32;9.89E-07;0;0;0;0;0;0;0.000178927
2.60189E+11;12990;2.60189E+11;odom;12.55167681;-0.001438409;0;0;0;-5.70E-05;0.999999998;12.99602618;0.263437802;0;0;0;0.021347578;0.263437802;2310.676531;0;0;0;186.2082177;0;0;9.98E-07;-7.32E-24;-1.53E-14;0;0;0;-7.32E-24;9.96E-07;-6.06E-29;0;0;0;-1.53E-14;-6.06E-29;9.96E-07;0;0.021347578;186.2082177;0;0;0;15.58869406;0.499999968;0;0;0;0;5.29E-08;0.000506229;0;0;0;0;0;0;0.000506229;0;0;0;0;0;0;9.97E-07;1.05E-27;-9.22E-24;0;0;0;1.05E-27;9.89E-07;3.39E-32;0;0;0;-9.22E-24;3.39E-32;9.89E-07;0;0;0;0;0;0;0.000178927
2.60209E+11;12991;2.60209E+11;odom;12.5616768;-0.001439548;0;0;0;-5.70E-05;0.999999998;12.99702665;0.263863561;0;0;0;0.021365335;0.263863561;2314.403254;0;0;0;186.3641076;0;0;9.98E-07;4.62E-24;-1.53E-14;0;0;0;4.62E-24;9.96E-07;3.82E-29;0;0;0;-1.53E-14;3.82E-29;9.96E-07;0;0.021365335;186.3641076;0;0;0;15.58989407;0.499999943;0;0;0;0;-3.33E-08;0.000506229;0;0;0;0;0;0;0.000506229;0;0;0;0;0;0;9.97E-07;1.05E-27;-9.22E-24;0;0;0;1.05E-27;9.89E-07;3.39E-32;0;0;0;-9.22E-24;3.39E-32;9.89E-07;0;0;0;0;0;0;0.000178927
2.60229E+11;12992;2.60229E+11;odom;12.5716768;-0.001440687;0;0;0;-5.70E-05;0.999999998;12.99802712;0.264289676;0;0;0;0.021383094;0.264289676;2318.133095;0;0;0;186.5200095;0;0;9.98E-07;-3.17E-24;-1.53E-14;0;0;0;-3.17E-24;9.96E-07;-2.63E-29;0;0;0;-1.53E-14;-2.63E-29;9.96E-07;0;0.021383094;186.5200095;0;0;0;15.59109408;0.499999927;0;0;0;0;2.31E-08;0.000506229;0;0;0;0;0;0;0.000506229;0;0;0;0;0;0;9.97E-07;1.05E-27;-9.22E-24;0;0;0;1.05E-27;9.89E-07;3.39E-32;0;0;0;-9.22E-24;3.39E-32;9.89E-07;0;0;0;0;0;0;0.000178927
2.60249E+11;12993;2.60249E+11;odom;12.5816768;-0.001441826;0;0;0;-5.70E-05;0.999999998;12.99902759;0.264716146;0;0;0;0.021400854;0.264716146;2321.866055;0;0;0;186.6759234;0;0;9.98E-07;-1.59E-23;-1.53E-14;0;0;0;-1.59E-23;9.96E-07;-1.31E-28;0;0;0;-1.53E-14;-1.31E-28;9.96E-07;0;0.021400854;186.6759234;0;0;0;15.5922941;0.499999916;0;0;0;0;1.15E-07;0.000506229;0;0;0;0;0;0;0.000506229;0;0;0;0;0;0;9.97E-07;1.05E-27;-9.22E-24;0;0;0;1.05E-27;9.89E-07;3.39E-32;0;0;0;-9.22E-24;3.39E-32;9.89E-07;0;0;0;0;0;0;0.000178927
2.60269E+11;12994;2.60269E+11;odom;12.5916768;-0.001442965;0;0;0;-5.70E-05;0.999999998;13.00002807;0.265142966;0;0;0;0.021418614;0.265142966;2325.602132;0;0;0;186.8318493;0;0;9.98E-07;-2.16E-23;-1.53E-14;0;0;0;-2.16E-23;9.96E-07;-1.79E-28;0;0;0;-1.53E-14;-1.79E-28;9.96E-07;0;0.021418614;186.8318493;0;0;0;15.59349411;0.499999906;0;0;0;0;1.56E-07;0.000506229;0;0;0;0;0;0;0.000506229;0;0;0;0;0;0;9.97E-07;1.05E-27;-9.22E-24;0;0;0;1.05E-27;9.89E-07;3.39E-32;0;0;0;-9.22E-24;3.39E-32;9.89E-07;0;0;0;0;0;0;0.000178927
2.60289E+11;12995;2.60289E+11;odom;12.6016768;-0.001444105;0;0;0;-5.69E-05;0.999999998;13.00102854;0.265570136;0;0;0;0.021436376;0.265570136;2329.341328;0;0;0;186.9877872;0;0;9.98E-07;-3.30E-23;-1.53E-14;0;0;0;-3.30E-23;9.96E-07;-2.73E-28;0;0;0;-1.53E-14;-2.73E-28;9.96E-07;0;0.021436376;186.9877872;0;0;0;15.59469412;0.499999896;0;0;0;0;2.39E-07;0.000506229;0;0;0;0;0;0;0.000506229;0;0;0;0;0;0;9.97E-07;1.05E-27;-9.22E-24;0;0;0;1.05E-27;9.89E-07;3.39E-32;0;0;0;-9.22E-24;3.39E-32;9.89E-07;0;0;0;0;0;0;0.000178927
2.60309E+11;12996;2.60309E+11;odom;12.61167679;-0.001445244;0;0;0;-5.69E-05;0.999999998;13.00202901;0.265997654;0;0;0;0.021454139;0.265997654;2333.083643;0;0;0;187.1437371;0;0;9.98E-07;1.67E-23;-1.53E-14;0;0;0;1.67E-23;9.96E-07;1.38E-28;0;0;0;-1.53E-14;1.38E-28;9.96E-07;0;0.021454139;187.1437371;0;0;0;15.59589413;0.499999887;0;0;0;0;-1.21E-07;0.000506229;0;0;0;0;0;0;0.000506229;0;0;0;0;0;0;9.97E-07;1.05E-27;-9.22E-24;0;0;0;1.05E-27;9.89E-07;3.39E-32;0;0;0;-9.22E-24;3.39E-32;9.89E-07;0;0;0;0;0;0;0.000178927
2.60329E+11;12997;2.60329E+11;odom;12.62167679;-0.001446382;0;0;0;-5.70E-05;0.999999998;13.00302948;0.266425529;0;0;0;0.021471903;0.266425529;2336.829077;0;0;0;187.2996989;0;0;9.98E-07;6.92E-25;-1.53E-14;0;0;0;6.92E-25;9.96E-07;5.73E-30;0;0;0;-1.53E-14;5.73E-30;9.96E-07;0;0.021471903;187.2996989;0;0;0;15.59709414;0.499999877;0;0;0;0;-4.80E-09;0.000506229;0;0;0;0;0;0;0.000506229;0;0;0;0;0;0;9.97E-07;1.05E-27;-9.22E-24;0;0;0;1.05E-27;9.89E-07;3.39E-32;0;0;0;-9.22E-24;3.39E-32;9.89E-07;0;0;0;0;0;0;0.000178927
2.60349E+11;12998;2.60349E+11;odom;12.63167679;-0.001447521;0;0;0;-5.69E-05;0.999999998;13.00402995;0.26685376;0;0;0;0.021489668;0.26685376;2340.57763;0;0;0;187.4556728;0;0;9.98E-07;-4.40E-24;-1.53E-14;0;0;0;-4.40E-24;9.96E-07;-3.64E-29;0;0;0;-1.53E-14;-3.64E-29;9.96E-07;0;0.021489668;187.4556728;0;0;0;15.59829416;0.499999867;0;0;0;0;3.20E-08;0.000506229;0;0;0;0;0;0;0.000506229;0;0;0;0;0;0;9.97E-07;1.05E-27;-9.22E-24;0;0;0;1.05E-27;9.89E-07;3.39E-32;0;0;0;-9.22E-24;3.39E-32;9.89E-07;0;0;0;0;0;0;0.000178927
2.60369E+11;12999;2.60369E+11;odom;12.64167679;-0.001448661;0;0;0;-5.70E-05;0.999999998;13.00503042;0.267282347;0;0;0;0.021507435;0.267282347;2344.329303;0;0;0;187.6116587;0;0;9.98E-07;2.54E-23;-1.53E-14;0;0;0;2.54E-23;9.96E-07;2.10E-28;0;0;0;-1.53E-14;2.10E-28;9.96E-07;0;0.021507435;187.6116587;0;0;0;15.59949417;0.499999857;0;0;0;0;-1.83E-07;0.000506229;0;0;0;0;0;0;0.000506229;0;0;0;0;0;0;9.97E-07;1.05E-27;-9.22E-24;0;0;0;1.05E-27;9.89E-07;3.39E-32;0;0;0;-9.22E-24;3.39E-32;9.89E-07;0;0;0;0;0;0;0.000178927
2.60389E+11;13000;2.60389E+11;odom;12.65167678;-0.0014498;0;0;0;-5.70E-05;0.999999998;13.0060309;0.267711294;0;0;0;0.021525203;0.267711294;2348.084095;0;0;0;187.7676566;0;0;9.98E-07;2.11E-24;-1.53E-14;0;0;0;2.11E-24;9.96E-07;1.75E-29;0;0;0;-1.53E-14;1.75E-29;9.96E-07;0;0.021525203;187.7676566;0;0;0;15.60069418;0.499999847;0;0;0;0;-1.50E-08;0.000506229;0;0;0;0;0;0;0.000506229;0;0;0;0;0;0;9.97E-07;1.05E-27;-9.22E-24;0;0;0;1.05E-27;9.89E-07;3.39E-32;0;0;0;-9.22E-24;3.39E-32;9.89E-07;0;0;0;0;0;0;0.000178927
2.60409E+11;13001;2.60409E+11;odom;12.66167678;-0.001450939;0;0;0;-5.70E-05;0.999999998;13.00703137;0.268140597;0;0;0;0.021542974;0.268140597;2351.842008;0;0;0;187.9236664;0;0;9.98E-07;-6.44E-25;-1.53E-14;0;0;0;-6.44E-25;9.96E-07;-5.33E-30;0;0;0;-1.53E-14;-5.33E-30;9.96E-07;0;0.021542974;187.9236664;0;0;0;15.60189419;0.499999836;0;0;0;0;4.88E-09;0.000506229;0;0;0;0;0;0;0.000506229;0;0;0;0;0;0;9.97E-07;1.05E-27;-9.22E-24;0;0;0;1.05E-27;9.89E-07;3.39E-32;0;0;0;-9.22E-24;3.39E-32;9.89E-07;0;0;0;0;0;0;0.000178927
2.60429E+11;13002;2.60429E+11;odom;12.67167678;-0.001452078;0;0;0;-5.69E-05;0.999999998;13.00803184;0.268570253;0;0;0;0.021560745;0.268570253;2355.60304;0;0;0;188.0796883;0;0;9.98E-07;-8.95E-23;-1.53E-14;0;0;0;-8.95E-23;9.96E-07;-7.41E-28;0;0;0;-1.53E-14;-7.41E-28;9.96E-07;0;0.021560745;188.0796883;0;0;0;15.6030942;0.499999825;0;0;0;0;6.47E-07;0.000506229;0;0;0;0;0;0;0.000506229;0;0;0;0;0;0;9.97E-07;1.05E-27;-9.22E-24;0;0;0;1.05E-27;9.89E-07;3.39E-32;0;0;0;-9.22E-24;3.39E-32;9.89E-07;0;0;0;0;0;0;0.000178927
2.60449E+11;13003;2.60449E+11;odom;12.68167677;-0.001453217;0;0;0;-5.69E-05;0.999999998;13.00903231;0.269000248;0;0;0;0.021578516;0.269000248;2359.367194;0;0;0;188.2357221;0;0;9.98E-07;2.10E-23;-1.53E-14;0;0;0;2.10E-23;9.96E-07;1.74E-28;0;0;0;-1.53E-14;1.74E-28;9.96E-07;0;0.021578516;188.2357221;0;0;0;15.60429422;0.499999814;0;0;0;0;-1.52E-07;0.000506229;0;0;0;0;0;0;0.000506229;0;0;0;0;0;0;9.97E-07;1.05E-27;-9.22E-24;0;0;0;1.05E-27;9.89E-07;3.39E-32;0;0;0;-9.22E-24;3.39E-32;9.89E-07;0;0;0;0;0;0;0.000178927
2.60469E+11;13004;2.60469E+11;odom;12.69167677;-0.001454355;0;0;0;-5.69E-05;0.999999998;13.01003278;0.269430597;0;0;0;0.021596288;0.269430597;2363.134467;0;0;0;188.391768;0;0;9.98E-07;-3.48E-23;-1.53E-14;0;0;0;-3.48E-23;9.96E-07;-2.88E-28;0;0;0;-1.53E-14;-2.88E-28;9.96E-07;0;0.021596288;188.391768;0;0;0;15.60549423;0.499999803;0;0;0;0;2.52E-07;0.000506229;0;0;0;0;0;0;0.000506229;0;0;0;0;0;0;9.97E-07;1.05E-27;-9.22E-24;0;0;0;1.05E-27;9.89E-07;3.39E-32;0;0;0;-9.22E-24;3.39E-32;9.89E-07;0;0;0;0;0;0;0.000178927
2.60489E+11;13005;2.60489E+11;odom;12.70167676;-0.001455494;0;0;0;-5.69E-05;0.999999998;13.01103326;0.269861293;0;0;0;0.021614062;0.269861293;2366.904862;0;0;0;188.5478258;0;0;9.98E-07;-7.18E-23;-1.53E-14;0;0;0;-7.18E-23;9.96E-07;-5.94E-28;0;0;0;-1.53E-14;-5.94E-28;9.96E-07;0;0.021614062;188.5478258;0;0;0;15.60669424;0.499999791;0;0;0;0;5.19E-07;0.000506229;0;0;0;0;0;0;0.000506229;0;0;0;0;0;0;9.97E-07;1.05E-27;-9.22E-24;0;0;0;1.05E-27;9.89E-07;3.39E-32;0;0;0;-9.22E-24;3.39E-32;9.89E-07;0;0;0;0;0;0;0.000178927
2.60509E+11;13006;2.60509E+11;odom;12.71167676;-0.001456633;0;0;0;-5.69E-05;0.999999998;13.01203373;0.270292329;0;0;0;0.021631835;0.270292329;2370.678378;0;0;0;188.7038957;0;0;9.98E-07;-2.36E-23;-1.53E-14;0;0;0;-2.36E-23;9.96E-07;-1.95E-28;0;0;0;-1.53E-14;-1.95E-28;9.96E-07;0;0.021631835;188.7038957;0;0;0;15.60789425;0.49999978;0;0;0;0;1.71E-07;0.000506229;0;0;0;0;0;0;0.000506229;0;0;0;0;0;0;9.97E-07;1.05E-27;-9.22E-24;0;0;0;1.05E-27;9.89E-07;3.39E-32;0;0;0;-9.22E-24;3.39E-32;9.89E-07;0;0;0;0;0;0;0.000178927
2.60529E+11;13007;2.60529E+11;odom;12.72167675;-0.001457772;0;0;0;-5.69E-05;0.999999998;13.0130342;0.270723711;0;0;0;0.021649608;0.270723711;2374.455016;0;0;0;188.8599775;0;0;9.98E-07;-8.66E-24;-1.53E-14;0;0;0;-8.66E-24;9.96E-07;-7.16E-29;0;0;0;-1.53E-14;-7.16E-29;9.96E-07;0;0.021649608;188.8599775;0;0;0;15.60909426;0.499999769;0;0;0;0;6.28E-08;0.000506229;0;0;0;0;0;0;0.000506229;0;0;0;0;0;0;9.97E-07;1.05E-27;-9.22E-24;0;0;0;1.05E-27;9.89E-07;3.39E-32;0;0;0;-9.22E-24;3.39E-32;9.89E-07;0;0;0;0;0;0;0.000178927
2.60549E+11;13008;2.60549E+11;odom;12.73167675;-0.001458911;0;0;0;-5.69E-05;0.999999998;13.01403467;0.271155446;0;0;0;0.021667383;0.271155446;2378.234775;0;0;0;189.0160714;0;0;9.98E-07;-2.21E-23;-1.53E-14;0;0;0;-2.21E-23;9.96E-07;-1.83E-28;0;0;0;-1.53E-14;-1.83E-28;9.96E-07;0;0.021667383;189.0160714;0;0;0;15.61029428;0.499999757;0;0;0;0;1.60E-07;0.000506229;0;0;0;0;0;0;0.000506229;0;0;0;0;0;0;9.97E-07;1.05E-27;-9.22E-24;0;0;0;1.05E-27;9.89E-07;3.39E-32;0;0;0;-9.22E-24;3.39E-32;9.89E-07;0;0;0;0;0;0;0.000178927
2.60569E+11;13009;2.60569E+11;odom;12.74167674;-0.001460049;0;0;0;-5.69E-05;0.999999998;13.01503514;0.271587532;0;0;0;0.021685159;0.271587532;2382.017656;0;0;0;189.1721772;0;0;9.98E-07;1.99E-23;-1.53E-14;0;0;0;1.99E-23;9.96E-07;1.64E-28;0;0;0;-1.53E-14;1.64E-28;9.96E-07;0;0.021685159;189.1721772;0;0;0;15.61149429;0.499999746;0;0;0;0;-1.43E-07;0.000506229;0;0;0;0;0;0;0.000506229;0;0;0;0;0;0;9.97E-07;1.05E-27;-9.22E-24;0;0;0;1.05E-27;9.89E-07;3.39E-32;0;0;0;-9.22E-24;3.39E-32;9.89E-07;0;0;0;0;0;0;0.000178927
2.6058E+11;13010;2.6058E+11;odom;12.74717674;-0.001460676;0;0;0;-5.69E-05;0.999999998;13.01558558;0.271825332;0;0;0;0.021694937;0.271825332;2384.099571;0;0;0;189.2580404;0;0;5.00E-07;9.86E-24;-6.25E-15;0;0;0;9.86E-24;4.99E-07;1.63E-28;0;0;0;-6.25E-15;1.63E-28;4.99E-07;0;0.021694937;189.2580404;0;0;0;15.6121543;0.499999745;0;0;0;0;1.79E-07;0.000790086;0;0;0;0;0;0;0.000790086;0;0;0;0;0;0;4.99E-07;1.72E-27;-1.51E-23;0;0;0;1.72E-27;4.98E-07;1.11E-31;0;0;0;-1.51E-23;1.11E-31;4.98E-07;0;0;0;0;0;0;1.00E-09
2.60609E+11;13011;2.60609E+11;odom;12.76167673;-0.001462327;0;0;0;-5.69E-05;0.999999998;13.01703609;0.27245277;0;0;0;0.021720715;0.27245277;2389.592785;0;0;0;189.4844249;0;0;9.98E-07;-6.66E-24;-1.53E-14;0;0;0;-6.66E-24;9.96E-07;-5.51E-29;0;0;0;-1.53E-14;-5.51E-29;9.96E-07;0;0.021720715;189.4844249;0;0;0;15.61389431;0.499999723;0;0;0;0;4.84E-08;0.000506229;0;0;0;0;0;0;0.000506229;0;0;0;0;0;0;9.97E-07;1.05E-27;-9.22E-24;0;0;0;1.05E-27;9.89E-07;3.39E-32;0;0;0;-9.22E-24;3.39E-32;9.89E-07;0;0;0;0;0;0;0.000178927
2.60629E+11;13012;2.60629E+11;odom;12.77167673;-0.001463465;0;0;0;-5.69E-05;0.999999998;13.01803656;0.272885918;0;0;0;0.021738495;0.272885918;2393.385033;0;0;0;189.6405667;0;0;9.98E-07;-2.30E-23;-1.53E-14;0;0;0;-2.30E-23;9.96E-07;-1.90E-28;0;0;0;-1.53E-14;-1.90E-28;9.96E-07;0;0.021738495;189.6405667;0;0;0;15.61509432;0.499999712;0;0;0;0;1.66E-07;0.000506229;0;0;0;0;0;0;0.000506229;0;0;0;0;0;0;9.97E-07;1.05E-27;-9.22E-24;0;0;0;1.05E-27;9.89E-07;3.39E-32;0;0;0;-9.22E-24;3.39E-32;9.89E-07;0;0;0;0;0;0;0.000178927
2.60649E+11;13013;2.60649E+11;odom;12.78167672;-0.001464604;0;0;0;-5.69E-05;0.999999998;13.01903703;0.273319416;0;0;0;0.021756276;0.273319416;2397.180404;0;0;0;189.7967205;0;0;9.98E-07;2.20E-23;-1.53E-14;0;0;0;2.20E-23;9.96E-07;1.82E-28;0;0;0;-1.53E-14;1.82E-28;9.96E-07;0;0.021756276;189.7967205;0;0;0;15.61629433;0.499999701;0;0;0;0;-1.58E-07;0.000506229;0;0;0;0;0;0;0.000506229;0;0;0;0;0;0;9.97E-07;1.05E-27;-9.22E-24;0;0;0;1.05E-27;9.89E-07;3.39E-32;0;0;0;-9.22E-24;3.39E-32;9.89E-07;0;0;0;0;0;0;0.000178927
