%time,field.x,field.y,field.z
1524837432201695919,0.0,0.0,0.0
1524837432245769023,0.00531558869672,-0.00657790151386,0.0
1524837432255532026,0.00531569430636,-0.00657790160209,0.0
1524837432294440984,0.00531603205498,-0.00657790163602,0.0
1524837432310951948,0.00531613820978,-0.00657806641238,0.0
1524837432329277038,0.00531619097689,-0.00657806641354,0.0
1524837432355968952,0.00531624374444,-0.00657806641391,0.0
1524837432378761053,0.00531627540511,-0.00657806641385,0.0
1524837432411519050,0.00531643370831,-0.00657806641304,0.0
1524837432429799079,0.005330938159,-0.00657824257497,0.0
1524837432453028917,0.00533095824259,-0.00657824256235,0.0
1524837432476074934,0.00533098632333,-0.00657824258274,0.0
1524837432512586116,0.00533109980945,-0.00657824261424,0.0
1524837432531915903,0.00533115308803,-0.00657824261995,0.0
1524837432562357902,0.005343437646,-0.00657833075385,0.0
1524837432583776950,0.00566572906403,-0.00657832798935,0.0
1524837432605493068,0.00577339471724,-0.00657832738434,0.0
1524837432633675098,0.0111492761166,-0.00657829658707,0.0
1524837432661678075,0.0164025092658,-0.00657832645452,0.0
1524837432682796955,0.0212873463526,-0.00657830628814,0.0
1524837432708053112,0.0272888400421,-0.00657828181194,0.0
1524837432730720043,0.0345132289483,-0.00657825258272,0.0
1524837432756521940,0.0429887855522,-0.00657821848742,0.0
1524837432783739089,0.0699989313668,-0.00657810985725,0.0
1524837432814764976,0.0684768352084,-0.00639849219801,0.0
1524837432838568925,0.0986929430461,-0.00639835470718,0.0
1524837432859462022,0.115679996201,-0.00639829103008,0.0
1524837432883466005,0.126278415538,-0.00639825285902,0.0
1524837432907942056,0.152101186259,-0.00639815803639,0.0
1524837432934519052,0.171561318815,-0.00639808573924,0.0
1524837432960858106,0.191358825567,-0.00639797610102,0.0
1524837432986705064,0.113436451353,-0.00635366566304,0.0
1524837433015594005,0.153796649503,-0.00635375887735,0.0
1524837433035608053,0.197284036301,-0.0154109800277,0.0
1524837433066399097,0.237903369283,-0.015416240133,0.0
1524837433084400892,0.258200528801,-0.0154187255752,0.0
1524837433107748985,0.268438828782,-0.0154199961609,0.0
1524837433137331008,0.298741091337,-0.0154235928831,0.0
1524837433157154083,0.308976802758,-0.0154248343147,0.0
1524837433192631006,0.312558012352,-0.00735014064312,0.0
1524837433214103937,0.332866111284,-0.00734771390912,0.0
1524837433237982034,0.365563471896,-0.00734386405848,0.0
1524837433263238906,0.41423689507,-0.00733826563865,0.0
1524837433293622970,0.474604867847,-0.00553385889561,0.0
1524837433316683053,0.49490557939,-0.00553915279489,0.0
1524837433340797901,0.515178866323,-0.00554446012885,0.0
1524837433362608909,0.535436099639,-0.00554977246287,0.0
1524837433391392946,0.56804958541,-0.00555832642391,0.0
1524837433418931007,0.608731882487,-0.00556900827763,0.0
1524837433442100048,0.560280013017,0.00214534764729,0.0
1524837433466512918,0.580671315754,0.00214990058932,0.0
1524837433491324901,0.609090591671,0.00215606853826,0.0
1524837433516541004,0.629293975775,0.00216035563728,0.0
1524837433543857097,0.683387250358,0.000958419466443,0.0
1524837433565812110,0.715958157484,0.000959871100131,0.0
1524837433594404935,0.756502666842,0.000961696277076,0.0
1524837433616236925,0.776805948676,0.000962612403783,0.0
1524837433640723943,0.805127953969,0.00096388809945,0.0
1524837433668073892,0.839227434675,0.00479162416599,0.0
1524837433691452026,0.859553057497,0.00479336905236,0.0
1524837433717130899,0.879865660951,0.00479503914153,0.0
1524837433742338895,0.900161931732,0.00479666728029,0.0
1524837433776437044,0.948640081437,0.00480047312619,0.0
1524837433793926954,0.960768487948,0.00480141416186,0.0
1524837433824490070,0.996893631873,0.0025558222446,0.0
1524837433852561950,1.04551673109,0.00255435057265,0.0
1524837433865607023,1.05567685355,0.0025540576621,0.0
1524837433901472091,1.09816887815,0.00255283709402,0.0
1524837433917339086,1.11839303752,0.00255225988707,0.0
1524837433949090003,1.10198621349,-0.000789559407901,0.0
1524837433969942092,1.13030965602,-0.000781632775474,0.0
1524837433999738931,1.16258137389,-0.000772462800811,0.0
1524837434016968011,1.17453116322,0.00105649070434,0.0
1524837434044852972,1.22308869122,0.00107508738156,0.0
1524837434066082954,1.23322218845,0.00107895515328,0.0
1524837434098993062,1.26336908988,0.00109036685559,0.0
1524837434116472005,1.27348386992,0.00109420967771,0.0
1524837434146711111,1.31589596651,0.00111028660875,0.0
1524837434178332090,1.35627745488,0.00112558466339,0.0
1524837434194812059,1.36642497685,0.00112943614842,0.0
1524837434224296092,1.39686787512,0.0011409806373,0.0
1524837434258348941,1.43712468955,0.00115621789427,0.0
1524837434276307106,1.45728662694,0.00116385309874,0.0
1524837434299434900,1.4774524423,0.00117149061482,0.0
1524837434323484897,1.49761926436,0.00117912897603,0.0
1524837434354624986,1.5379506141,0.00119440573618,0.0
1524837434380930900,1.55811381663,0.00120204346067,0.0
1524837434407567024,1.57827494094,0.00120968065049,0.0
1524837434430402994,1.59843384478,0.00121731690223,0.0
1524837434457657098,1.61859046173,0.00122495257315,0.0
1524837434477710962,1.63874477047,0.00123258728623,0.0
1524837434512685060,1.68698394119,0.00125085764001,0.0
1524837434527597904,1.70707274666,0.00125846612174,0.0
1524837434552206993,1.72716390954,0.00126607615477,0.0
1524837434584408044,1.76734671568,0.00128129760432,0.0
1524837434603358983,1.78743694265,0.0012889081792,0.0
1524837434631225109,1.80752599161,0.00129651846822,0.0
1524837434652343988,1.82761375349,0.00130412829006,0.0
1524837434677431106,1.85983072403,0.00131634004005,0.0
1524837434705883026,1.86782392129,0.00131936365008,0.0
1524837434729501962,1.88790917592,0.00132697243202,0.0
1524837434756130933,1.94019872385,0.00134678801524,0.0
1524837434777942895,1.96032040638,0.00135441215249,0.0
1524837434809827089,1.9884421139,0.00136506628024,0.0
1524837434827378034,2.00050204391,0.00136963405178,0.0
1524837434860661983,2.02061804892,0.0013772563134,0.0
1524837434881889104,2.04873793741,0.0013879108028,0.0
1524837434909909009,2.08886864925,0.00140311371579,0.0
1524837434927995920,2.10893634321,0.0014107169189,0.0
1524837434953486919,2.12900405138,0.00141832050268,0.0
1524837434980849027,2.13905992798,0.00142213363454,0.0
1524837435015486955,2.1891966851,0.00144112789894,0.0
1524837435030283927,2.20926107487,0.00144873117477,0.0
1524837435053894042,2.21931300168,0.00145254309165,0.0
1524837435086029052,2.24145899069,0.00146093938246,0.0
1524837435110289096,2.28157394107,0.00147614089227,0.0
1524837435129914045,2.29163926768,0.00147995924529,0.0
1524837435162715911,2.3297084164,0.00149438332551,0.0
1524837435180941104,2.34976163813,0.0015019838405,0.0
1524837435208513975,2.38987219928,0.00151718833795,0.0
1524837435229325056,2.39991751465,0.00152099877969,0.0
1524837435258347988,2.44209297312,0.00153698946766,0.0
1524837435283284902,2.46217594352,0.00154460384437,0.0
1524837435303977966,2.47223640083,0.001548421047,0.0
1524837435345381021,2.51028759372,0.00156284136007,0.0
1524837435358067989,2.52033236719,0.00156665209995,0.0
1524837435382978916,2.56246567471,0.00158262938177,0.0
1524837435404454946,2.57251781851,0.00158644391882,0.0
1524837435433279037,2.6106149496,0.00160088831792,0.0
1524837435457361936,2.63065595875,0.00160848739318,0.0
1524837435481724977,2.65070005354,0.00161608827214,0.0
1524837435508416891,2.69079061173,0.00163129184759,0.0
1524837435536139965,2.71083581779,0.00163889381694,0.0
1524837435557141065,2.74297268568,0.00165108596702,0.0
1524837435587060928,2.76303472746,0.00165869440621,0.0
1524837435604681968,2.7730832444,0.00166250761949,0.0
1524837435640017986,2.81116874575,0.00167694936985,0.0
1524837435663918018,2.84327798515,0.00168912948368,0.0
1524837435680047988,2.85332223751,0.00169294112371,0.0
1524837435713438987,2.88340117001,0.00170434720808,0.0
1524837435733172893,2.90346299083,0.00171195646526,0.0
1524837435761435031,2.94358547524,0.00172717494582,0.0
1524837435783895015,2.96364585869,0.0017347840932,0.0
1524837435808867931,2.99484451206,0.0182877469081,0.0
1524837435836884975,3.01491801668,0.0182939073809,0.0
1524837435855577945,3.02496033706,0.0182969994476,0.0
1524837435891495943,3.08309731878,0.0183146557134,0.0
1524837435915291070,3.08677889217,0.0181595986871,0.0
1524837435932600021,3.11485239803,0.0181620883024,0.0
1524837435961311101,3.13489428028,0.0181638576208,0.0
1524837435981394052,3.14492094128,0.0181647522355,0.0
1524837436020112037,3.19500647491,0.0181691576549,0.0
1524837436037923097,3.23333687934,0.00107219233666,0.0
1524837436061681032,3.2654182446,0.00106412900442,0.0
1524837436085247039,3.28547119768,0.00105940571257,0.0
1524837436107489109,3.29550278742,0.00105700106479,0.0
1524837436136548042,3.32557486421,0.00105021569917,0.0
1524837436167237043,3.36565652398,0.001041146408,0.0
1524837436186315059,3.29950237984,-0.00307134988863,0.0
1524837436210717916,3.35163095165,-0.00307757549995,0.0
1524837436234357118,3.36165969799,-0.00307874899139,0.0
1524837436259288072,3.36164047248,-0.00307861673431,0.0
1524837436296678066,3.48866137479,-0.00369413739488,0.0
1524837436311709880,3.52073749775,-0.00370052175018,0.0
1524837436340497016,3.56082960004,-0.00370841613683,0.0
1524837436366890907,3.58087446233,-0.00371235128768,0.0
1524837436390611886,3.60091859519,-0.00371628238419,0.0
1524837436410842895,3.60260796712,-0.004388497791,0.0
1524837436440398931,3.62265846282,-0.00439004561865,0.0
1524837436462178945,3.63268602946,-0.0043908293196,0.0
1524837436492388010,3.65071062787,-0.00439213860433,0.0
1524837436524827957,3.72284115289,-0.00439745719626,0.0
1524837436542135953,3.68415491481,-0.012420228922,0.0
1524837436572242975,3.744276327,-0.0124315324788,0.0
1524837436589653968,3.76431558661,-0.012434998262,0.0
1524837436613110065,3.78435414195,-0.0124384196275,0.0
1524837436637512922,3.79437757267,-0.0124401850475,0.0
1524837436665766000,3.82440089472,-0.0193777606657,0.0
1524837436696408033,3.88452076703,-0.0193883826339,0.0
1524837436710975885,3.89454345118,-0.0193901465539,0.0
1524837436747102975,3.94462764501,-0.0193982287791,0.0
1524837436762259006,3.95464920885,-0.0193999188414,0.0
1524837436793169975,4.01430094315,-0.00994392773421,0.0
1524837436813143968,4.02431959707,-0.00994196387182,0.0
1524837436847462892,4.0663675342,-0.00993481116017,0.0
1524837436867346048,4.09440290691,-0.00993005595364,0.0
1524837436889416933,4.12645023566,-0.00992468285945,0.0
1524837436915633916,4.13646732178,-0.00992302146719,0.0
1524837436952162027,4.12508532618,0.00797187550354,0.0
1524837436977250099,4.13933397551,-0.0120089242345,0.0
1524837436988656997,4.14934836123,-0.0120085017791,0.0
1524837437019396066,4.16736425522,-0.0120071588301,0.0
1524837437050492048,4.28108546599,0.000532840499192,0.0
1524837437067121982,4.29109723499,0.0005356910827,0.0
1524837437095412015,4.30110388638,0.000538421217084,0.0
1524837437121680974,4.32112191861,0.000543967972071,0.0
1524837437146975994,4.36115700602,0.000555012870803,0.0
1524837437165956974,4.29177068345,0.00257615691822,0.0
1524837437204499006,4.34381606058,0.00258417696299,0.0
1524837437217163085,4.37184235996,0.00258843621614,0.0
1524837437245275020,4.40387762469,0.00259329695249,0.0
1524837437264535903,4.4138901756,0.00259481850546,0.0
1524837437294550895,4.46908651894,-0.00560649063669,0.0
1524837437320101022,4.509139509,-0.00561134641028,0.0
1524837437339438915,4.51915409305,-0.00561254833413,0.0
1524837437375235080,4.54918785516,-0.00561571738174,0.0
1524837437394897937,4.58923434144,-0.00561997401431,0.0
1524837437417716979,4.56521157027,0.00892414861846,0.0
1524837437453380107,4.61325515334,0.00893795210112,0.0
1524837437469760894,4.62326421952,0.00894065678241,0.0
1524837437502263069,4.65328333037,0.00894814821876,0.0
1524837437515732049,4.66329160191,0.00895070797926,0.0
1524837437550755977,4.67973097201,0.00541744499451,0.0
1524837437585700988,4.75179898543,0.00541848444203,0.0
1524837437590512037,4.76181009274,0.00541865205131,0.0
1524837437623440027,4.79183817253,0.00541918690173,0.0
1524837437651077032,4.83187675612,0.00541990282727,0.0
1524837437688412904,4.84188788744,0.00542008631433,0.0
1524837437728384017,4.83753264845,0.00643059110975,0.0
1524837437728554964,4.84754305525,0.00643082581633,0.0
1524837437768306016,4.89758947713,0.00643181289217,0.0
1524837437769908905,4.93762570368,0.00643258287075,0.0
1524837437808041095,4.9630021002,0.00561424111093,0.0
1524837437848524093,4.98301449094,0.00561453058,0.0
1524837437848731994,4.99302157057,0.00561467626508,0.0
1524837437888345956,5.02303665446,0.00561513266209,0.0
1524837437893578052,5.04883227474,0.00316983764851,0.0
1524837437933542013,5.08085424715,0.00316823895512,0.0
1524837437973633050,5.12888297289,0.00316604237266,0.0
1524837437973733901,5.13888920307,0.00316559189991,0.0
1524837438012090921,5.18091906618,0.00316373487449,0.0
1524837438017489910,5.19092702517,0.00316329179536,0.0
1524837438059159040,5.22094835689,0.00316197959526,0.0
1524837438096776962,5.23095664233,0.00316153943673,0.0
1524837438136187076,5.28098487195,0.00315935407244,0.0
1524837438136316061,5.30899962047,0.00315813116439,0.0
1524837438178224086,5.31900600231,0.00315769351165,0.0
1524837438178924083,5.34102043443,0.0031567319749,0.0
1524837438216152906,5.36103366564,0.00315585842899,0.0
1524837438217858076,5.37104099844,0.00315542086682,0.0
1524837438258730888,5.42107292425,0.00315323967195,0.0
1524837438296235084,5.43108031141,0.00315280264333,0.0
1524837438335982084,5.4690986765,0.00315114717393,0.0
1524837438336061000,5.50911436956,0.00314940559962,0.0
1524837438376151084,5.51911911576,0.00314896968004,0.0
1524837438378475904,5.56113810286,0.00314714145805,0.0
1524837438417141914,5.6011604697,0.00314540120148,0.0
1524837438456136941,5.61116661153,0.00314496566975,0.0
1524837438456235885,5.62117167547,0.00314453162736,0.0
1524837438496157884,5.63117790891,0.0031440961944,0.0
1524837438502198934,5.66119381024,0.00314279319351,0.0
1524837438540263891,5.72122636628,0.00314018672767,0.0
1524837438581374883,5.73123242589,0.00313975184642,0.0
1524837438581830978,5.7492367853,0.00313897208465,0.0
1524837438621545076,5.80126286341,0.00313671254232,0.0
1524837438625216007,5.81126830446,0.00313627783267,0.0
1524837438664326906,5.82127266271,0.00313584468115,0.0
1524837438704298019,5.83127812022,0.00313541013758,0.0
1524837438704425096,5.84128234625,0.00313497711997,0.0
1524837438744144916,5.88929763143,0.00313289567195,0.0
1524837438753365993,5.89930145379,0.00313246153162,0.0
1524837438791471004,5.9493150793,0.00313029428831,0.0
1524837438828577995,6.0013344874,0.00312803763747,0.0
1524837438828774929,6.02134294142,0.00312717065026,0.0
1524837438869209051,6.03134741854,0.00312673668281,0.0
1524837438877123117,6.04135138474,0.00312630390104,0.0
1524837438916759967,6.1013764864,0.00312370422719,0.0
1524837438957981109,6.11138110344,0.00312327061793,0.0
1524837438958065032,6.12138585029,0.00312283691969,0.0
1524837438997185945,6.1614017412,0.00312110509813,0.0
1524837439007402896,6.20141726527,0.00311937395824,0.0
1524837439048126935,6.2114216467,0.00311894078222,0.0
1524837439084486961,6.22142614383,0.0031185075015,0.0
1524837439084939002,6.24942859288,0.00311729808775,0.0
1524837439124130964,6.25943160178,0.003116865275,0.0
1524837439142678976,6.30144189054,0.0031150501539,0.0
1524837439181056022,6.31144495244,0.00311461766686,0.0
1524837439221160888,6.34945315252,0.00311297629946,0.0
1524837439221506118,6.35945574793,0.00311254413479,0.0
1524837439260027885,6.40146931363,0.00311073064772,0.0
1524837439264611005,6.42947617372,0.00310952310904,0.0
1524837439304075956,6.43947906759,0.00310909162534,0.0
1524837439344729900,6.48149235893,0.00310728115326,0.0
1524837439344908952,6.50149871875,0.00310641958327,0.0
1524837439384589910,6.52150504153,0.00310555824846,0.0
1524837439384686946,6.5315084563,0.00310512741348,0.0
1524837439428405046,6.56151746625,0.00310383658214,0.0
1524837439437278032,6.62953320804,0.00310091240721,0.0
1524837439476264953,6.6395355193,0.00310048253127,0.0
1524837439517137050,6.68954404523,0.00309833554644,0.0
1524837439517378091,6.69954602851,0.00309790605308,0.0
1524837439557383060,6.70954754552,0.00309747705167,0.0
1524837439557507991,6.71954948242,0.00309704767192,0.0
1524837439597333908,6.74955440225,0.00309576061944,0.0
1524837439611296892,6.80156473357,0.0030935296492,0.0
1524837439648385047,6.81156701487,0.00309310059113,0.0
1524837439688143014,6.84157476963,0.00309181451678,0.0
1524837439728229045,6.88158484136,0.00309009987965,0.0
1524837439728415012,6.89158750945,0.00308967106549,0.0
1524837439769506931,6.90158980423,0.00308924275922,0.0
1524837439770124912,6.92159472458,0.00308838571788,0.0
1524837439808285951,6.96160441446,0.00308667205731,0.0
1524837439808419942,6.97160701334,0.00308624349009,0.0
1524837439855211019,7.00961371311,0.00308461634362,0.0
1524837439865282058,7.04961942871,0.00308290406499,0.0
1524837439904206037,7.05962106685,0.00308247589774,0.0
1524837439944214105,7.08962500821,0.00308119219153,0.0
1524837439944312095,7.14163335538,0.00307896700162,0.0
1524837439984116077,7.15163517469,0.0030785390284,0.0
1524837439991488933,7.11382879107,-0.0312528709153,0.0
1524837440027970075,7.12383031563,-0.0312645556323,0.0
1524837440069561958,7.18819765991,-0.0311534163175,0.0
1524837440070158958,7.19819994058,-0.0311592646555,0.0
1524837440108139991,7.2362051521,-0.031181289704,0.0
1524837440108964920,7.24620669023,-0.0311871170736,0.0
1524837440148452997,7.28821422797,-0.0312115304881,0.0
1524837440188076019,7.31718913961,-0.0333547273496,0.0
1524837440188182115,7.32719080229,-0.0333545922307,0.0
1524837440228679895,7.35719622253,-0.0333539841198,0.0
1524837440243160009,7.3972033325,-0.0333531973464,0.0
1524837440280646085,7.40720513215,-0.0333530233969,0.0
1524837440320389032,7.43721031816,-0.0333523885032,0.0
1524837440320564031,7.44721209337,-0.0333522094621,0.0
1524837440360214948,7.49499459476,-0.0241421914059,0.0
1524837440362862110,7.51499691673,-0.024135091773,0.0
1524837440400340080,7.52499813053,-0.0241315305263,0.0
1524837440440295934,7.6217100914,-0.0420984880718,0.0
1524837440440428972,7.6317126016,-0.0421023428039,0.0
1524837440481249094,7.66171759404,-0.0421129237882,0.0
1524837440495775938,7.70172422352,-0.0421270522525,0.0
1524837440536072969,7.71172602293,-0.0421306267644,0.0
1524837440576417922,7.71778054153,-0.0506044331643,0.0
1524837440576560974,7.76578508476,-0.0506229663191,0.0
1524837440617218971,7.77578605915,-0.0506268513354,0.0
1524837440623604059,7.79778917881,-0.050635148629,0.0
1524837440660334110,7.80779043644,-0.0506390058349,0.0
1524837440700579881,7.82881308782,-0.0289118305867,0.0
1524837440700767993,7.87681958557,-0.0288433396856,0.0
1524837440740168094,7.88682081808,-0.0288291619672,0.0
1524837440743395090,7.91682314899,-0.0287873213688,0.0
1524837440780365943,7.95682648467,-0.0287314221661,0.0
1524837440821100950,7.9668273608,-0.0287174475945,0.0
1524837440860260009,7.9888297477,-0.0286867234501,0.0
1524837440860373973,7.98008769233,-0.0399727475317,0.0
1524837440901385068,8.02009032959,-0.0399565566187,0.0
1524837440901935100,8.03009110788,-0.039952482408,0.0
1524837440940023899,8.10679537554,-0.0333979956781,0.0
1524837440947556018,8.14680053626,-0.0333563745717,0.0
1524837440984133005,8.15680190538,-0.0333459685811,0.0
1524837441025171995,8.16680290676,-0.0333356023754,0.0
1524837441025612115,8.18680521702,-0.0333148389849,0.0
1524837441065172910,8.23480901849,-0.0332650248887,0.0
1524837441066047906,8.24480986096,-0.0332546499218,0.0
1524837441104265928,8.26431768441,-0.0373637530073,0.0
1524837441145384073,8.27431842392,-0.0373621635487,0.0
1524837441184041976,8.30432131368,-0.0373570904723,0.0
1524837441184132099,8.34136206321,-0.0314613984018,0.0
1524837441224102973,8.35136253898,-0.0314591358815,0.0
1524837441225728988,8.38136476016,-0.0314525873264,0.0
1524837441264960050,8.42136710632,-0.0314438634503,0.0
1524837441304286003,8.45554164566,-0.0213735506134,0.0
1524837441304435968,8.47554421255,-0.0213556334026,0.0
1524837441345293998,8.49554601472,-0.021337943144,0.0
1524837441355288982,8.51554747433,-0.0213203522442,0.0
1524837441392126083,8.52554825946,-0.0213115334331,0.0
1524837441432220935,8.61673348062,-0.0333309976997,0.0
1524837441432528018,8.63673504873,-0.0333116177628,0.0
1524837441472477912,8.64673597442,-0.0333019388659,0.0
1524837441474641084,8.66873791607,-0.0332805747218,0.0
1524837441512233018,8.71674082686,-0.033233872165,0.0
1524837441552263021,8.72674153042,-0.0332241417161,0.0
1524837441592204093,8.73869797258,-0.0382679536528,0.0
1524837441592333078,8.77869957562,-0.0382416619384,0.0
1524837441633248090,8.8187013722,-0.0382153314754,0.0
1524837441633760929,8.82870184676,-0.0382087556941,0.0
1524837441672473907,8.838702276,-0.0382021591899,0.0
1524837441674695968,8.84384516968,-0.0348419730572,0.0
1524837441712457895,8.9038484216,-0.0348226156101,0.0
1524837441752562999,8.9238493345,-0.0348162287976,0.0
1524837441792021989,8.95585112882,-0.0348060164145,0.0
1524837441792133092,8.96585173199,-0.0348028274168,0.0
1524837441832986116,8.99585370972,-0.0347932674671,0.0
1524837441838103055,9.03377527322,-0.0287741885795,0.0
1524837441876019954,9.04377566454,-0.0287713045343,0.0
1524837441916496992,9.07377717,-0.0287629118393,0.0
1524837441916635036,9.06719708675,-0.0551045997984,0.0
1524837441956635951,9.10719817773,-0.0551274265386,0.0
1524837441956759929,9.14719956713,-0.0551487598712,0.0
1524837441996120929,9.15719991092,-0.0551541104436,0.0
1524837442009572982,9.17920116424,-0.055165589212,0.0
1524837442048235893,9.18920163953,-0.0551708973289,0.0
1524837442088128089,9.22720303208,-0.0551906731143,0.0
1524837442088244915,9.24720374814,-0.0552011006406,0.0
1524837442128763914,9.26720444776,-0.0552115293151,0.0
1524837442137257099,9.32720647308,-0.0552428136838,0.0
1524837442181004047,9.3372068002,-0.055248061424,0.0
1524837442220268964,9.36720802742,-0.0552636863913,0.0
1524837442220406055,9.38720868497,-0.0552741055779,0.0
1524837442261200904,9.40720932514,-0.0552845253844,0.0
1524837442261733055,9.41720964283,-0.0552897691234,0.0
1524837442300244092,9.44721056671,-0.0553053558683,0.0
1524837442305933952,9.48721176866,-0.0553261926027,0.0
1524837442344089031,9.49721206173,-0.0553314322613,0.0
1524837442384036064,9.54721350608,-0.0553574780538,0.0
1524837442384116888,9.55721378647,-0.0553627168118,0.0
1524837442424330949,9.58721486822,-0.0553783137182,0.0
1524837442433267116,9.62721597943,-0.0553991292168,0.0
1524837442472362995,9.63721625181,-0.0554043631591,0.0
1524837442512352943,9.66721704442,-0.0554199419982,0.0
1524837442512453079,9.70721807529,-0.0554407610547,0.0
1524837442553106069,9.71721832604,-0.055445991635,0.0
1524837442557276010,9.72721857987,-0.055451165737,0.0
1524837442596167087,9.74721907723,-0.0554615725829,0.0
1524837442637294054,9.78722005151,-0.0554823881919,0.0
1524837442637761116,9.79722028825,-0.0554876159954,0.0
1524837442676310062,9.83922171916,-0.0555094881618,0.0
1524837442677917003,9.84922204467,-0.0555147229339,0.0
1524837442716454029,9.87922317414,-0.0555302970949,0.0
1524837442758048057,9.89922389942,-0.0555407015934,0.0
1524837442797342061,9.91922461972,-0.0555511062106,0.0
1524837442797806024,9.95922604033,-0.0555719144351,0.0
1524837442836441993,9.96922639149,-0.0555771444322,0.0
1524837442836627960,10.0072271553,-0.0555968557965,0.0
1524837442876513957,10.0172273937,-0.0556020782915,0.0
1524837442890528917,10.0592287114,-0.0556239271181,0.0
1524837442929771900,10.0792293533,-0.0556343287849,0.0
1524837442968715906,10.1072299884,-0.0556488873908,0.0
1524837442968892097,10.1172302319,-0.055654109796,0.0
1524837443008326053,10.1272303908,-0.0556592747284,0.0
1524837443013356924,10.1672311825,-0.0556800670155,0.0
1524837443053092002,10.1772313771,-0.0556852850362,0.0
1524837443092288017,10.2472331087,-0.0557216950729,0.0
1524837443092413902,10.259233465,-0.0557279282932,0.0
1524837443132554054,10.2872340266,-0.0557424917261,0.0
1524837443135243892,10.307234392,-0.0557528856766,0.0
1524837443172148942,10.3172345796,-0.0557581009811,0.0
1524837443212382078,10.3472350977,-0.0557736751764,0.0
1524837443254300117,10.3872357783,-0.0557944703705,0.0
1524837443254888057,10.3972359428,-0.0557996835513,0.0
1524837443292826890,10.4272364385,-0.0558152623838,0.0
1524837443293111085,10.4672370791,-0.0558360563659,0.0
1524837443332783937,10.4772372336,-0.0558412678369,0.0
1524837443341459989,10.5072377018,-0.0558568463236,0.0
1524837443382596969,10.5172378517,-0.0558620569897,0.0
1524837443420273065,10.5592387736,-0.0558838959345,0.0
1524837443420401096,10.5992394796,-0.0559046872419,0.0
1524837443460120916,10.6092396765,-0.0559099002476,0.0
1524837443466089963,10.6392403732,-0.0559254769777,0.0
1524837443504728078,10.6792412599,-0.0559462643514,0.0
1524837443544193983,10.6892414762,-0.0559514750784,0.0
1524837443544373035,10.7192421282,-0.0559670473056,0.0
1524837443584197044,10.7292423415,-0.0559722572221,0.0
1524837443592732906,10.7592429744,-0.0559878283515,0.0
1524837443632905960,10.7992437981,-0.0560086103091,0.0
1524837443672346115,10.8092440009,-0.0560138185849,0.0
1524837443672478914,10.8392445999,-0.0560293896856,0.0
1524837443712217092,10.8492447972,-0.0560345971739,0.0
1524837443717367887,10.8792453807,-0.0560501675855,0.0
1524837443756405115,10.9192461417,-0.0560709466249,0.0
1524837443796955108,10.9292463288,-0.0560761527738,0.0
1524837443797391891,10.959246884,-0.056091723588,0.0
1524837443836291074,10.9692470664,-0.0560969291159,0.0
1524837443844295024,10.9992476085,-0.0561124995596,0.0
1524837443884239912,11.067248391,-0.0561478124492,0.0
1524837443925304889,11.077248501,-0.0561530142236,0.0
1524837443925803899,11.1072488118,-0.0561685859324,0.0
1524837443964381933,11.1172489131,-0.0561737872111,0.0
1524837443967691898,11.1472492202,-0.0561893600376,0.0
1524837444004708051,11.1201862137,-0.00383014326798,0.0
1524837444044492959,11.1521862616,-0.00380097192491,0.0
1524837444084737062,11.1921866712,-0.00376467019574,0.0
1524837444084909915,11.2021867406,-0.00375557599398,0.0
1524837444128174066,11.2576729505,-0.0037057674788,0.0
1524837444128278017,11.2676738776,-0.00370374532871,0.0
1524837444168931007,11.3056745622,-0.00369620333971,0.0
1524837444172854900,11.3456751408,-0.00368824632286,0.0
1524837444208112955,11.3202317062,-0.00360177391869,0.0
1524837444248164892,11.3602301822,-0.00359875760363,0.0
1524837444248292922,11.4002300671,-0.00359576535324,0.0
1524837444288980007,11.4102300341,-0.00359500464858,0.0
1524837444299139022,11.4575299038,-0.00402061266015,0.0
1524837444337230920,11.4675311887,-0.00402039284259,0.0
1524837444376473903,11.4975321064,-0.00401974536658,0.0
1524837444376694917,11.5375329427,-0.00401886872259,0.0
1524837444418780088,11.5475331578,-0.00401863753097,0.0
1524837444426156044,11.5752860375,0.00996431031388,0.0
1524837444465075969,11.5852858367,0.00996701732815,0.0
1524837444505456924,11.6182860092,0.00997532885418,0.0
1524837444505857944,11.6552862245,0.0099845478023,0.0
1524837444544096946,11.6652862695,0.0099870849798,0.0
1524837444551142930,11.7083723166,-0.000274433545572,0.0
1524837444589201927,11.7183725887,-0.0002803572644,0.0
1524837444628087043,11.7283726291,-0.000286146892809,0.0
1524837444628200054,11.7383728154,-0.000292005503525,0.0
1524837444668131113,11.7883731845,-0.000321018351681,0.0
1524837444676080942,11.8826395885,-0.0154976216301,0.0
1524837444712028980,11.902639963,-0.0155059848201,0.0
1524837444752700090,11.9126402351,-0.0155101881603,0.0
1524837444752978086,11.942640554,-0.0155226160022,0.0
1524837444792035102,11.9946413116,-0.0155441907856,0.0
1524837444792268991,12.0046415072,-0.0155483456628,0.0
1524837444832282066,12.0026187387,-0.00551883794405,0.0
1524837444873085021,12.0126181247,-0.00551979700252,0.0
1524837444913326025,12.0496177941,-0.00552395290321,0.0
1524837444913486003,12.0626179534,-0.00552553103951,0.0
1524837444952828884,12.0726178702,-0.00552665405656,0.0
1524837444952950000,12.0893018287,0.00344544387489,0.0
1524837444992623090,12.1493019654,0.00346482155006,0.0
1524837444995435953,12.1593019918,0.00346802782033,0.0
1524837445031981945,12.169302055,0.00347108465104,0.0
1524837445072988986,12.2161735528,0.00628662161793,0.0
1524837445112159013,12.2561749598,0.00629153517657,0.0
1524837445112301111,12.2661752593,0.00629277027688,0.0
1524837445152133941,12.2961754599,0.00629631035369,0.0
1524837445152276039,12.306175612,0.00629752489516,0.0
1524837445192301034,12.3495550606,0.00622023647577,0.0
1524837445201986074,12.421556348,0.00622315162644,0.0
1524837445240052938,12.4315565435,0.00622357439158,0.0
1524837445280175924,12.4615567631,0.00622473569013,0.0
1524837445280298948,12.4715569308,0.00622515672774,0.0
1524837445320823907,12.4607076946,-0.00178850387965,0.0
1524837445328404903,12.5087062969,-0.00182130140896,0.0
1524837445372507095,12.5187061485,-0.00182807631688,0.0
1524837445412566900,12.5487062484,-0.00184818753535,0.0
1524837445412817001,12.5887063438,-0.00187501237617,0.0
1524837445452187061,12.5987063774,-0.0018817131777,0.0
1524837445452312946,12.5943013552,0.0020474431761,0.0
1524837445492187023,12.6363011349,0.00204436664056,0.0
1524837445499778032,12.6763012684,0.00204116832291,0.0
1524837445536923885,12.6863013027,0.00204038176964,0.0
1524837445576387882,12.7163014741,0.00203790297921,0.0
1524837445576571941,12.7443015821,0.00203560653888,0.0
1524837445616142034,12.7626879305,0.000961559216808,0.0
1524837445621082067,12.7726874937,0.0009612162798,0.0
1524837445660027980,12.8026877568,0.000960247550592,0.0
1524837445700917959,12.912033812,0.00505371768336,0.0
1524837445701225996,12.9220349228,0.00505434066262,0.0
1524837445740813970,12.9520347676,0.00505586228598,0.0
1524837445749872922,12.9800352429,0.00505735498764,0.0
1524837445789125919,13.000035383,0.00505840116511,0.0
1524837445828061103,13.0100355868,0.00505894489507,0.0
1524837445869112968,13.0065977858,0.00260091811165,0.0
1524837445869481086,13.046597359,0.00259957348926,0.0
1524837445908139944,13.0565973523,0.00259925642561,0.0
1524837445908262014,13.1065974359,0.00259770084857,0.0
1524837445950310945,13.1207308572,0.000275682139419,0.0
1524837445952229976,13.1307305318,0.000275245105322,0.0
1524837445992860078,13.1407306081,0.000274837190531,0.0
1524837446032021999,13.1507304435,0.000274414876043,0.0
1524837446032155990,13.1727303255,0.000273500436747,0.0
1524837446072259902,13.2127303468,0.00027185375935,0.0
1524837446074958086,13.222730341,0.000271446095164,0.0
1524837446112407922,13.260730439,0.000269882310808,0.0
1524837446152096986,13.3127305701,0.000267759700199,0.0
1524837446152184963,13.3227305964,0.000267355615522,0.0
1524837446192061901,13.3527307168,0.000266124926399,0.0
1524837446198574066,13.3627307504,0.000265720702689,0.0
1524837446236541986,13.39273087,0.000264489227084,0.0
1524837446276356935,13.4127309464,0.000263671756921,0.0
1524837446317096948,13.4327310223,0.000262854379786,0.0
1524837446317468881,13.4427310583,0.000262450068345,0.0
1524837446356138944,13.4927312431,0.000260407811209,0.0
1524837446356281042,13.5327313868,0.000258772272852,0.0
1524837446396018981,13.5427314209,0.000258367980793,0.0
1524837446406605958,13.5727315253,0.000257137760254,0.0
1524837446444116115,13.5827315583,0.000256733477865,0.0
1524837446485771894,13.6327317228,0.000254688279439,0.0
1524837446486304998,13.6527317856,0.000253872688355,0.0
1524837446524382114,13.672731847,0.000253057306541,0.0
1524837446524688005,13.6827318765,0.00025265334307,0.0
1524837446564898014,13.7007319029,0.000251914922669,0.0
1524837446604142904,13.7607320005,0.000249468035478,0.0
1524837446604266881,13.770732015,0.000249063420919,0.0
1524837446645232915,13.812732085,0.000247351001868,0.0
1524837446652440071,13.8227321011,0.000246946696206,0.0
1524837446692243099,13.8607321694,0.000245400847246,0.0
1524837446732289075,13.8707321836,0.000244996909579,0.0
1524837446732435941,13.880732195,0.000244586825139,0.0
1524837446773068904,13.9407322931,0.000242150324248,0.0
1524837446777616024,13.9507323073,0.000241746236709,0.0
1524837446817008018,13.9927323891,0.000240042167275,0.0
1524837446856257915,14.0127324296,0.000239230588795,0.0
1524837446856412887,14.0227324477,0.000238827460711,0.0
1524837446896404027,14.0327324704,0.000238418913386,0.0
1524837446902565956,14.0427324889,0.000238015827091,0.0
1524837446940913915,14.0807325275,0.000236469380653,0.0
1524837446980204105,14.1407325914,0.000234039393193,0.0
1524837446980367898,14.1507326009,0.000233636145607,0.0
1524837447020426034,14.1607326134,0.000233227903081,0.0
1524837447026629924,14.1707326229,0.000232824421892,0.0
1524837447064624071,14.2327327361,0.000230312682227,0.0
1524837447104801893,14.2727328146,0.000228692360234,0.0
1524837447104928016,14.2827328327,0.000228289461547,0.0
1524837447144576072,14.3127328944,0.000227072391401,0.0
1524837447155623912,14.3327329343,0.000226262686794,0.0
1524837447192261934,14.3407329371,0.000225936595752,0.0
1524837447232912063,14.3727329923,0.000224644119101,0.0
1524837447233320951,14.3827330088,0.000224241533752,0.0
1524837447272810935,14.4127330694,0.000223026531255,0.0
1524837447282579898,14.4527331305,0.000221408659428,0.0
1524837447320048093,14.4627331459,0.000221005965101,0.0
1524837447361165046,14.5007331888,0.000219467991865,0.0
1524837447400543928,14.520733211,0.000218659591669,0.0
1524837447400753021,14.5407332325,0.000217851577747,0.0
1524837447440280914,14.5507332426,0.000217448940845,0.0
1524837447440447092,14.5807332732,0.000216235970349,0.0
1524837447480135917,14.6527333719,0.000213332441436,0.0
1524837447480222940,14.6627333855,0.000212930497911,0.0
1524837447521030902,14.6927334305,0.000211719149844,0.0
1524837447529530048,14.7027334442,0.000211317374843,0.0
1524837447568898916,14.7327334857,0.000210106548258,0.0
1524837447608220100,14.7427334987,0.000209704961183,0.0
1524837447648397922,14.780733518,0.000208171577552,0.0
1524837447648566961,14.8007335291,0.000207365936861,0.0
1524837447688615083,14.8107335346,0.000206964374894,0.0
1524837447692186117,14.8527335745,0.000205274564149,0.0
1524837447732975959,14.8927336125,0.000203665629476,0.0
1524837447774177074,14.9027336209,0.000203264687552,0.0
1524837447774573087,14.9407336284,0.000201735748317,0.0
1524837447812395095,14.9727336528,0.000200450024572,0.0
1524837447812746047,14.9827336586,0.000200049330238,0.0
1524837447853144884,15.0207336779,0.000198522091431,0.0
1524837447892204999,15.0307336816,0.000198121375214,0.0
1524837447933445930,15.0527336923,0.000197236355589,0.0
1524837447933861970,15.1007337064,0.000195309411393,0.0
1524837447972285985,15.1107337086,0.000194908785205,0.0
1524837447972413063,15.1407337174,0.000193703912003,0.0
1524837448012176036,15.1507337194,0.000193303438888,0.0
1524837448020961046,15.1727337363,0.000192420388715,0.0
1524837448060956001,15.1827337413,0.000192020013584,0.0
1524837448100557088,15.2327337769,0.000190015858411,0.0
1524837448100797891,15.2727338101,0.000188412242019,0.0
1524837448140044927,15.2827338175,0.000188012287135,0.0
1524837448146858930,15.312733845,0.000186809248708,0.0
1524837448184627056,15.3607338707,0.000184885882506,0.0
1524837448224366903,15.3707338759,0.000184486033626,0.0
1524837448266196012,15.4007338977,0.000183284181117,0.0
1524837448266500949,15.4107339031,0.000182884325527,0.0
1524837448306258916,15.4207339085,0.000182483106576,0.0
1524837448307037115,15.4407339192,0.00018168225081,0.0
1524837448344233989,15.4807339403,0.000180081223345,0.0
1524837448344352006,15.4907339451,0.000179681625585,0.0
1524837448385248899,15.5527339876,0.000177202739821,0.0
1524837448391695976,15.5627339942,0.000176803838546,0.0
1524837448428422927,15.5927340204,0.00017560500131,0.0
1524837448472481012,15.6127340365,0.000174806374514,0.0
1524837448472613096,15.622734044,0.000174407795368,0.0
1524837448513139963,15.6727340645,0.000172411488795,0.0
1524837448523330926,15.7207340795,0.000170497612146,0.0
1524837448560292005,15.7407340838,0.000169700609851,0.0
1524837448603475093,15.7527340898,0.000169222589752,0.0
1524837448604017972,15.7627340927,0.000168824737093,0.0
1524837448640361070,15.8007340968,0.00016731159446,0.0
1524837448646635055,15.8327341039,0.000166039006558,0.0
1524837448684598922,15.8607341048,0.000164925561628,0.0
1524837448724515914,15.8707341051,0.000164528437912,0.0
1524837448764167070,15.8807341038,0.000164130372151,0.0
1524837448764267921,15.9327341135,0.000162065126395,0.0
1524837448805028915,15.9427341148,0.000161668550434,0.0
1524837448806433916,15.972734119,0.000160477328346,0.0
1524837448844104051,15.98273412,0.000160080973736,0.0
1524837448884447097,16.0127341236,0.000158890472737,0.0
1524837448884587049,16.0527341272,0.000157304551214,0.0
1524837448924038887,16.0627341276,0.000156908548824,0.0
1524837448924690961,16.1127341314,0.000154927119738,0.0
1524837448965302944,16.1227341317,0.000154531233781,0.0
1524837449003968954,16.1527341354,0.000153341873406,0.0
1524837449004084110,16.1927341403,0.000151757294279,0.0
1524837449044087886,16.202734141,0.000151361636905,0.0
1524837449048746109,16.2207341389,0.000150648459476,0.0
1524837449085530042,16.2307341385,0.000150252878642,0.0
1524837449124454975,16.2607341375,0.00014906490469,0.0
1524837449164395093,16.3007341377,0.0001474821592,0.0
1524837449164469003,16.3107341375,0.000147086773309,0.0
1524837449208383083,16.3607341404,0.000145109008506,0.0
1524837449208537101,16.3707341408,0.000144713727966,0.0
1524837449248174905,16.4007341456,0.000143526880352,0.0
1524837449255954980,16.4407341519,0.000141945284352,0.0
1524837449292339086,16.4507341532,0.000141550200617,0.0
1524837449332911014,16.4927341637,0.000139890451846,0.0
1524837449333039045,16.502734166,0.000139495654215,0.0
1524837449372344017,16.5207341696,0.000138784539964,0.0
1524837449372694969,16.5307341716,0.000138389907899,0.0
1524837449413067102,16.5407341736,0.000137994831755,0.0
1524837449452363967,16.6007341846,0.0001356272449,0.0
1524837449452493906,16.6107341861,0.000135233087874,0.0
1524837449493243932,16.6607341946,0.000133262303993,0.0
1524837449499746084,16.6707341961,0.000132868606433,0.0
1524837449540169000,16.6807341964,0.00013247463133,0.0
1524837449580049037,16.7407342034,0.000130113015975,0.0
1524837449580142974,16.7507342041,0.000129719852918,0.0
1524837449620412111,16.7927342083,0.000128068689356,0.0
1524837449622756004,16.802734209,0.000127675935756,0.0
1524837449660927057,16.8327342099,0.000126497268265,0.0
1524837449700922012,16.860734205,0.000125397612558,0.0
1524837449740510940,16.8727342043,0.000124926487756,0.0
1524837449740577936,16.920734195,0.000123043091113,0.0
1524837449780071020,16.9307341925,0.000122651089465,0.0
1524837449780155897,16.9607341811,0.000121474869399,0.0
1524837449821176052,16.9707341776,0.000121083188426,0.0
1524837449831372976,17.0007341657,0.000119908027873,0.0
1524837449869390964,17.0407341491,0.000118342414789,0.0
1524837449913069963,17.0507341448,0.000117951336635,0.0
1524837449913774013,17.0807341321,0.000116777931477,0.0
1524837449949006080,17.1207341151,0.000115214271149,0.0
1524837449954950094,17.1307341106,0.000114823590577,0.0
1524837449992244958,17.1407341069,0.000114432725583,0.0
1524837450033493995,17.1507341025,0.000114042123268,0.0
1524837450033900976,17.1727340957,0.000113182690639,0.0
1524837450072176933,17.2407340729,0.000110526916907,0.0
1524837450077135086,17.2507340694,0.000110136574608,0.0
1524837450116738080,17.3007340601,0.000108184528492,0.0
1524837450156362056,17.3127340589,0.000107716139287,0.0
1524837450156517028,17.3227340569,0.000107325948674,0.0
1524837450197050094,17.3407340541,0.000106623404616,0.0
1524837450206733942,17.3607340513,0.000105842957691,0.0
1524837450244048118,17.3707340495,0.000105452871063,0.0
1524837450284125089,17.418140508,7.81715534576e-05,0.0
1524837450284244060,17.4274815722,5.98029820807e-05,0.0
1524837450324182987,17.4510175308,-0.000121447016811,0.0
1524837450335560083,17.4803972118,-0.00060960768486,0.0
1524837450372250080,17.4876516144,-0.000816065760728,0.0
1524837450412058115,17.5048330819,-0.00146909886549,0.0
1524837450453116893,17.5305836275,-0.00282440770699,0.0
1524837450453530073,17.5353881783,-0.00314366065108,0.0
1524837450493957996,17.5442348514,-0.00386801887151,0.0
1524837450494487047,17.5477971144,-0.00416361887172,0.0
1524837450532227993,17.5528998319,-0.00479964886519,0.0
1524837450536331892,17.5546335102,-0.0049817528078,0.0
1524837450571963071,17.5543382073,-0.00501353910599,0.0
1524837450612401962,17.5564181897,-0.00532543093259,0.0
1524837450612545967,17.5563349271,-0.00531291050896,0.0
1524837450652062892,17.5564050247,-0.00531305011324,0.0
1524837450668289899,17.5563155056,-0.00528385472216,0.0
1524837450708255052,17.555364369,-0.00509165451459,0.0
1524837450748528957,17.554974637,-0.0050234008664,0.0
1524837450748689889,17.5565879924,-0.00520201735682,0.0
1524837450788383960,17.5566010556,-0.00520545993474,0.0
1524837450792648077,17.5612596065,-0.00596720588587,0.0
1524837450832148075,17.5666759049,-0.00699056741067,0.0
1524837450872337102,17.5680121672,-0.00727384363554,0.0
1524837450872509956,17.5697013666,-0.00761732227118,0.0
1524837450912695884,17.5750276807,-0.00883531187401,0.0
1524837450914510011,17.5756504718,-0.00897913846174,0.0
1524837450952287912,17.5755231662,-0.00901651212539,0.0
1524837450992295026,17.575471939,-0.00900606607616,0.0
1524837451034136056,17.5753167366,-0.00894111356449,0.0
1524837451034765005,17.5754905453,-0.00894306156087,0.0
1524837451072068929,17.5753267492,-0.00889463690071,0.0
1524837451072186946,17.5780381058,-0.00951052856584,0.0
1524837451112262010,17.5844201179,-0.0111349650439,0.0
1524837451112559080,17.5856209356,-0.0114810293064,0.0
1524837451153405904,17.5953380019,-0.0140725477647,0.0
1524837451193157911,17.5976180589,-0.0147311362224,0.0
1524837451232059001,17.6108851521,-0.0183589033775,0.0
1524837451232145071,17.6278183338,-0.0231695803351,0.0
1524837451272806882,17.63180248,-0.0243327884252,0.0
1524837451283883094,17.6435997511,-0.0279631960964,0.0
1524837451321846008,17.6524038376,-0.0307525195148,0.0
1524837451361181020,17.6561515675,-0.0320564604165,0.0
1524837451361531972,17.6586739222,-0.0329947062392,0.0
1524837451400425910,17.6603686861,-0.0335764840582,0.0
1524837451400537967,17.6609597149,-0.0340241692775,0.0
1524837451440001964,17.6610966642,-0.0341243894776,0.0
1524837451451251029,17.66118656,-0.0341797113551,0.0
1524837451488249063,17.6610758834,-0.0341236512009,0.0
1524837451529259920,17.6609479852,-0.0340712456796,0.0
1524837451529509067,17.6607609983,-0.0339419396615,0.0
1524837451567986965,17.6606109883,-0.0338755168878,0.0
1524837451574538946,17.6606846816,-0.0338656804653,0.0
1524837451612080097,17.6605471792,-0.0338021760431,0.0
1524837451652733087,17.6606071067,-0.033827766557,0.0
1524837451652833938,17.6604235306,-0.0337179847496,0.0
1524837451692135095,17.6598311157,-0.0333844273966,0.0
1524837451701118946,17.659639109,-0.0332883426471,0.0
1524837451736596107,17.6607677126,-0.0337446552241,0.0
1524837451777410984,17.662204568,-0.0343998884593,0.0
1524837451817234039,17.6643133593,-0.0353932243424,0.0
1524837451817413091,17.665145822,-0.0358498946767,0.0
1524837451856456995,17.6731331601,-0.0399547845672,0.0
1524837451856611013,17.6820173722,-0.0445647241531,0.0
1524837451895975112,17.6900101627,-0.0487888144677,0.0
1524837451900791883,17.6933705106,-0.0506409756497,0.0
1524837451940325021,17.724889557,-0.0676091320559,0.0
1524837451980149030,17.7495596495,-0.0809827259047,0.0
1524837451980242013,17.7555978157,-0.0843107792321,0.0
1524837452020739078,17.7710932236,-0.0926169832147,0.0
1524837452027609109,17.7956212017,-0.106037014615,0.0
1524837452065486907,17.8123168683,-0.115166261143,0.0
1524837452104135990,17.8204310698,-0.119638498472,0.0
1524837452104253053,17.8364001446,-0.128377278145,0.0
1524837452145299911,17.8713457765,-0.147620781646,0.0
1524837452151372909,17.8801672161,-0.152482768728,0.0
1524837452188198089,17.9171984533,-0.172916330024,0.0
1524837452228698968,17.9261636219,-0.177857505728,0.0
1524837452269107103,17.9524382771,-0.192376437969,0.0
1524837452269416093,17.985755056,-0.210874714299,0.0
1524837452308163881,17.9943072277,-0.215629479091,0.0
1524837452308274030,18.018870166,-0.229719015186,0.0
1524837452348097085,18.0431750083,-0.243970140596,0.0
1524837452353041887,18.0493307503,-0.247644442429,0.0
1524837452392437934,18.0621704395,-0.255753764169,0.0
1524837452432166099,18.0771714472,-0.265471084161,0.0
1524837452432284116,18.0810131891,-0.267965837543,0.0
1524837452472275972,18.0877102804,-0.272493200607,0.0
1524837452485364913,18.0884290432,-0.273141472102,0.0
1524837452524241924,18.0991960925,-0.280742458853,0.0
1524837452564155101,18.1011235031,-0.282127257787,0.0
1524837452564273118,18.1064428436,-0.286010683472,0.0
1524837452604047060,18.1082442356,-0.287340231398,0.0
1524837452609874010,18.1203007158,-0.296082689483,0.0
1524837452648935079,18.1225330327,-0.29773782347,0.0
1524837452688040971,18.1368771313,-0.307985921058,0.0
1524837452729563951,18.1563269113,-0.322131367836,0.0
1524837452730007886,18.1608194319,-0.325464584952,0.0
1524837452768205881,18.1796271368,-0.339157958067,0.0
1524837452768326044,18.185133061,-0.343243190802,0.0
1524837452808187961,18.2068124815,-0.359088032376,0.0
1524837452814135074,18.2371651633,-0.381419949069,0.0
1524837452853002071,18.2445656493,-0.38691072132,0.0
1524837452892740964,18.2688678997,-0.404860653619,0.0
1524837452892817974,18.3009900821,-0.428677393458,0.0
1524837452932121992,18.3090785363,-0.434678424585,0.0
1524837452944046020,18.3396488052,-0.457381542706,0.0
1524837452980130910,18.3478055354,-0.463433187664,0.0
1524837453020328998,18.3557134958,-0.469314488146,0.0
1524837453020505905,18.3718131096,-0.481272669548,0.0
1524837453060153007,18.4199581516,-0.517046427028,0.0
1524837453060282945,18.4280462363,-0.523048176577,0.0
1524837453101334095,18.4498393339,-0.539374324937,0.0
1524837453115597963,18.4764922538,-0.559535339494,0.0
1524837453152558088,18.4832270626,-0.564655128358,0.0
1524837453192977905,18.4992164666,-0.577198593909,0.0
1524837453193110942,18.5162258886,-0.590675341153,0.0
1524837453232186079,18.5261379955,-0.598741364215,0.0
1524837453234106063,18.5337883741,-0.605205113952,0.0
1524837453272481918,18.5382074215,-0.608924535529,0.0
1524837453312568902,18.5405415962,-0.611074535769,0.0
1524837453312777042,18.5444450305,-0.6144140766,0.0
1524837453352436065,18.5577446334,-0.626516693527,0.0
1524837453369136095,18.5705978833,-0.638321957809,0.0
1524837453409226894,18.5745563383,-0.642108169658,0.0
1524837453448542118,18.5778015569,-0.645300637,0.0
1524837453448688030,18.5796207335,-0.647070780662,0.0
1524837453489578008,18.583557829,-0.651042824358,0.0
1524837453489939928,18.5850286394,-0.652522380605,0.0
1524837453528836011,18.5937740949,-0.661089369912,0.0
1524837453534244060,18.5957984685,-0.663147763991,0.0
1524837453573379993,18.6113726439,-0.678574975581,0.0
1524837453612596988,18.6195940235,-0.68676065306,0.0
1524837453612845897,18.6231783049,-0.690409416679,0.0
1524837453652214050,18.6382678778,-0.70546932477,0.0
1524837453664697885,18.660005998,-0.727330286006,0.0
1524837453707941055,18.6653677786,-0.732788684623,0.0
1524837453749639987,18.6914957944,-0.759171789421,0.0
1524837453750092983,18.6976527879,-0.765439743339,0.0
1524837453788297891,18.7187035961,-0.786736776278,0.0
1524837453788665056,18.7325884824,-0.800840340025,0.0
1524837453828138113,18.7383496646,-0.806686557016,0.0
1524837453869162082,18.7803317558,-0.849431332297,0.0
1524837453869594097,18.7874116048,-0.856638312504,0.0
1524837453908104896,18.8170148402,-0.886793955352,0.0
1524837453912878990,18.8361047674,-0.906286494835,0.0
1524837453952091932,18.8430651116,-0.913371833098,0.0
1524837453992599010,18.8573457351,-0.927995939674,0.0
1524837454032308101,18.8916175578,-0.963739037315,0.0
1524837454032386064,18.8973119456,-0.969817300086,0.0
1524837454072674036,18.9108011906,-0.984648572442,0.0
1524837454072894096,18.9157277874,-0.990072270737,0.0
1524837454112540006,18.9186452117,-0.993497505172,0.0
1524837454122761011,18.9327001836,-1.00993722433,0.0
1524837454160134077,18.9357391721,-1.01350247154,0.0
1524837454200386047,18.9405959293,-1.01969563413,0.0
1524837454200550079,18.9426964305,-1.02226334185,0.0
1524837454240454912,18.9454418205,-1.02604306227,0.0
1524837454244302988,18.9467732622,-1.02789755118,0.0
1524837454283973932,18.9490784787,-1.03094195833,0.0
1524837454324173927,18.9495175179,-1.03175242986,0.0
1524837454324381113,18.9496754879,-1.03197038302,0.0
1524837454364980936,18.9494588826,-1.03170622704,0.0
1524837454369569063,18.9494044388,-1.03162620602,0.0
1524837454408261060,18.9493388587,-1.03150134646,0.0
1524837454448542118,18.9492311884,-1.0313423234,0.0
1524837454488584041,18.9492836139,-1.0312803612,0.0
1524837454488761901,18.9501912387,-1.0324456355,0.0
1524837454528143882,18.9502957918,-1.03261639819,0.0
1524837454528253078,18.9513831903,-1.03412892913,0.0
1524837454570645093,18.9517463622,-1.03472203757,0.0
1524837454576819896,18.9558741941,-1.04102384116,0.0
1524837454617031097,18.9667205115,-1.05814736442,0.0
1524837454656029939,18.9684511702,-1.06099648952,0.0
1524837454656126022,18.9809266614,-1.08080587537,0.0
1524837454697341918,18.9836874183,-1.08535089661,0.0
1524837454706423044,18.9953874157,-1.10416760583,0.0
1524837454745131015,19.0078248167,-1.12444684811,0.0
1524837454785274982,19.0116209903,-1.13069652517,0.0
1524837454785392045,19.0205614069,-1.14510424294,0.0
1524837454824580907,19.0304719225,-1.16123411447,0.0
1524837454824831962,19.0351530303,-1.16894062466,0.0
1524837454865326881,19.0611403442,-1.21152493361,0.0
1524837454904031991,19.081891249,-1.24568927235,0.0
1524837454904134035,19.0920982387,-1.26254258228,0.0
1524837454944093942,19.1019048698,-1.27880077002,0.0
1524837454950740098,19.1077551718,-1.2884912583,0.0
1524837454989073038,19.1127666992,-1.29678005165,0.0
1524837455028491973,19.1358289283,-1.33586939849,0.0
1524837455068811893,19.1491531158,-1.35927297214,0.0
1524837455069298982,19.1524076803,-1.36512139824,0.0
1524837455108159065,19.1584299265,-1.37628923015,0.0
1524837455112931966,19.163494108,-1.38635710573,0.0
1524837455152935981,19.1657275546,-1.39064977898,0.0
1524837455196299076,19.1723457327,-1.40417039136,0.0
1524837455196471929,19.173966043,-1.40747895858,0.0
1524837455237344026,19.1760235447,-1.41236774965,0.0
1524837455237787961,19.1775856448,-1.41633997702,0.0
1524837455276133060,19.1780940174,-1.41748765969,0.0
1524837455288309097,19.1779026493,-1.41748251508,0.0
1524837455328216075,19.1779577818,-1.41773275205,0.0
1524837455328353881,19.1779618823,-1.41774293168,0.0
1524837455369117021,19.1779267817,-1.41760594336,0.0
1524837455377909898,19.1778722778,-1.41746220524,0.0
1524837455417216062,19.1778530572,-1.41735190949,0.0
1524837455456543922,19.1777706698,-1.41699969218,0.0
1524837455456712961,19.1776952275,-1.41677943237,0.0
1524837455496340990,19.1777313732,-1.41670995252,0.0
1524837455507257938,19.17772261,-1.41665585279,0.0
1524837455545152902,19.1776934757,-1.41649721661,0.0
1524837455584263086,19.1776983814,-1.41630858137,0.0
1524837455584532022,19.177651823,-1.41615426285,0.0
1524837455628160953,19.1776875943,-1.41613741914,0.0
1524837455628397941,19.1776430549,-1.41598319881,0.0
1524837455668569087,19.1776680199,-1.41593244751,0.0
1524837455708061933,19.177625525,-1.41577857959,0.0
1524837455708203077,19.1775727421,-1.41554158411,0.0
1524837455749116897,19.1775422235,-1.41513541658,0.0
1524837455754784107,19.1775009109,-1.41495557496,0.0
1524837455793199062,19.1775301804,-1.41491530076,0.0
1524837455833800077,19.1774933906,-1.41474527707,0.0
1524837455872142076,19.1775684303,-1.41484623096,0.0
1524837455872283935,19.1775673938,-1.41469072156,0.0
1524837455912966012,19.1775428027,-1.41456554972,0.0
1524837455919493913,19.1775174476,-1.41425275063,0.0
1524837455956181049,19.1775017295,-1.41410939554,0.0
1524837455996114969,19.1775104318,-1.41401791947,0.0
1524837455996222972,19.1774881272,-1.41386878823,0.0
1524837456036931037,19.177508356,-1.4136947844,0.0
1524837456038311004,19.1774895155,-1.4135492375,0.0
1524837456076021909,19.1775434943,-1.41362260399,0.0
1524837456116288900,19.1775562971,-1.41360569169,0.0
1524837456116426944,19.1775457007,-1.41351401699,0.0
1524837456156389951,19.1775685945,-1.41358095925,0.0
1524837456169600009,19.1776263678,-1.41372881876,0.0
1524837456208075046,19.1776254597,-1.41371931381,0.0
1524837456248153924,19.1783162469,-1.41871741729,0.0
1524837456248277902,19.1792382835,-1.42732898349,0.0
1524837456289092063,19.1798341756,-1.43338448143,0.0
1524837456291987895,19.1805197118,-1.4406345686,0.0
1524837456329241037,19.1807560936,-1.4437213819,0.0
1524837456368833065,19.181302794,-1.44919792631,0.0
1524837456409466028,19.1841707983,-1.48196950429,0.0
1524837456409964084,19.1845959609,-1.48752351507,0.0
1524837456449583053,19.1865356533,-1.51000693591,0.0
1524837456450128078,19.1893819959,-1.54393258758,0.0
1524837456488106966,19.1900183377,-1.55224434,0.0
1524837456489994049,19.1908437603,-1.56209752986,0.0
1524837456529011964,19.191518392,-1.57090869423,0.0
1524837456568753004,19.1939306704,-1.60091314381,0.0
1524837456608222007,19.1975846403,-1.64847779831,0.0
1524837456608300924,19.198356689,-1.65855843074,0.0
1524837456648299932,19.2018861044,-1.70649153871,0.0
1524837456648592948,19.2040056723,-1.73621827427,0.0
1524837456690893888,19.2050855766,-1.75315724195,0.0
1524837456695050001,19.205962459,-1.76891384554,0.0
1524837456732336044,19.2063945451,-1.7773761294,0.0
1524837456776086091,19.2069808287,-1.79663392673,0.0
1524837456776185989,19.2072235577,-1.80396509089,0.0
1524837456817089080,19.2073340469,-1.81872090193,0.0
1524837456824026107,19.2071963582,-1.83705674736,0.0
1524837456859987974,19.2071650872,-1.84189694343,0.0
1524837456901408910,19.2068366954,-1.85728038482,0.0
1524837456902036905,19.2066647009,-1.86686100567,0.0
1524837456940565109,19.2064646542,-1.87737969885,0.0
1524837456940992116,19.206317573,-1.88237484852,0.0
1524837456981524944,19.2054018523,-1.92188761268,0.0
1524837457021470069,19.2046361842,-1.95309388657,0.0
1524837457060230970,19.2041963064,-1.97053591915,0.0
1524837457060398101,19.2039450026,-1.97879678294,0.0
1524837457100467920,19.2037128881,-1.98916571822,0.0
1524837457100663900,19.2023704272,-2.03610616113,0.0
1524837457139971017,19.2020793178,-2.04568600596,0.0
1524837457180183887,19.2012187409,-2.07533728826,0.0
1524837457180321931,19.2009142097,-2.08536224268,0.0
1524837457221949100,19.1999906873,-2.1153992617,0.0
1524837457226063013,19.1987486717,-2.15558071381,0.0
1524837457264147043,19.1984397973,-2.16575137228,0.0
1524837457304147005,19.1975044649,-2.19577745144,0.0
1524837457304256916,19.1971954568,-2.2059534811,0.0
1524837457344067096,19.1962609648,-2.23596178996,0.0
1524837457344726085,19.1952462358,-2.26797864421,0.0
1524837457384742975,19.1939325124,-2.30521342139,0.0
1524837457423986911,19.1923644181,-2.34140315215,0.0
1524837457424087047,19.1919170045,-2.35065425358,0.0
1524837457464071989,19.1905153007,-2.3798195883,0.0
1524837457479537963,19.1885842081,-2.41943029702,0.0
1524837457516288042,19.1880952146,-2.42935957556,0.0
1524837457556204080,19.1876046349,-2.43932248999,0.0
1524837457556339979,19.1871124693,-2.44931904032,0.0
1524837457596189975,19.1856275801,-2.47942825205,0.0
1524837457600697994,19.1852340952,-2.4873291334,0.0
1524837457641005039,19.1847370536,-2.4974271146,0.0
1524837457680924892,19.1812567956,-2.56765008851,0.0
1524837457720662117,19.1792703222,-2.60777323885,0.0
1524837457720885038,19.1782772012,-2.62784310249,0.0
1524837457760299921,19.1772842694,-2.64791463976,0.0
1524837457760436058,19.1746956605,-2.70034457995,0.0
1524837457799916982,19.1741963813,-2.71049685428,0.0
1524837457800185918,19.1742021012,-2.71026794453,0.0
1524837457840883970,19.1723122433,-2.74852599009,0.0
1524837457880034923,19.1707238238,-2.78071334541,0.0
1524837457880155086,19.1702254739,-2.79084834888,0.0
1524837457920245885,19.168346006,-2.828826938,0.0
1524837457927515983,19.1673564738,-2.84886903245,0.0
1524837457964724063,19.1668600056,-2.85896683786,0.0
1524837458005376100,19.1647795071,-2.90114099311,0.0
1524837458005768060,19.1642818309,-2.91126417575,0.0
1524837458044239044,19.1624022337,-2.94931520483,0.0
1524837458053339004,19.1614143679,-2.96933486491,0.0
1524837458092015027,19.160426341,-2.98936998053,0.0
1524837458134479045,19.1584500179,-3.02945772394,0.0
1524837458134871006,19.1579544462,-3.03953759202,0.0
1524837458172166109,19.1564744426,-3.06953812309,0.0
1524837458175627946,19.155979037,-3.07961442083,0.0
1524837458212933063,19.1544964944,-3.10968407105,0.0
1524837458252088069,19.1519244481,-3.16190861488,0.0
1524837458252182960,19.1514280496,-3.17200514916,0.0
1524837458292110919,19.1489545957,-3.22222371053,0.0
1524837458306678056,19.147966469,-3.24227102542,0.0
1524837458344119071,19.1469780071,-3.26233836165,0.0
1524837458384052038,19.146481619,-3.27243481421,0.0
1524837458384160995,19.1459898221,-3.28240360329,0.0
1524837458424253940,19.1430251234,-3.34261148014,0.0
1524837458427444934,19.142529108,-3.35270036606,0.0
1524837458465733051,19.1410494276,-3.38274056237,0.0
1524837458508090019,19.1405535769,-3.39282612656,0.0
1524837458548384904,19.1390742462,-3.42286365578,0.0
1524837458548546075,19.1367080173,-3.47091615435,0.0
1524837458588860988,19.1362136083,-3.4809723838,0.0
1524837458592432975,19.1347373719,-3.51095329936,0.0
1524837458632189035,19.1342432817,-3.52100309394,0.0
1524837458676290035,19.1327666477,-3.55099844405,0.0
1524837458676461935,19.1322727062,-3.56104526555,0.0
1524837458716135978,19.1302015859,-3.60313900956,0.0
1524837458716278076,19.1282278455,-3.64325573263,0.0
1524837458756052017,19.1277330947,-3.65331913762,0.0
1524837458758308887,19.1272413149,-3.66330732727,0.0
1524837458796139001,19.1248771476,-3.71134849552,0.0
1524837458837064981,19.1243833827,-3.72139184138,0.0
1524837458876142978,19.1229078876,-3.75137588691,0.0
1524837458876307010,19.1209382177,-3.79141553804,0.0
1524837458916934013,19.1204448169,-3.80145157084,0.0
1524837458922842025,19.1183739093,-3.84356122482,0.0
1524837458960490942,19.1178793917,-3.85362003836,0.0
1524837459000304937,19.1164046744,-3.88359187816,0.0
1524837459000385999,19.114432957,-3.92368198837,0.0
1524837459041186094,19.1139389779,-3.93373013271,0.0
1524837459043593883,19.1134473572,-3.94372176821,0.0
1524837459081089019,19.1124617701,-3.96376142617,0.0
1524837459120343923,19.1100993854,-4.01178848058,0.0
1524837459120563030,19.1096062276,-4.02181986129,0.0
1524837459161623954,19.1081297829,-4.05183860776,0.0
1524837459164136886,19.1076366401,-4.06186968136,0.0
1524837459200238943,19.1061608454,-4.09187567024,0.0
1524837459240278959,19.1035987263,-4.14398183508,0.0
1524837459240395069,19.1031052621,-4.15401960628,0.0
1524837459280184984,19.1012359008,-4.19202869672,0.0
1524837459287486076,19.1007428613,-4.20205779648,0.0
1524837459324367046,19.099661778,-4.22404008827,0.0
1524837459364330053,19.0973000348,-4.27206844728,0.0
1524837459405136108,19.0968073583,-4.28209018705,0.0
1524837459405443906,19.0953326498,-4.31207905087,0.0
1524837459449002027,19.0948400878,-4.32209850487,0.0
1524837459449317932,19.0933653156,-4.35208980735,0.0
1524837459489620923,19.0908049967,-4.40416521259,0.0
1524837459492008924,19.09031205,-4.4141925842,0.0
1524837459528474092,19.088836028,-4.44421142401,0.0
1524837459570705890,19.0883430505,-4.45423945322,0.0
1524837459608633995,19.0864745266,-4.49223920759,0.0
1524837459608768939,19.0854912814,-4.51223634342,0.0
1524837459648559093,19.0849988509,-4.5222532519,0.0
1524837459648682117,19.0845079981,-4.5322350267,0.0
1524837459689229011,19.0825411641,-4.57223877057,0.0
1524837459691561937,19.0820489049,-4.58225224656,0.0
1524837459728924036,19.0786067927,-4.65226312641,0.0
1524837459769117116,19.0776234476,-4.67226398089,0.0
1524837459808684110,19.0766401068,-4.69226507808,0.0
1524837459808871030,19.0761479606,-4.70227634544,0.0
