%time;field.header.seq;field.header.stamp;field.header.frame_id;field.pose.pose.position.x;field.pose.pose.position.y;field.pose.pose.position.z;field.pose.pose.orientation.x;field.pose.pose.orientation.y;field.pose.pose.orientation.z;field.pose.pose.orientation.w;field.pose.covariance0;field.pose.covariance1;field.pose.covariance2;field.pose.covariance3;field.pose.covariance4;field.pose.covariance5;field.pose.covariance6;field.pose.covariance7;field.pose.covariance8;field.pose.covariance9;field.pose.covariance10;field.pose.covariance11;field.pose.covariance12;field.pose.covariance13;field.pose.covariance14;field.pose.covariance15;field.pose.covariance16;field.pose.covariance17;field.pose.covariance18;field.pose.covariance19;field.pose.covariance20;field.pose.covariance21;field.pose.covariance22;field.pose.covariance23;field.pose.covariance24;field.pose.covariance25;field.pose.covariance26;field.pose.covariance27;field.pose.covariance28;field.pose.covariance29;field.pose.covariance30;field.pose.covariance31;field.pose.covariance32;field.pose.covariance33;field.pose.covariance34;field.pose.covariance35
245322000000;25;245322000000;map;5.02741169201;-0.0169550482457;0.0;0.0;0.0;-0.000205923640314;0.999999978798;0.0280722463492;-0.00217279020016;0.0;0.0;0.0;0.0;-0.00217279020016;0.00304758266183;0.0;0.0;0.0;0.0;0.0;0.0;0.0;0.0;0.0;0.0;0.0;0.0;0.0;0.0;0.0;0.0;0.0;0.0;0.0;0.0;0.0;0.0;0.0;0.0;0.0;0.0;0.0;0.0056969934942
245724000000;26;245724000000;map;5.22587815881;-0.0133697905617;0.0;0.0;0.0;-0.000704001107042;0.999999752191;0.0288408977647;-0.00161902364754;0.0;0.0;0.0;0.0;-0.00161902364754;0.00318947933617;0.0;0.0;0.0;0.0;0.0;0.0;0.0;0.0;0.0;0.0;0.0;0.0;0.0;0.0;0.0;0.0;0.0;0.0;0.0;0.0;0.0;0.0;0.0;0.0;0.0;0.0;0.0;0.00588089297465
246127000000;27;246127000000;map;5.42119459705;-0.0218552872672;0.0;0.0;0.0;-0.000147238259819;0.99999998916;0.0331510360488;-0.00168136967033;0.0;0.0;0.0;0.0;-0.00168136967033;0.0038529435232;0.0;0.0;0.0;0.0;0.0;0.0;0.0;0.0;0.0;0.0;0.0;0.0;0.0;0.0;0.0;0.0;0.0;0.0;0.0;0.0;0.0;0.0;0.0;0.0;0.0;0.0;0.0;0.00567365639568
246548000000;28;246548000000;map;5.64768028528;-0.0185279026303;0.0;0.0;0.0;0.00293602226932;0.999995689877;0.0363261547403;-0.00181189271919;0.0;0.0;0.0;0.0;-0.00181189271919;0.00241266261941;0.0;0.0;0.0;0.0;0.0;0.0;0.0;0.0;0.0;0.0;0.0;0.0;0.0;0.0;0.0;0.0;0.0;0.0;0.0;0.0;0.0;0.0;0.0;0.0;0.0;0.0;0.0;0.0052948396885
246949000000;29;246949000000;map;5.83969259938;-0.0112862745474;0.0;0.0;0.0;0.00231467338259;0.99999732114;0.0449111476936;-0.00188527909401;0.0;0.0;0.0;0.0;-0.00188527909401;0.00257489311409;0.0;0.0;0.0;0.0;0.0;0.0;0.0;0.0;0.0;0.0;0.0;0.0;0.0;0.0;0.0;0.0;0.0;0.0;0.0;0.0;0.0;0.0;0.0;0.0;0.0;0.0;0.0;0.00530620361751
247351000000;30;247351000000;map;6.04221761232;-0.00731620153191;0.0;0.0;0.0;0.0014937077601;0.999998884418;0.0439647581817;-0.000978880678459;0.0;0.0;0.0;0.0;-0.000978880678459;0.00208351218592;0.0;0.0;0.0;0.0;0.0;0.0;0.0;0.0;0.0;0.0;0.0;0.0;0.0;0.0;0.0;0.0;0.0;0.0;0.0;0.0;0.0;0.0;0.0;0.0;0.0;0.0;0.0;0.0063515462592
247752000000;31;247752000000;map;6.24644038243;-0.0101679064964;0.0;0.0;0.0;-0.000477666513132;0.999999885917;0.04481135406;-0.00180967355021;0.0;0.0;0.0;0.0;-0.00180967355021;0.00276223461519;0.0;0.0;0.0;0.0;0.0;0.0;0.0;0.0;0.0;0.0;0.0;0.0;0.0;0.0;0.0;0.0;0.0;0.0;0.0;0.0;0.0;0.0;0.0;0.0;0.0;0.0;0.0;0.00541238782712
248158000000;32;248158000000;map;6.48599384008;-0.01042924227;0.0;0.0;0.0;-0.00092397329818;0.999999573137;0.0387107368337;-0.0012036845185;0.0;0.0;0.0;0.0;-0.0012036845185;0.00293412184548;0.0;0.0;0.0;0.0;0.0;0.0;0.0;0.0;0.0;0.0;0.0;0.0;0.0;0.0;0.0;0.0;0.0;0.0;0.0;0.0;0.0;0.0;0.0;0.0;0.0;0.0;0.0;0.00531217486478
248561000000;33;248561000000;map;6.70409537278;-0.00757292065912;0.0;0.0;0.0;-0.000560730435239;0.999999842791;0.0308679624347;-0.00157830417379;0.0;0.0;0.0;0.0;-0.00157830417379;0.00293183326166;0.0;0.0;0.0;0.0;0.0;0.0;0.0;0.0;0.0;0.0;0.0;0.0;0.0;0.0;0.0;0.0;0.0;0.0;0.0;0.0;0.0;0.0;0.0;0.0;0.0;0.0;0.0;0.00542730977524
248980000000;34;248980000000;map;6.91339129089;-0.00622211774338;0.0;0.0;0.0;0.00484898569942;0.9999882436;0.0284954815567;-0.00262462280535;0.0;0.0;0.0;0.0;-0.00262462280535;0.00253259356178;0.0;0.0;0.0;0.0;0.0;0.0;0.0;0.0;0.0;0.0;0.0;0.0;0.0;0.0;0.0;0.0;0.0;0.0;0.0;0.0;0.0;0.0;0.0;0.0;0.0;0.0;0.0;0.00454296788613
249382000000;35;249382000000;map;7.11372867303;-0.00804811354361;0.0;0.0;0.0;0.00982020657431;0.999951780609;0.0259794062384;-0.00177229830818;0.0;0.0;0.0;0.0;-0.00177229830818;0.00227064725488;0.0;0.0;0.0;0.0;0.0;0.0;0.0;0.0;0.0;0.0;0.0;0.0;0.0;0.0;0.0;0.0;0.0;0.0;0.0;0.0;0.0;0.0;0.0;0.0;0.0;0.0;0.0;0.00578088677195
249786000000;36;249786000000;map;7.32956826155;-0.00708243187177;0.0;0.0;0.0;0.00635213327751;0.999979824998;0.0246936384191;-0.0014815424117;0.0;0.0;0.0;0.0;-0.0014815424117;0.00272417037304;0.0;0.0;0.0;0.0;0.0;0.0;0.0;0.0;0.0;0.0;0.0;0.0;0.0;0.0;0.0;0.0;0.0;0.0;0.0;0.0;0.0;0.0;0.0;0.0;0.0;0.0;0.0;0.00628868798252
250207000000;37;250207000000;map;7.53375829233;-0.0132100685384;0.0;0.0;0.0;-0.000797655692292;0.999999681873;0.0228600912587;0.000456933839966;0.0;0.0;0.0;0.0;0.000456933839966;0.00303338255142;0.0;0.0;0.0;0.0;0.0;0.0;0.0;0.0;0.0;0.0;0.0;0.0;0.0;0.0;0.0;0.0;0.0;0.0;0.0;0.0;0.0;0.0;0.0;0.0;0.0;0.0;0.0;0.0057901548627
250610000000;38;250610000000;map;7.70134834942;-0.000691949712483;0.0;0.0;0.0;0.00496606476301;0.999987669024;0.0242865863178;-0.000889010741646;0.0;0.0;0.0;0.0;-0.000889010741646;0.00306438627079;0.0;0.0;0.0;0.0;0.0;0.0;0.0;0.0;0.0;0.0;0.0;0.0;0.0;0.0;0.0;0.0;0.0;0.0;0.0;0.0;0.0;0.0;0.0;0.0;0.0;0.0;0.0;0.00387135876457
251011000000;39;251011000000;map;7.91041996492;0.00154660394069;0.0;0.0;0.0;0.00775384867921;0.999969938463;0.0192647958242;-0.000875007757848;0.0;0.0;0.0;0.0;-0.000875007757848;0.00297331313851;0.0;0.0;0.0;0.0;0.0;0.0;0.0;0.0;0.0;0.0;0.0;0.0;0.0;0.0;0.0;0.0;0.0;0.0;0.0;0.0;0.0;0.0;0.0;0.0;0.0;0.0;0.0;0.00492761207005
251432000000;40;251432000000;map;8.12489193406;-0.00966010999108;0.0;0.0;0.0;0.00363743732638;0.999993384503;0.0235817872879;-0.00106117110443;0.0;0.0;0.0;0.0;-0.00106117110443;0.00371580902329;0.0;0.0;0.0;0.0;0.0;0.0;0.0;0.0;0.0;0.0;0.0;0.0;0.0;0.0;0.0;0.0;0.0;0.0;0.0;0.0;0.0;0.0;0.0;0.0;0.0;0.0;0.0;0.00464279546468
251832000000;41;251832000000;map;8.3054653462;-0.0144564198985;0.0;0.0;0.0;-0.000311630953321;0.999999951443;0.0283854928156;-0.00167401694846;0.0;0.0;0.0;0.0;-0.00167401694846;0.00381533004621;0.0;0.0;0.0;0.0;0.0;0.0;0.0;0.0;0.0;0.0;0.0;0.0;0.0;0.0;0.0;0.0;0.0;0.0;0.0;0.0;0.0;0.0;0.0;0.0;0.0;0.0;0.0;0.00450187110695
252252000000;42;252252000000;map;8.52312706068;-0.0287616178788;0.0;0.0;0.0;-0.00650422768475;0.999978847287;0.0335621490472;-0.00159143858341;0.0;0.0;0.0;0.0;-0.00159143858341;0.0036968582786;0.0;0.0;0.0;0.0;0.0;0.0;0.0;0.0;0.0;0.0;0.0;0.0;0.0;0.0;0.0;0.0;0.0;0.0;0.0;0.0;0.0;0.0;0.0;0.0;0.0;0.0;0.0;0.00492473405429
252654000000;43;252654000000;map;8.74501538382;-0.0362124505705;0.0;0.0;0.0;-0.00194507061492;0.999998108348;0.0254548454972;-0.00309141639168;0.0;0.0;0.0;0.0;-0.00309141639168;0.00461951012964;0.0;0.0;0.0;0.0;0.0;0.0;0.0;0.0;0.0;0.0;0.0;0.0;0.0;0.0;0.0;0.0;0.0;0.0;0.0;0.0;0.0;0.0;0.0;0.0;0.0;0.0;0.0;0.00510901884075
253057000000;44;253057000000;map;8.92985144674;-0.0360477936894;0.0;0.0;0.0;0.000431110421169;0.999999907072;0.0239650002318;-0.00105598888952;0.0;0.0;0.0;0.0;-0.00105598888952;0.00354929256218;0.0;0.0;0.0;0.0;0.0;0.0;0.0;0.0;0.0;0.0;0.0;0.0;0.0;0.0;0.0;0.0;0.0;0.0;0.0;0.0;0.0;0.0;0.0;0.0;0.0;0.0;0.0;0.00457156893914
253479000000;45;253479000000;map;9.14105936746;-0.0391595523352;0.0;0.0;0.0;0.00194638924488;0.999998105783;0.0242660587497;0.000784219050914;0.0;0.0;0.0;0.0;0.000784219050914;0.00248852223289;0.0;0.0;0.0;0.0;0.0;0.0;0.0;0.0;0.0;0.0;0.0;0.0;0.0;0.0;0.0;0.0;0.0;0.0;0.0;0.0;0.0;0.0;0.0;0.0;0.0;0.0;0.0;0.00605205954277
253881000000;46;253881000000;map;9.36075142874;-0.0390334503862;0.0;0.0;0.0;0.00356861892002;0.999993632459;0.0250015318033;0.000994592459413;0.0;0.0;0.0;0.0;0.000994592459413;0.00326450971005;0.0;0.0;0.0;0.0;0.0;0.0;0.0;0.0;0.0;0.0;0.0;0.0;0.0;0.0;0.0;0.0;0.0;0.0;0.0;0.0;0.0;0.0;0.0;0.0;0.0;0.0;0.0;0.00422928026214
254284000000;47;254284000000;map;9.57444004361;-0.0412637952188;0.0;0.0;0.0;-0.00217523032694;0.999997634184;0.0307284146718;0.000820360890239;0.0;0.0;0.0;0.0;0.000820360890239;0.00200296048926;0.0;0.0;0.0;0.0;0.0;0.0;0.0;0.0;0.0;0.0;0.0;0.0;0.0;0.0;0.0;0.0;0.0;0.0;0.0;0.0;0.0;0.0;0.0;0.0;0.0;0.0;0.0;0.00335943473254
254704000000;48;254704000000;map;9.75834611123;-0.0403463443037;0.0;0.0;0.0;-0.00430486217739;0.999990734038;0.0330692954594;0.000693780816816;0.0;0.0;0.0;0.0;0.000693780816816;0.00199965986016;0.0;0.0;0.0;0.0;0.0;0.0;0.0;0.0;0.0;0.0;0.0;0.0;0.0;0.0;0.0;0.0;0.0;0.0;0.0;0.0;0.0;0.0;0.0;0.0;0.0;0.0;0.0;0.00255198616172
255106000000;49;255106000000;map;10.0099945369;-0.0440515016419;0.0;0.0;0.0;-0.0046189136895;0.999989332761;0.0321894240264;0.000192211663309;0.0;0.0;0.0;0.0;0.000192211663309;0.00172466593019;0.0;0.0;0.0;0.0;0.0;0.0;0.0;0.0;0.0;0.0;0.0;0.0;0.0;0.0;0.0;0.0;0.0;0.0;0.0;0.0;0.0;0.0;0.0;0.0;0.0;0.0;0.0;0.00326618911809
255513000000;50;255513000000;map;10.1990043331;-0.0367927349088;0.0;0.0;0.0;0.00261001680168;0.9999965939;0.0301225061052;0.000348864569085;0.0;0.0;0.0;0.0;0.000348864569085;0.00254651098424;0.0;0.0;0.0;0.0;0.0;0.0;0.0;0.0;0.0;0.0;0.0;0.0;0.0;0.0;0.0;0.0;0.0;0.0;0.0;0.0;0.0;0.0;0.0;0.0;0.0;0.0;0.0;0.00372897965988
255913000000;51;255913000000;map;10.3754758195;-0.0380976833165;0.0;0.0;0.0;-0.0028297338026;0.999995996295;0.024470556059;0.0012312941071;0.0;0.0;0.0;0.0;0.0012312941071;0.00281534134837;0.0;0.0;0.0;0.0;0.0;0.0;0.0;0.0;0.0;0.0;0.0;0.0;0.0;0.0;0.0;0.0;0.0;0.0;0.0;0.0;0.0;0.0;0.0;0.0;0.0;0.0;0.0;0.00547057677471
256323000000;52;256323000000;map;10.563435458;-0.0454189296898;0.0;0.0;0.0;-0.000710098529082;0.99999974788;0.0255624693134;0.00114570072196;0.0;0.0;0.0;0.0;0.00114570072196;0.0020341616014;0.0;0.0;0.0;0.0;0.0;0.0;0.0;0.0;0.0;0.0;0.0;0.0;0.0;0.0;0.0;0.0;0.0;0.0;0.0;0.0;0.0;0.0;0.0;0.0;0.0;0.0;0.0;0.00351946248678
256743000000;53;256743000000;map;10.8047042843;-0.0439131982662;0.0;0.0;0.0;0.000867280906537;0.999999623912;0.0250986943061;0.0010853291883;0.0;0.0;0.0;0.0;0.0010853291883;0.002420897832;0.0;0.0;0.0;0.0;0.0;0.0;0.0;0.0;0.0;0.0;0.0;0.0;0.0;0.0;0.0;0.0;0.0;0.0;0.0;0.0;0.0;0.0;0.0;0.0;0.0;0.0;0.0;0.00480811289468
257146000000;54;257146000000;map;11.017048486;-0.0441278253845;0.0;0.0;0.0;-0.00303006263209;0.99999540935;0.0216524358;0.0013858664515;0.0;0.0;0.0;0.0;0.0013858664515;0.00236649590465;0.0;0.0;0.0;0.0;0.0;0.0;0.0;0.0;0.0;0.0;0.0;0.0;0.0;0.0;0.0;0.0;0.0;0.0;0.0;0.0;0.0;0.0;0.0;0.0;0.0;0.0;0.0;0.00397619453868
257554000000;55;257554000000;map;11.231682774;-0.0462547884821;0.0;0.0;0.0;0.00301411186606;0.999995457555;0.0139976288743;0.000680439434078;0.0;0.0;0.0;0.0;0.000680439434078;0.00219078163655;0.0;0.0;0.0;0.0;0.0;0.0;0.0;0.0;0.0;0.0;0.0;0.0;0.0;0.0;0.0;0.0;0.0;0.0;0.0;0.0;0.0;0.0;0.0;0.0;0.0;0.0;0.0;0.00672143673847
257955000000;56;257955000000;map;11.4212980067;-0.0501385721471;0.0;0.0;0.0;0.00502684930976;0.999987365313;0.0180740426843;0.00083729795915;0.0;0.0;0.0;0.0;0.00083729795915;0.00171622453241;0.0;0.0;0.0;0.0;0.0;0.0;0.0;0.0;0.0;0.0;0.0;0.0;0.0;0.0;0.0;0.0;0.0;0.0;0.0;0.0;0.0;0.0;0.0;0.0;0.0;0.0;0.0;0.0056220300055
258357000000;57;258357000000;map;11.6056680328;-0.0478876567831;0.0;0.0;0.0;0.00422876279474;0.999991058743;0.0186253496161;0.00124532612736;0.0;0.0;0.0;0.0;0.00124532612736;0.00184928406102;0.0;0.0;0.0;0.0;0.0;0.0;0.0;0.0;0.0;0.0;0.0;0.0;0.0;0.0;0.0;0.0;0.0;0.0;0.0;0.0;0.0;0.0;0.0;0.0;0.0;0.0;0.0;0.00603082165353
258761000000;58;258761000000;map;11.8033129209;-0.0523517562565;0.0;0.0;0.0;0.00776898317429;0.999969820995;0.0166382840156;0.00150450121338;0.0;0.0;0.0;0.0;0.00150450121338;0.00172531867291;0.0;0.0;0.0;0.0;0.0;0.0;0.0;0.0;0.0;0.0;0.0;0.0;0.0;0.0;0.0;0.0;0.0;0.0;0.0;0.0;0.0;0.0;0.0;0.0;0.0;0.0;0.0;0.00533548760084
259167000000;59;259167000000;map;12.0008186963;-0.0513564153021;0.0;0.0;0.0;0.00773996406451;0.99997004603;0.0158106796209;0.00153943927364;0.0;0.0;0.0;0.0;0.00153943927364;0.00181426553788;0.0;0.0;0.0;0.0;0.0;0.0;0.0;0.0;0.0;0.0;0.0;0.0;0.0;0.0;0.0;0.0;0.0;0.0;0.0;0.0;0.0;0.0;0.0;0.0;0.0;0.0;0.0;0.00405259097595
259568000000;60;259568000000;map;12.224879877;-0.0555277727909;0.0;0.0;0.0;-0.00183877261605;0.999998309456;0.0178976205742;0.00194081643605;0.0;0.0;0.0;0.0;0.00194081643605;0.00197581153902;0.0;0.0;0.0;0.0;0.0;0.0;0.0;0.0;0.0;0.0;0.0;0.0;0.0;0.0;0.0;0.0;0.0;0.0;0.0;0.0;0.0;0.0;0.0;0.0;0.0;0.0;0.0;0.00455772602658
259971000000;61;259971000000;map;12.4028312821;-0.0614426643583;0.0;0.0;0.0;-0.00134029978677;0.999999101798;0.0200173636051;0.00059938870576;0.0;0.0;0.0;0.0;0.00059938870576;0.00212926535193;0.0;0.0;0.0;0.0;0.0;0.0;0.0;0.0;0.0;0.0;0.0;0.0;0.0;0.0;0.0;0.0;0.0;0.0;0.0;0.0;0.0;0.0;0.0;0.0;0.0;0.0;0.0;0.00493663503838
260391000000;62;260391000000;map;12.63814988;-0.0548602824231;0.0;0.0;0.0;0.00300554418338;0.999995483342;0.0153780785724;-0.000196609452302;0.0;0.0;0.0;0.0;-0.000196609452302;0.00173614320267;0.0;0.0;0.0;0.0;0.0;0.0;0.0;0.0;0.0;0.0;0.0;0.0;0.0;0.0;0.0;0.0;0.0;0.0;0.0;0.0;0.0;0.0;0.0;0.0;0.0;0.0;0.0;0.0056106034784
260797000000;63;260797000000;map;12.8245515697;-0.0524156850552;0.0;0.0;0.0;0.00153320960251;0.999998824633;0.0181252915435;-0.000229541661168;0.0;0.0;0.0;0.0;-0.000229541661168;0.00207359649305;0.0;0.0;0.0;0.0;0.0;0.0;0.0;0.0;0.0;0.0;0.0;0.0;0.0;0.0;0.0;0.0;0.0;0.0;0.0;0.0;0.0;0.0;0.0;0.0;0.0;0.0;0.0;0.00519194870029
261203000000;64;261203000000;map;13.0125270632;-0.0635567554075;0.0;0.0;0.0;0.00425383492374;0.999990952403;0.016120338088;0.000237429872004;0.0;0.0;0.0;0.0;0.000237429872004;0.00174875854414;0.0;0.0;0.0;0.0;0.0;0.0;0.0;0.0;0.0;0.0;0.0;0.0;0.0;0.0;0.0;0.0;0.0;0.0;0.0;0.0;0.0;0.0;0.0;0.0;0.0;0.0;0.0;0.0060017056014
261604000000;65;261604000000;map;13.2177526659;-0.0536600844351;0.0;0.0;0.0;0.00993999964973;0.999950596983;0.0179508024267;-7.07756170437e-06;0.0;0.0;0.0;0.0;-7.07756170437e-06;0.00170083009039;0.0;0.0;0.0;0.0;0.0;0.0;0.0;0.0;0.0;0.0;0.0;0.0;0.0;0.0;0.0;0.0;0.0;0.0;0.0;0.0;0.0;0.0;0.0;0.0;0.0;0.0;0.0;0.00406839372735
262025000000;66;262025000000;map;13.4491974181;-0.0472253169029;0.0;0.0;0.0;0.0131128309499;0.999914023136;0.02038193079;-0.000432433129236;0.0;0.0;0.0;0.0;-0.000432433129236;0.00174517331109;0.0;0.0;0.0;0.0;0.0;0.0;0.0;0.0;0.0;0.0;0.0;0.0;0.0;0.0;0.0;0.0;0.0;0.0;0.0;0.0;0.0;0.0;0.0;0.0;0.0;0.0;0.0;0.0052187495458
262430000000;67;262430000000;map;13.6566458435;-0.043192580067;0.0;0.0;0.0;0.00762302081834;0.999970944355;0.0194165909708;-0.000217571879181;0.0;0.0;0.0;0.0;-0.000217571879181;0.00188691991004;0.0;0.0;0.0;0.0;0.0;0.0;0.0;0.0;0.0;0.0;0.0;0.0;0.0;0.0;0.0;0.0;0.0;0.0;0.0;0.0;0.0;0.0;0.0;0.0;0.0;0.0;0.0;0.00479566738507
262831000000;68;262831000000;map;13.8712700037;-0.0334734630839;0.0;0.0;0.0;0.0145883788319;0.999893583939;0.0191220853714;-6.97136024799e-05;0.0;0.0;0.0;0.0;-6.97136024799e-05;0.00265496167371;0.0;0.0;0.0;0.0;0.0;0.0;0.0;0.0;0.0;0.0;0.0;0.0;0.0;0.0;0.0;0.0;0.0;0.0;0.0;0.0;0.0;0.0;0.0;0.0;0.0;0.0;0.0;0.00755791494032
263233000000;69;263233000000;map;14.0622660128;-0.0282873961129;0.0;0.0;0.0;0.00681218229409;0.999976796817;0.0227377493209;0.000715338972093;0.0;0.0;0.0;0.0;0.000715338972093;0.0037498640253;0.0;0.0;0.0;0.0;0.0;0.0;0.0;0.0;0.0;0.0;0.0;0.0;0.0;0.0;0.0;0.0;0.0;0.0;0.0;0.0;0.0;0.0;0.0;0.0;0.0;0.0;0.0;0.00799171181083
263634000000;70;263634000000;map;14.2636080087;-0.0268884136424;0.0;0.0;0.0;0.00760076745276;0.99997111375;0.0248260412598;0.000894992479817;0.0;0.0;0.0;0.0;0.000894992479817;0.00494587044302;0.0;0.0;0.0;0.0;0.0;0.0;0.0;0.0;0.0;0.0;0.0;0.0;0.0;0.0;0.0;0.0;0.0;0.0;0.0;0.0;0.0;0.0;0.0;0.0;0.0;0.0;0.0;0.00868220040899
264035000000;71;264035000000;map;14.4866220714;-0.0313121709393;0.0;0.0;0.0;-0.00374037053674;0.99999300479;0.0286460158149;0.00272322801744;0.0;0.0;0.0;0.0;0.00272322801744;0.00504648142083;0.0;0.0;0.0;0.0;0.0;0.0;0.0;0.0;0.0;0.0;0.0;0.0;0.0;0.0;0.0;0.0;0.0;0.0;0.0;0.0;0.0;0.0;0.0;0.0;0.0;0.0;0.0;0.00625128959262
264439000000;72;264439000000;map;14.6984370665;-0.0250973229657;0.0;0.0;0.0;0.00231564556819;0.999997318889;0.0256133652233;0.000676291879955;0.0;0.0;0.0;0.0;0.000676291879955;0.00525756088671;0.0;0.0;0.0;0.0;0.0;0.0;0.0;0.0;0.0;0.0;0.0;0.0;0.0;0.0;0.0;0.0;0.0;0.0;0.0;0.0;0.0;0.0;0.0;0.0;0.0;0.0;0.0;0.00581142175901
264859000000;73;264859000000;map;14.9304583006;-0.0265774676036;0.0;0.0;0.0;-0.00160028332845;0.999998719546;0.0271729586783;0.000665003416972;0.0;0.0;0.0;0.0;0.000665003416972;0.00533622122048;0.0;0.0;0.0;0.0;0.0;0.0;0.0;0.0;0.0;0.0;0.0;0.0;0.0;0.0;0.0;0.0;0.0;0.0;0.0;0.0;0.0;0.0;0.0;0.0;0.0;0.0;0.0;0.00617738832468
265262000000;74;265262000000;map;15.1354528965;-0.0207108934402;0.0;0.0;0.0;-0.000942776370758;0.999999555586;0.0241375021119;0.000409478136338;0.0;0.0;0.0;0.0;0.000409478136338;0.00639054586442;0.0;0.0;0.0;0.0;0.0;0.0;0.0;0.0;0.0;0.0;0.0;0.0;0.0;0.0;0.0;0.0;0.0;0.0;0.0;0.0;0.0;0.0;0.0;0.0;0.0;0.0;0.0;0.00586388476105
265667000000;75;265667000000;map;15.3456265958;-0.0193421645565;0.0;0.0;0.0;0.00243537226425;0.999997034477;0.0204155447084;0.000857363496099;0.0;0.0;0.0;0.0;0.000857363496099;0.0070514896103;0.0;0.0;0.0;0.0;0.0;0.0;0.0;0.0;0.0;0.0;0.0;0.0;0.0;0.0;0.0;0.0;0.0;0.0;0.0;0.0;0.0;0.0;0.0;0.0;0.0;0.0;0.0;0.00719260930727
266082000000;76;266082000000;map;15.5477760983;-0.0127311261265;0.0;0.0;0.0;-0.00448142245034;0.999989958376;0.0201606779129;0.000984954010125;0.0;0.0;0.0;0.0;0.000984954010125;0.00714278885656;0.0;0.0;0.0;0.0;0.0;0.0;0.0;0.0;0.0;0.0;0.0;0.0;0.0;0.0;0.0;0.0;0.0;0.0;0.0;0.0;0.0;0.0;0.0;0.0;0.0;0.0;0.0;0.00663533606523
266485000000;77;266485000000;map;15.7679665295;-0.0102926737784;0.0;0.0;0.0;-0.0049611751;0.999987693295;0.00782290038688;-0.00129990070133;0.0;0.0;0.0;0.0;-0.00129990070133;0.00886806892353;0.0;0.0;0.0;0.0;0.0;0.0;0.0;0.0;0.0;0.0;0.0;0.0;0.0;0.0;0.0;0.0;0.0;0.0;0.0;0.0;0.0;0.0;0.0;0.0;0.0;0.0;0.0;0.00345022508406
266886000000;78;266886000000;map;15.9703517831;-0.0128786119068;0.0;0.0;0.0;-0.0132625101832;0.999912049044;0.00970672710605;-0.000748519450395;0.0;0.0;0.0;0.0;-0.000748519450395;0.00947013778634;0.0;0.0;0.0;0.0;0.0;0.0;0.0;0.0;0.0;0.0;0.0;0.0;0.0;0.0;0.0;0.0;0.0;0.0;0.0;0.0;0.0;0.0;0.0;0.0;0.0;0.0;0.0;0.00603050980404
267289000000;79;267289000000;map;16.1866839784;-0.00571965271972;0.0;0.0;0.0;-0.00814032826505;0.999966866979;0.0140375612718;-0.00157527662364;0.0;0.0;0.0;0.0;-0.00157527662364;0.0112952781643;0.0;0.0;0.0;0.0;0.0;0.0;0.0;0.0;0.0;0.0;0.0;0.0;0.0;0.0;0.0;0.0;0.0;0.0;0.0;0.0;0.0;0.0;0.0;0.0;0.0;0.0;0.0;0.00657428568441
267691000000;80;267691000000;map;16.375035794;-0.0217818318026;0.0;0.0;0.0;-0.0122402586093;0.999925085228;0.0152163817014;-0.00271758950924;0.0;0.0;0.0;0.0;-0.00271758950924;0.012297260986;0.0;0.0;0.0;0.0;0.0;0.0;0.0;0.0;0.0;0.0;0.0;0.0;0.0;0.0;0.0;0.0;0.0;0.0;0.0;0.0;0.0;0.0;0.0;0.0;0.0;0.0;0.0;0.0077391172539
268093000000;81;268093000000;map;16.5814206995;-0.0257080182159;0.0;0.0;0.0;-0.00886033323123;0.999960746477;0.0149544977739;-0.00223739170507;0.0;0.0;0.0;0.0;-0.00223739170507;0.0124780042783;0.0;0.0;0.0;0.0;0.0;0.0;0.0;0.0;0.0;0.0;0.0;0.0;0.0;0.0;0.0;0.0;0.0;0.0;0.0;0.0;0.0;0.0;0.0;0.0;0.0;0.0;0.0;0.00828018648784
268494000000;82;268494000000;map;16.791060176;-0.0435535890306;0.0;0.0;0.0;-0.00269285130675;0.999996374269;0.0149347748097;-0.0017331485949;0.0;0.0;0.0;0.0;-0.0017331485949;0.0146539862458;0.0;0.0;0.0;0.0;0.0;0.0;0.0;0.0;0.0;0.0;0.0;0.0;0.0;0.0;0.0;0.0;0.0;0.0;0.0;0.0;0.0;0.0;0.0;0.0;0.0;0.0;0.0;0.00663092703448
268901000000;83;268901000000;map;17.0067213343;-0.0521729345142;0.0;0.0;0.0;-0.00446227201078;0.999990044015;0.0120074149584;-0.00341755547734;0.0;0.0;0.0;0.0;-0.00341755547734;0.014181570259;0.0;0.0;0.0;0.0;0.0;0.0;0.0;0.0;0.0;0.0;0.0;0.0;0.0;0.0;0.0;0.0;0.0;0.0;0.0;0.0;0.0;0.0;0.0;0.0;0.0;0.0;0.0;0.00890532022505
269312000000;84;269312000000;map;17.2063265316;-0.0434159244748;0.0;0.0;0.0;-0.00162579786781;0.99999867839;0.0127396205823;-0.00546465137608;0.0;0.0;0.0;0.0;-0.00546465137608;0.0131464472661;0.0;0.0;0.0;0.0;0.0;0.0;0.0;0.0;0.0;0.0;0.0;0.0;0.0;0.0;0.0;0.0;0.0;0.0;0.0;0.0;0.0;0.0;0.0;0.0;0.0;0.0;0.0;0.00677945938823
269714000000;85;269714000000;map;17.4176245015;-0.044177239913;0.0;0.0;0.0;-0.000648159805443;0.999999789944;0.01322676273;-0.00438762913297;0.0;0.0;0.0;0.0;-0.00438762913297;0.0135525018526;0.0;0.0;0.0;0.0;0.0;0.0;0.0;0.0;0.0;0.0;0.0;0.0;0.0;0.0;0.0;0.0;0.0;0.0;0.0;0.0;0.0;0.0;0.0;0.0;0.0;0.0;0.0;0.00613064014497
270115000000;86;270115000000;map;17.6054568078;-0.0369527471818;0.0;0.0;0.0;0.0026774639402;0.999996415587;0.0155209910136;-0.00427808845166;0.0;0.0;0.0;0.0;-0.00427808845166;0.00988775006933;0.0;0.0;0.0;0.0;0.0;0.0;0.0;0.0;0.0;0.0;0.0;0.0;0.0;0.0;0.0;0.0;0.0;0.0;0.0;0.0;0.0;0.0;0.0;0.0;0.0;0.0;0.0;0.00584004351515
270516000000;87;270516000000;map;17.8077452718;-0.0392054606129;0.0;0.0;0.0;0.00282251730734;0.99999601669;0.0128174726114;-0.00252793541542;0.0;0.0;0.0;0.0;-0.00252793541542;0.0119418992986;0.0;0.0;0.0;0.0;0.0;0.0;0.0;0.0;0.0;0.0;0.0;0.0;0.0;0.0;0.0;0.0;0.0;0.0;0.0;0.0;0.0;0.0;0.0;0.0;0.0;0.0;0.0;0.00695489991971
270930000000;88;270930000000;map;17.9907102506;-0.0509102009399;0.0;0.0;0.0;0.00112091149605;0.999999371779;0.0137296809135;-0.00188277745598;0.0;0.0;0.0;0.0;-0.00188277745598;0.0113286905864;0.0;0.0;0.0;0.0;0.0;0.0;0.0;0.0;0.0;0.0;0.0;0.0;0.0;0.0;0.0;0.0;0.0;0.0;0.0;0.0;0.0;0.0;0.0;0.0;0.0;0.0;0.0;0.00416887629087
271350000000;89;271350000000;map;18.1655390128;-0.0328861545858;0.0;0.0;0.0;-0.0013439299581;0.999999096926;0.0121501680845;-0.000709486048225;0.0;0.0;0.0;0.0;-0.000709486048225;0.00912862463946;0.0;0.0;0.0;0.0;0.0;0.0;0.0;0.0;0.0;0.0;0.0;0.0;0.0;0.0;0.0;0.0;0.0;0.0;0.0;0.0;0.0;0.0;0.0;0.0;0.0;0.0;0.0;0.00282965196979
271766000000;90;271766000000;map;18.3709275211;-0.0338519457008;0.0;0.0;0.0;-0.00298911495773;0.999995532586;0.0111071847239;0.00044332972191;0.0;0.0;0.0;0.0;0.00044332972191;0.00942932659118;0.0;0.0;0.0;0.0;0.0;0.0;0.0;0.0;0.0;0.0;0.0;0.0;0.0;0.0;0.0;0.0;0.0;0.0;0.0;0.0;0.0;0.0;0.0;0.0;0.0;0.0;0.0;0.00405387841096
272176000000;91;272176000000;map;18.5765254972;-0.0448150595856;0.0;0.0;0.0;-0.00198002023257;0.999998039758;0.00835570210904;0.000275338360098;0.0;0.0;0.0;0.0;0.000275338360098;0.00855997977777;0.0;0.0;0.0;0.0;0.0;0.0;0.0;0.0;0.0;0.0;0.0;0.0;0.0;0.0;0.0;0.0;0.0;0.0;0.0;0.0;0.0;0.0;0.0;0.0;0.0;0.0;0.0;0.00503125000795
272583000000;92;272583000000;map;18.7742232614;-0.0458714519027;0.0;0.0;0.0;-0.00299902348627;0.999995502919;0.0101752719516;-0.000720079924185;0.0;0.0;0.0;0.0;-0.000720079924185;0.00708771462078;0.0;0.0;0.0;0.0;0.0;0.0;0.0;0.0;0.0;0.0;0.0;0.0;0.0;0.0;0.0;0.0;0.0;0.0;0.0;0.0;0.0;0.0;0.0;0.0;0.0;0.0;0.0;0.00497021169905
273008000000;93;273008000000;map;19.0010386802;-0.0625938519019;0.0;0.0;0.0;-0.00527888484431;0.99998606659;0.00931684610737;-0.00155725637416;0.0;0.0;0.0;0.0;-0.00155725637416;0.00685198718196;0.0;0.0;0.0;0.0;0.0;0.0;0.0;0.0;0.0;0.0;0.0;0.0;0.0;0.0;0.0;0.0;0.0;0.0;0.0;0.0;0.0;0.0;0.0;0.0;0.0;0.0;0.0;0.00467927312182
273410000000;94;273410000000;map;19.2079856743;-0.0519036497483;0.0;0.0;0.0;-0.00049430258504;0.999999877832;0.0110950382694;-0.00133399828454;0.0;0.0;0.0;0.0;-0.00133399828454;0.00428485172391;0.0;0.0;0.0;0.0;0.0;0.0;0.0;0.0;0.0;0.0;0.0;0.0;0.0;0.0;0.0;0.0;0.0;0.0;0.0;0.0;0.0;0.0;0.0;0.0;0.0;0.0;0.0;0.00357823774116
273811000000;95;273811000000;map;19.4085294092;-0.0525312117082;0.0;0.0;0.0;0.00204563325358;0.99999790769;0.0123078027357;-0.00195429846047;0.0;0.0;0.0;0.0;-0.00195429846047;0.00286270642737;0.0;0.0;0.0;0.0;0.0;0.0;0.0;0.0;0.0;0.0;0.0;0.0;0.0;0.0;0.0;0.0;0.0;0.0;0.0;0.0;0.0;0.0;0.0;0.0;0.0;0.0;0.0;0.00412894297489
274212000000;96;274212000000;map;19.6255074041;-0.0553823246272;0.0;0.0;0.0;-0.00381453742116;0.999992724626;0.0105251876515;-0.000961946986823;0.0;0.0;0.0;0.0;-0.000961946986823;0.0029959400833;0.0;0.0;0.0;0.0;0.0;0.0;0.0;0.0;0.0;0.0;0.0;0.0;0.0;0.0;0.0;0.0;0.0;0.0;0.0;0.0;0.0;0.0;0.0;0.0;0.0;0.0;0.0;0.00635335729956
274620000000;97;274620000000;map;19.8312347337;-0.0593328301987;0.0;0.0;0.0;0.00120142433427;0.99999927829;0.0156160126334;-0.00186531359033;0.0;0.0;0.0;0.0;-0.00186531359033;0.00246524076128;0.0;0.0;0.0;0.0;0.0;0.0;0.0;0.0;0.0;0.0;0.0;0.0;0.0;0.0;0.0;0.0;0.0;0.0;0.0;0.0;0.0;0.0;0.0;0.0;0.0;0.0;0.0;0.00483388484314
275023000000;98;275023000000;map;20.0197830403;-0.058369040458;0.0;0.0;0.0;-0.00321583311624;0.999994829195;0.0183264733838;-0.00270983991776;0.0;0.0;0.0;0.0;-0.00270983991776;0.00268401301197;0.0;0.0;0.0;0.0;0.0;0.0;0.0;0.0;0.0;0.0;0.0;0.0;0.0;0.0;0.0;0.0;0.0;0.0;0.0;0.0;0.0;0.0;0.0;0.0;0.0;0.0;0.0;0.00436381623029
275424000000;99;275424000000;map;20.2330109569;-0.0524480381099;0.0;0.0;0.0;0.00173799844175;0.99999848968;0.0173196005169;-0.00232266176993;0.0;0.0;0.0;0.0;-0.00232266176993;0.00239612499642;0.0;0.0;0.0;0.0;0.0;0.0;0.0;0.0;0.0;0.0;0.0;0.0;0.0;0.0;0.0;0.0;0.0;0.0;0.0;0.0;0.0;0.0;0.0;0.0;0.0;0.0;0.0;0.00653713468585
275845000000;100;275845000000;map;20.4537861475;-0.0571287262958;0.0;0.0;0.0;-0.0041909204983;0.999991218054;0.0198425602768;-0.00183524475601;0.0;0.0;0.0;0.0;-0.00183524475601;0.00290571535238;0.0;0.0;0.0;0.0;0.0;0.0;0.0;0.0;0.0;0.0;0.0;0.0;0.0;0.0;0.0;0.0;0.0;0.0;0.0;0.0;0.0;0.0;0.0;0.0;0.0;0.0;0.0;0.00918082027175
276250000000;101;276250000000;map;20.6435386939;-0.064931937425;0.0;0.0;0.0;-0.00449895099013;0.999989879669;0.0240934659798;-0.00139089991061;0.0;0.0;0.0;0.0;-0.00139089991061;0.00391031212318;0.0;0.0;0.0;0.0;0.0;0.0;0.0;0.0;0.0;0.0;0.0;0.0;0.0;0.0;0.0;0.0;0.0;0.0;0.0;0.0;0.0;0.0;0.0;0.0;0.0;0.0;0.0;0.00800821030578
276657000000;102;276657000000;map;20.8460122733;-0.0745204378336;0.0;0.0;0.0;-0.00951284308623;0.999954751885;0.0261593169089;-0.00134768069292;0.0;0.0;0.0;0.0;-0.00134768069292;0.00537005331486;0.0;0.0;0.0;0.0;0.0;0.0;0.0;0.0;0.0;0.0;0.0;0.0;0.0;0.0;0.0;0.0;0.0;0.0;0.0;0.0;0.0;0.0;0.0;0.0;0.0;0.0;0.0;0.00889160964225
277060000000;103;277060000000;map;21.0293871968;-0.081683987986;0.0;0.0;0.0;-0.00550802744076;0.999984830702;0.0281836751009;-0.00186552159393;0.0;0.0;0.0;0.0;-0.00186552159393;0.00539548712091;0.0;0.0;0.0;0.0;0.0;0.0;0.0;0.0;0.0;0.0;0.0;0.0;0.0;0.0;0.0;0.0;0.0;0.0;0.0;0.0;0.0;0.0;0.0;0.0;0.0;0.0;0.0;0.00856625544528
277465000000;104;277465000000;map;21.2223160111;-0.0929466914654;0.0;0.0;0.0;-0.0104967534348;0.999944907566;0.0332634330298;-0.00227561713561;0.0;0.0;0.0;0.0;-0.00227561713561;0.00672968611398;0.0;0.0;0.0;0.0;0.0;0.0;0.0;0.0;0.0;0.0;0.0;0.0;0.0;0.0;0.0;0.0;0.0;0.0;0.0;0.0;0.0;0.0;0.0;0.0;0.0;0.0;0.0;0.00767911460214
277881000000;105;277881000000;map;21.4181605555;-0.0964760206737;0.0;0.0;0.0;-0.0188466152854;0.999822386773;0.0331500607683;0.0005060458003;0.0;0.0;0.0;0.0;0.000506045800301;0.00618693142817;0.0;0.0;0.0;0.0;0.0;0.0;0.0;0.0;0.0;0.0;0.0;0.0;0.0;0.0;0.0;0.0;0.0;0.0;0.0;0.0;0.0;0.0;0.0;0.0;0.0;0.0;0.0;0.00530146584281
278285000000;106;278285000000;map;21.6167440754;-0.0865075181125;0.0;0.0;0.0;-0.00827658379107;0.999965748494;0.0390702306714;0.00179802956599;0.0;0.0;0.0;0.0;0.00179802956599;0.00663330423534;0.0;0.0;0.0;0.0;0.0;0.0;0.0;0.0;0.0;0.0;0.0;0.0;0.0;0.0;0.0;0.0;0.0;0.0;0.0;0.0;0.0;0.0;0.0;0.0;0.0;0.0;0.0;0.00533170613376
278688000000;107;278688000000;map;21.8099653054;-0.101758107627;0.0;0.0;0.0;-0.010701370649;0.999942738694;0.0399032216679;-7.57074294766e-05;0.0;0.0;0.0;0.0;-7.57074294766e-05;0.00743759201992;0.0;0.0;0.0;0.0;0.0;0.0;0.0;0.0;0.0;0.0;0.0;0.0;0.0;0.0;0.0;0.0;0.0;0.0;0.0;0.0;0.0;0.0;0.0;0.0;0.0;0.0;0.0;0.0066089059587
279094000000;108;279094000000;map;21.9719055434;-0.104647671369;0.0;0.0;0.0;-0.0123483831853;0.99992375581;0.0374769484372;-0.000885963947763;0.0;0.0;0.0;0.0;-0.000885963947763;0.00846246654474;0.0;0.0;0.0;0.0;0.0;0.0;0.0;0.0;0.0;0.0;0.0;0.0;0.0;0.0;0.0;0.0;0.0;0.0;0.0;0.0;0.0;0.0;0.0;0.0;0.0;0.0;0.0;0.00639293425285
279496000000;109;279496000000;map;22.1895005331;-0.0950530479238;0.0;0.0;0.0;-0.00686866618522;0.999976410434;0.0367638645168;0.000742941088159;0.0;0.0;0.0;0.0;0.000742941088159;0.00658919408862;0.0;0.0;0.0;0.0;0.0;0.0;0.0;0.0;0.0;0.0;0.0;0.0;0.0;0.0;0.0;0.0;0.0;0.0;0.0;0.0;0.0;0.0;0.0;0.0;0.0;0.0;0.0;0.00851671811351
279902000000;110;279902000000;map;22.3712443296;-0.0922114583405;0.0;0.0;0.0;-0.00673351322296;0.999977329643;0.0354914423521;0.000490892069523;0.0;0.0;0.0;0.0;0.000490892069523;0.00449385052213;0.0;0.0;0.0;0.0;0.0;0.0;0.0;0.0;0.0;0.0;0.0;0.0;0.0;0.0;0.0;0.0;0.0;0.0;0.0;0.0;0.0;0.0;0.0;0.0;0.0;0.0;0.0;0.00922927877023
280303000000;111;280303000000;map;22.5600263402;-0.0956246029453;0.0;0.0;0.0;-0.00923278957288;0.99995737689;0.0328942221303;0.000685572881343;0.0;0.0;0.0;0.0;0.000685572881343;0.00315983339726;0.0;0.0;0.0;0.0;0.0;0.0;0.0;0.0;0.0;0.0;0.0;0.0;0.0;0.0;0.0;0.0;0.0;0.0;0.0;0.0;0.0;0.0;0.0;0.0;0.0;0.0;0.0;0.0116347272018
280710000000;112;280710000000;map;22.7453903115;-0.108905348724;0.0;0.0;0.0;-0.00755322538141;0.999971473986;0.0252413343502;0.00105749501056;0.0;0.0;0.0;0.0;0.00105749501056;0.00387226386204;0.0;0.0;0.0;0.0;0.0;0.0;0.0;0.0;0.0;0.0;0.0;0.0;0.0;0.0;0.0;0.0;0.0;0.0;0.0;0.0;0.0;0.0;0.0;0.0;0.0;0.0;0.0;0.00982581412181
281113000000;113;281113000000;map;22.9766566248;-0.111688568104;0.0;0.0;0.0;-0.0051969620514;0.999986495702;0.023143496614;-0.00147070773422;0.0;0.0;0.0;0.0;-0.00147070773422;0.00416842943038;0.0;0.0;0.0;0.0;0.0;0.0;0.0;0.0;0.0;0.0;0.0;0.0;0.0;0.0;0.0;0.0;0.0;0.0;0.0;0.0;0.0;0.0;0.0;0.0;0.0;0.0;0.0;0.00699512723278
281521000000;114;281521000000;map;23.184058191;-0.112261116903;0.0;0.0;0.0;-0.0106440137383;0.999943350881;0.00761698561939;0.000984887241269;0.0;0.0;0.0;0.0;0.000984887241269;0.00344843050468;0.0;0.0;0.0;0.0;0.0;0.0;0.0;0.0;0.0;0.0;0.0;0.0;0.0;0.0;0.0;0.0;0.0;0.0;0.0;0.0;0.0;0.0;0.0;0.0;0.0;0.0;0.0;0.00376209895229
281926000000;115;281926000000;map;23.3980703805;-0.131575308386;0.0;0.0;0.0;-0.0224267431534;0.999748488967;0.00692553013891;-0.00112091494034;0.0;0.0;0.0;0.0;-0.00112091494034;0.00384437046073;0.0;0.0;0.0;0.0;0.0;0.0;0.0;0.0;0.0;0.0;0.0;0.0;0.0;0.0;0.0;0.0;0.0;0.0;0.0;0.0;0.0;0.0;0.0;0.0;0.0;0.0;0.0;0.00347761058013
282327000000;116;282327000000;map;23.6146141881;-0.1409184754;0.0;0.0;0.0;-0.0224726208473;0.999747458768;0.0104114528968;-0.00156979205802;0.0;0.0;0.0;0.0;-0.00156979205802;0.00399596286506;0.0;0.0;0.0;0.0;0.0;0.0;0.0;0.0;0.0;0.0;0.0;0.0;0.0;0.0;0.0;0.0;0.0;0.0;0.0;0.0;0.0;0.0;0.0;0.0;0.0;0.0;0.0;0.00456127896785
282730000000;117;282730000000;map;23.8264238402;-0.162211895007;0.0;0.0;0.0;-0.0304069659456;0.999537601305;0.0138458012766;-0.00199958132772;0.0;0.0;0.0;0.0;-0.00199958132772;0.00548667168206;0.0;0.0;0.0;0.0;0.0;0.0;0.0;0.0;0.0;0.0;0.0;0.0;0.0;0.0;0.0;0.0;0.0;0.0;0.0;0.0;0.0;0.0;0.0;0.0;0.0;0.0;0.0;0.00440902657508
283136000000;118;283136000000;map;24.0325289272;-0.160412526778;0.0;0.0;0.0;-0.01899026153;0.999819668724;0.0240652326141;0.000283751265464;0.0;0.0;0.0;0.0;0.000283751265464;0.00657501550451;0.0;0.0;0.0;0.0;0.0;0.0;0.0;0.0;0.0;0.0;0.0;0.0;0.0;0.0;0.0;0.0;0.0;0.0;0.0;0.0;0.0;0.0;0.0;0.0;0.0;0.0;0.0;0.00475606087137
283537000000;119;283537000000;map;24.2286610809;-0.14797507937;0.0;0.0;0.0;-0.0124846461301;0.999922063768;0.0242317223169;0.00199946601383;0.0;0.0;0.0;0.0;0.00199946601383;0.00656733229474;0.0;0.0;0.0;0.0;0.0;0.0;0.0;0.0;0.0;0.0;0.0;0.0;0.0;0.0;0.0;0.0;0.0;0.0;0.0;0.0;0.0;0.0;0.0;0.0;0.0;0.0;0.0;0.00398819609008
283938000000;120;283938000000;map;24.4116983296;-0.143227557707;0.0;0.0;0.0;-0.0106705566297;0.99994306799;0.0250893862456;0.0032672993905;0.0;0.0;0.0;0.0;0.0032672993905;0.00562334603111;0.0;0.0;0.0;0.0;0.0;0.0;0.0;0.0;0.0;0.0;0.0;0.0;0.0;0.0;0.0;0.0;0.0;0.0;0.0;0.0;0.0;0.0;0.0;0.0;0.0;0.0;0.0;0.0069846875196
284339000000;121;284339000000;map;24.6005726924;-0.136852757649;0.0;0.0;0.0;-0.00529431306218;0.999985985026;0.02561057014;0.00399922910601;0.0;0.0;0.0;0.0;0.00399922910601;0.00427554356455;0.0;0.0;0.0;0.0;0.0;0.0;0.0;0.0;0.0;0.0;0.0;0.0;0.0;0.0;0.0;0.0;0.0;0.0;0.0;0.0;0.0;0.0;0.0;0.0;0.0;0.0;0.0;0.00408348209286
284742000000;122;284742000000;map;24.8174748865;-0.130582813592;0.0;0.0;0.0;-0.00589142344997;0.999982645414;0.0284488294371;0.00372271610701;0.0;0.0;0.0;0.0;0.00372271610701;0.00424803269084;0.0;0.0;0.0;0.0;0.0;0.0;0.0;0.0;0.0;0.0;0.0;0.0;0.0;0.0;0.0;0.0;0.0;0.0;0.0;0.0;0.0;0.0;0.0;0.0;0.0;0.0;0.0;0.00513788448224
285161000000;123;285161000000;map;25.0123674159;-0.14159206519;0.0;0.0;0.0;-0.00656020255516;0.99997848164;0.0235052673227;0.00267726984404;0.0;0.0;0.0;0.0;0.00267726984404;0.00455311649163;0.0;0.0;0.0;0.0;0.0;0.0;0.0;0.0;0.0;0.0;0.0;0.0;0.0;0.0;0.0;0.0;0.0;0.0;0.0;0.0;0.0;0.0;0.0;0.0;0.0;0.0;0.0;0.00632729805104
285564000000;124;285564000000;map;25.2216798956;-0.149801158933;0.0;0.0;0.0;-0.00916967765738;0.999957957622;0.0208721969472;0.00184695576487;0.0;0.0;0.0;0.0;0.00184695576488;0.00563303696702;0.0;0.0;0.0;0.0;0.0;0.0;0.0;0.0;0.0;0.0;0.0;0.0;0.0;0.0;0.0;0.0;0.0;0.0;0.0;0.0;0.0;0.0;0.0;0.0;0.0;0.0;0.0;0.00673160361803
285974000000;125;285974000000;map;25.4284643125;-0.165873331587;0.0;0.0;0.0;-0.010694083812;0.999942816651;0.0175397470971;0.000853759469289;0.0;0.0;0.0;0.0;0.000853759469289;0.00621943652584;0.0;0.0;0.0;0.0;0.0;0.0;0.0;0.0;0.0;0.0;0.0;0.0;0.0;0.0;0.0;0.0;0.0;0.0;0.0;0.0;0.0;0.0;0.0;0.0;0.0;0.0;0.0;0.0070423612511
286379000000;126;286379000000;map;25.6322642577;-0.178679938531;0.0;0.0;0.0;-0.00852361366559;0.999963673345;0.0231566829835;-0.000206774158641;0.0;0.0;0.0;0.0;-0.000206774158641;0.00634412423413;0.0;0.0;0.0;0.0;0.0;0.0;0.0;0.0;0.0;0.0;0.0;0.0;0.0;0.0;0.0;0.0;0.0;0.0;0.0;0.0;0.0;0.0;0.0;0.0;0.0;0.0;0.0;0.00884616919492
286800000000;127;286800000000;map;25.8133397576;-0.169468464083;0.0;0.0;0.0;-0.00529124224804;0.99998600128;0.0269883709029;-0.000504040799148;0.0;0.0;0.0;0.0;-0.000504040799148;0.00643020781338;0.0;0.0;0.0;0.0;0.0;0.0;0.0;0.0;0.0;0.0;0.0;0.0;0.0;0.0;0.0;0.0;0.0;0.0;0.0;0.0;0.0;0.0;0.0;0.0;0.0;0.0;0.0;0.00792650794473
287204000000;128;287204000000;map;26.0077158099;-0.172215231537;0.0;0.0;0.0;-0.00587645131429;0.999982733511;0.0321988774956;0.000562448741995;0.0;0.0;0.0;0.0;0.000562448741995;0.00665631401042;0.0;0.0;0.0;0.0;0.0;0.0;0.0;0.0;0.0;0.0;0.0;0.0;0.0;0.0;0.0;0.0;0.0;0.0;0.0;0.0;0.0;0.0;0.0;0.0;0.0;0.0;0.0;0.00643335989611
287605000000;129;287605000000;map;26.1877058886;-0.18085127663;0.0;0.0;0.0;-0.00800647041813;0.999967947702;0.0261835896704;0.000478235266661;0.0;0.0;0.0;0.0;0.000478235266661;0.00736860695211;0.0;0.0;0.0;0.0;0.0;0.0;0.0;0.0;0.0;0.0;0.0;0.0;0.0;0.0;0.0;0.0;0.0;0.0;0.0;0.0;0.0;0.0;0.0;0.0;0.0;0.0;0.0;0.00661537014468
288024000000;130;288024000000;map;26.4334148949;-0.178307072303;0.0;0.0;0.0;-0.00813542002959;0.999966906923;0.026764999409;-0.00219826897628;0.0;0.0;0.0;0.0;-0.00219826897628;0.00842207010536;0.0;0.0;0.0;0.0;0.0;0.0;0.0;0.0;0.0;0.0;0.0;0.0;0.0;0.0;0.0;0.0;0.0;0.0;0.0;0.0;0.0;0.0;0.0;0.0;0.0;0.0;0.0;0.00594465598672
288427000000;131;288427000000;map;26.6466938124;-0.16273268888;0.0;0.0;0.0;0.0109367543682;0.999940191913;0.0364498129028;0.000115825306807;0.0;0.0;0.0;0.0;0.000115825306807;0.00735437452354;0.0;0.0;0.0;0.0;0.0;0.0;0.0;0.0;0.0;0.0;0.0;0.0;0.0;0.0;0.0;0.0;0.0;0.0;0.0;0.0;0.0;0.0;0.0;0.0;0.0;0.0;0.0;0.00534603776818
288848000000;132;288848000000;map;26.8400514001;-0.157323686571;0.0;0.0;0.0;0.00457303875524;0.999989543604;0.0250019275669;0.00282790714076;0.0;0.0;0.0;0.0;0.00282790714076;0.00741368453983;0.0;0.0;0.0;0.0;0.0;0.0;0.0;0.0;0.0;0.0;0.0;0.0;0.0;0.0;0.0;0.0;0.0;0.0;0.0;0.0;0.0;0.0;0.0;0.0;0.0;0.0;0.0;0.007571000381
289267000000;133;289267000000;map;27.0288273939;-0.16723869228;0.0;0.0;0.0;0.00452457099284;0.999989764076;0.0198507513563;0.00244710595346;0.0;0.0;0.0;0.0;0.00244710595346;0.00764816281448;0.0;0.0;0.0;0.0;0.0;0.0;0.0;0.0;0.0;0.0;0.0;0.0;0.0;0.0;0.0;0.0;0.0;0.0;0.0;0.0;0.0;0.0;0.0;0.0;0.0;0.0;0.0;0.00814281261427
289673000000;134;289673000000;map;27.2288063194;-0.1695496821;0.0;0.0;0.0;-0.00665377803696;0.999977863374;0.0197726841903;0.00249580539716;0.0;0.0;0.0;0.0;0.00249580539716;0.00652090385412;0.0;0.0;0.0;0.0;0.0;0.0;0.0;0.0;0.0;0.0;0.0;0.0;0.0;0.0;0.0;0.0;0.0;0.0;0.0;0.0;0.0;0.0;0.0;0.0;0.0;0.0;0.0;0.0055606247399
290093000000;135;290093000000;map;27.440792156;-0.174866080728;0.0;0.0;0.0;-0.00857949515723;0.999963195454;0.0205963499891;0.00182737435971;0.0;0.0;0.0;0.0;0.00182737435971;0.00609284684288;0.0;0.0;0.0;0.0;0.0;0.0;0.0;0.0;0.0;0.0;0.0;0.0;0.0;0.0;0.0;0.0;0.0;0.0;0.0;0.0;0.0;0.0;0.0;0.0;0.0;0.0;0.0;0.00621234950577
290495000000;136;290495000000;map;27.6360302797;-0.178620741771;0.0;0.0;0.0;-0.00695114016258;0.999975840533;0.0248110564562;0.00159832066578;0.0;0.0;0.0;0.0;0.00159832066578;0.00615038810036;0.0;0.0;0.0;0.0;0.0;0.0;0.0;0.0;0.0;0.0;0.0;0.0;0.0;0.0;0.0;0.0;0.0;0.0;0.0;0.0;0.0;0.0;0.0;0.0;0.0;0.0;0.0;0.00633979935777
290915000000;137;290915000000;map;27.8423664768;-0.178437960426;0.0;0.0;0.0;-0.0107895551441;0.999941791056;0.0175566677425;0.000995656313422;0.0;0.0;0.0;0.0;0.000995656313422;0.00694850363297;0.0;0.0;0.0;0.0;0.0;0.0;0.0;0.0;0.0;0.0;0.0;0.0;0.0;0.0;0.0;0.0;0.0;0.0;0.0;0.0;0.0;0.0;0.0;0.0;0.0;0.0;0.0;0.00959006419277
291330000000;138;291330000000;map;28.0490909419;-0.175849257645;0.0;0.0;0.0;-0.0169590603413;0.999856184795;0.0136233215309;0.000442973884547;0.0;0.0;0.0;0.0;0.000442973884547;0.00538652957512;0.0;0.0;0.0;0.0;0.0;0.0;0.0;0.0;0.0;0.0;0.0;0.0;0.0;0.0;0.0;0.0;0.0;0.0;0.0;0.0;0.0;0.0;0.0;0.0;0.0;0.0;0.0;0.00931505242664
291731000000;139;291731000000;map;28.255095802;-0.163232162822;0.0;0.0;0.0;-0.005136996749;0.999986805545;0.015733720035;0.00716457908556;0.0;0.0;0.0;0.0;0.00716457908556;0.00784298915123;0.0;0.0;0.0;0.0;0.0;0.0;0.0;0.0;0.0;0.0;0.0;0.0;0.0;0.0;0.0;0.0;0.0;0.0;0.0;0.0;0.0;0.0;0.0;0.0;0.0;0.0;0.0;0.00630816475803
292134000000;140;292134000000;map;28.4858294051;-0.149360168273;0.0;0.0;0.0;-0.00147957096276;0.999998905434;0.0157265418596;0.00721978788696;0.0;0.0;0.0;0.0;0.00721978788696;0.00686852218835;0.0;0.0;0.0;0.0;0.0;0.0;0.0;0.0;0.0;0.0;0.0;0.0;0.0;0.0;0.0;0.0;0.0;0.0;0.0;0.0;0.0;0.0;0.0;0.0;0.0;0.0;0.0;0.00842756790715
292537000000;141;292537000000;map;28.6983448981;-0.14819585547;0.0;0.0;0.0;-0.00165852990029;0.999998624638;0.0194539144187;0.00806499054548;0.0;0.0;0.0;0.0;0.00806499054548;0.00613728125843;0.0;0.0;0.0;0.0;0.0;0.0;0.0;0.0;0.0;0.0;0.0;0.0;0.0;0.0;0.0;0.0;0.0;0.0;0.0;0.0;0.0;0.0;0.0;0.0;0.0;0.0;0.0;0.00826911949
292945000000;142;292945000000;map;28.890170809;-0.153080543623;0.0;0.0;0.0;0.00791077233649;0.999968709351;0.0252669250123;0.00925663375661;0.0;0.0;0.0;0.0;0.00925663375661;0.00666965878187;0.0;0.0;0.0;0.0;0.0;0.0;0.0;0.0;0.0;0.0;0.0;0.0;0.0;0.0;0.0;0.0;0.0;0.0;0.0;0.0;0.0;0.0;0.0;0.0;0.0;0.0;0.0;0.00867038408905
293357000000;143;293357000000;map;29.1021959658;-0.149598291838;0.0;0.0;0.0;0.00263493150901;0.999996528562;0.0232140389253;0.00916578531441;0.0;0.0;0.0;0.0;0.00916578531441;0.00680348690522;0.0;0.0;0.0;0.0;0.0;0.0;0.0;0.0;0.0;0.0;0.0;0.0;0.0;0.0;0.0;0.0;0.0;0.0;0.0;0.0;0.0;0.0;0.0;0.0;0.0;0.0;0.0;0.00725458223984
293777000000;144;293777000000;map;29.2503746982;-0.176139682048;0.0;0.0;0.0;-0.0101305878035;0.999948684279;0.00879120094748;0.00439990437067;0.0;0.0;0.0;0.0;0.00439990437067;0.00386075662975;0.0;0.0;0.0;0.0;0.0;0.0;0.0;0.0;0.0;0.0;0.0;0.0;0.0;0.0;0.0;0.0;0.0;0.0;0.0;0.0;0.0;0.0;0.0;0.0;0.0;0.0;0.0;0.00607998209173
294180000000;145;294180000000;map;29.4523070296;-0.19674678539;0.0;0.0;0.0;-0.0183752728385;0.999831160421;0.00855810622875;0.0025217680645;0.0;0.0;0.0;0.0;0.0025217680645;0.00272516682688;0.0;0.0;0.0;0.0;0.0;0.0;0.0;0.0;0.0;0.0;0.0;0.0;0.0;0.0;0.0;0.0;0.0;0.0;0.0;0.0;0.0;0.0;0.0;0.0;0.0;0.0;0.0;0.00389118078982
294582000000;146;294582000000;map;29.6798246562;-0.184054748732;0.0;0.0;0.0;0.00193432644296;0.999998129189;0.00945511393149;0.00249230336777;0.0;0.0;0.0;0.0;0.00249230336777;0.00210648245567;0.0;0.0;0.0;0.0;0.0;0.0;0.0;0.0;0.0;0.0;0.0;0.0;0.0;0.0;0.0;0.0;0.0;0.0;0.0;0.0;0.0;0.0;0.0;0.0;0.0;0.0;0.0;0.00434701590017
295002000000;147;295002000000;map;29.8959233736;-0.176631174152;0.0;0.0;0.0;0.00903845023385;0.999959152374;0.0136267546917;0.00206385426523;0.0;0.0;0.0;0.0;0.00206385426523;0.000981410589597;0.0;0.0;0.0;0.0;0.0;0.0;0.0;0.0;0.0;0.0;0.0;0.0;0.0;0.0;0.0;0.0;0.0;0.0;0.0;0.0;0.0;0.0;0.0;0.0;0.0;0.0;0.0;0.00474421800581
295422000000;148;295422000000;map;30.1034065042;-0.170073273747;0.0;0.0;0.0;0.0165272932561;0.999863414961;0.0140318822897;0.00225685234237;0.0;0.0;0.0;0.0;0.00225685234237;0.00150297530446;0.0;0.0;0.0;0.0;0.0;0.0;0.0;0.0;0.0;0.0;0.0;0.0;0.0;0.0;0.0;0.0;0.0;0.0;0.0;0.0;0.0;0.0;0.0;0.0;0.0;0.0;0.0;0.0076611389519
295823000000;149;295823000000;map;30.2780527615;-0.174614185625;0.0;0.0;0.0;0.000984255660129;0.99999951562;0.0185434971402;0.00352464035666;0.0;0.0;0.0;0.0;0.00352464035666;0.00277154332011;0.0;0.0;0.0;0.0;0.0;0.0;0.0;0.0;0.0;0.0;0.0;0.0;0.0;0.0;0.0;0.0;0.0;0.0;0.0;0.0;0.0;0.0;0.0;0.0;0.0;0.0;0.0;0.00510200845565
296227000000;150;296227000000;map;30.4555333388;-0.178871988011;0.0;0.0;0.0;0.00687924188762;0.999976337736;0.0234726370836;0.004690072174;0.0;0.0;0.0;0.0;0.004690072174;0.00336015194359;0.0;0.0;0.0;0.0;0.0;0.0;0.0;0.0;0.0;0.0;0.0;0.0;0.0;0.0;0.0;0.0;0.0;0.0;0.0;0.0;0.0;0.0;0.0;0.0;0.0;0.0;0.0;0.00516501637697
296632000000;151;296632000000;map;30.5984812123;-0.199748430611;0.0;0.0;0.0;-0.00576606863026;0.999983376088;0.0207313827793;0.00171186058367;0.0;0.0;0.0;0.0;0.00171186058367;0.00130584075653;0.0;0.0;0.0;0.0;0.0;0.0;0.0;0.0;0.0;0.0;0.0;0.0;0.0;0.0;0.0;0.0;0.0;0.0;0.0;0.0;0.0;0.0;0.0;0.0;0.0;0.0;0.0;0.00357731895262
297040000000;152;297040000000;map;30.8379685821;-0.203997571756;0.0;0.0;0.0;-0.000734817605095;0.999999730022;0.0221243442534;0.00189919054427;0.0;0.0;0.0;0.0;0.00189919054427;0.000897131379571;0.0;0.0;0.0;0.0;0.0;0.0;0.0;0.0;0.0;0.0;0.0;0.0;0.0;0.0;0.0;0.0;0.0;0.0;0.0;0.0;0.0;0.0;0.0;0.0;0.0;0.0;0.0;0.00575224672161
297441000000;153;297441000000;map;31.0447260371;-0.203772439537;0.0;0.0;0.0;-0.00295709660206;0.99999562778;0.023015687116;0.00157827357714;0.0;0.0;0.0;0.0;0.00157827357714;0.00154078370906;0.0;0.0;0.0;0.0;0.0;0.0;0.0;0.0;0.0;0.0;0.0;0.0;0.0;0.0;0.0;0.0;0.0;0.0;0.0;0.0;0.0;0.0;0.0;0.0;0.0;0.0;0.0;0.00661998821463
297844000000;154;297844000000;map;31.2650136545;-0.197018376028;0.0;0.0;0.0;0.00253579637609;0.999996784863;0.0185008041531;2.32394570716e-05;0.0;0.0;0.0;0.0;2.32394570734e-05;0.00207010869839;0.0;0.0;0.0;0.0;0.0;0.0;0.0;0.0;0.0;0.0;0.0;0.0;0.0;0.0;0.0;0.0;0.0;0.0;0.0;0.0;0.0;0.0;0.0;0.0;0.0;0.0;0.0;0.00625759636115
298250000000;155;298250000000;map;31.4515815344;-0.197529554164;0.0;0.0;0.0;0.00426594704694;0.999990900806;0.0213990885987;-0.00163527491792;0.0;0.0;0.0;0.0;-0.00163527491792;0.00313855630202;0.0;0.0;0.0;0.0;0.0;0.0;0.0;0.0;0.0;0.0;0.0;0.0;0.0;0.0;0.0;0.0;0.0;0.0;0.0;0.0;0.0;0.0;0.0;0.0;0.0;0.0;0.0;0.00600951964823
298660000000;156;298660000000;map;31.6624129054;-0.200789809735;0.0;0.0;0.0;-0.00360398925762;0.99999350561;0.0201553086393;-0.000272218568941;0.0;0.0;0.0;0.0;-0.000272218568939;0.00416295411151;0.0;0.0;0.0;0.0;0.0;0.0;0.0;0.0;0.0;0.0;0.0;0.0;0.0;0.0;0.0;0.0;0.0;0.0;0.0;0.0;0.0;0.0;0.0;0.0;0.0;0.0;0.0;0.00484486660447
299079000000;157;299079000000;map;31.8484381586;-0.205221818481;0.0;0.0;0.0;-0.00143366540562;0.999998972301;0.0251923750449;-5.70583103796e-05;0.0;0.0;0.0;0.0;-5.70583103796e-05;0.00479454908375;0.0;0.0;0.0;0.0;0.0;0.0;0.0;0.0;0.0;0.0;0.0;0.0;0.0;0.0;0.0;0.0;0.0;0.0;0.0;0.0;0.0;0.0;0.0;0.0;0.0;0.0;0.0;0.00364264426039
299479000000;158;299479000000;map;32.0535414158;-0.197674115488;0.0;0.0;0.0;-0.014553142207;0.999894097418;0.0362890681038;-0.00013181126764;0.0;0.0;0.0;0.0;-0.00013181126764;0.00468403636622;0.0;0.0;0.0;0.0;0.0;0.0;0.0;0.0;0.0;0.0;0.0;0.0;0.0;0.0;0.0;0.0;0.0;0.0;0.0;0.0;0.0;0.0;0.0;0.0;0.0;0.0;0.0;0.00513143987103
299881000000;159;299881000000;map;32.2433444372;-0.19271461476;0.0;0.0;0.0;-0.0151428362446;0.999885340682;0.038092457532;-0.00186357612117;0.0;0.0;0.0;0.0;-0.00186357612117;0.00502278287665;0.0;0.0;0.0;0.0;0.0;0.0;0.0;0.0;0.0;0.0;0.0;0.0;0.0;0.0;0.0;0.0;0.0;0.0;0.0;0.0;0.0;0.0;0.0;0.0;0.0;0.0;0.0;0.0083018807005
300300000000;160;300300000000;map;32.5113537767;-0.204201775626;0.0;0.0;0.0;-0.0057698085369;0.999983354516;0.0392275263421;0.000904819566834;0.0;0.0;0.0;0.0;0.000904819566834;0.00489867886392;0.0;0.0;0.0;0.0;0.0;0.0;0.0;0.0;0.0;0.0;0.0;0.0;0.0;0.0;0.0;0.0;0.0;0.0;0.0;0.0;0.0;0.0;0.0;0.0;0.0;0.0;0.0;0.00733652445393
300705000000;161;300705000000;map;32.7393338923;-0.196849589158;0.0;0.0;0.0;-0.00400493243207;0.999991980226;0.0473448426596;0.000412847034392;0.0;0.0;0.0;0.0;0.000412847034392;0.00583129406497;0.0;0.0;0.0;0.0;0.0;0.0;0.0;0.0;0.0;0.0;0.0;0.0;0.0;0.0;0.0;0.0;0.0;0.0;0.0;0.0;0.0;0.0;0.0;0.0;0.0;0.0;0.0;0.00829823949251
301108000000;162;301108000000;map;32.9662288475;-0.177233573555;0.0;0.0;0.0;-0.00578158934964;0.999983286473;0.0617861541966;0.00150273600885;0.0;0.0;0.0;0.0;0.00150273600885;0.00519713075534;0.0;0.0;0.0;0.0;0.0;0.0;0.0;0.0;0.0;0.0;0.0;0.0;0.0;0.0;0.0;0.0;0.0;0.0;0.0;0.0;0.0;0.0;0.0;0.0;0.0;0.0;0.0;0.00776698530402
301515000000;163;301515000000;map;33.1835872814;-0.17739473969;0.0;0.0;0.0;-0.00859468096781;0.999963065047;0.061860150576;0.0026025001208;0.0;0.0;0.0;0.0;0.0026025001208;0.00513045978478;0.0;0.0;0.0;0.0;0.0;0.0;0.0;0.0;0.0;0.0;0.0;0.0;0.0;0.0;0.0;0.0;0.0;0.0;0.0;0.0;0.0;0.0;0.0;0.0;0.0;0.0;0.0;0.00579252417978
301916000000;164;301916000000;map;33.386222986;-0.186905669247;0.0;0.0;0.0;-0.00793381434862;0.9999685268;0.0735538151878;0.00251115726988;0.0;0.0;0.0;0.0;0.00251115726988;0.00475953502538;0.0;0.0;0.0;0.0;0.0;0.0;0.0;0.0;0.0;0.0;0.0;0.0;0.0;0.0;0.0;0.0;0.0;0.0;0.0;0.0;0.0;0.0;0.0;0.0;0.0;0.0;0.0;0.00605692536943
302326000000;165;302326000000;map;33.5664204274;-0.19531729536;0.0;0.0;0.0;-0.0068438276733;0.999976580737;0.061959701259;-0.00251184262197;0.0;0.0;0.0;0.0;-0.00251184262197;0.00376845433665;0.0;0.0;0.0;0.0;0.0;0.0;0.0;0.0;0.0;0.0;0.0;0.0;0.0;0.0;0.0;0.0;0.0;0.0;0.0;0.0;0.0;0.0;0.0;0.0;0.0;0.0;0.0;0.00474300538512
302730000000;166;302730000000;map;33.7948789903;-0.201102036019;0.0;0.0;0.0;-0.0090552776147;0.999959000133;0.0620846669615;-0.000317117385658;0.0;0.0;0.0;0.0;-0.000317117385658;0.00348171060844;0.0;0.0;0.0;0.0;0.0;0.0;0.0;0.0;0.0;0.0;0.0;0.0;0.0;0.0;0.0;0.0;0.0;0.0;0.0;0.0;0.0;0.0;0.0;0.0;0.0;0.0;0.0;0.00770474153672
303132000000;167;303132000000;map;33.9622660964;-0.197239324813;0.0;0.0;0.0;-0.01393990017;0.999902834871;0.0556136236057;0.00312953109167;0.0;0.0;0.0;0.0;0.00312953109167;0.00394652688996;0.0;0.0;0.0;0.0;0.0;0.0;0.0;0.0;0.0;0.0;0.0;0.0;0.0;0.0;0.0;0.0;0.0;0.0;0.0;0.0;0.0;0.0;0.0;0.0;0.0;0.0;0.0;0.00660029629681
303533000000;168;303533000000;map;34.1448298075;-0.202112604729;0.0;0.0;0.0;-0.00609866871422;0.999981402947;0.0608554102587;0.00628994400579;0.0;0.0;0.0;0.0;0.00628994400579;0.00363489653824;0.0;0.0;0.0;0.0;0.0;0.0;0.0;0.0;0.0;0.0;0.0;0.0;0.0;0.0;0.0;0.0;0.0;0.0;0.0;0.0;0.0;0.0;0.0;0.0;0.0;0.0;0.0;0.00676608909215
303952000000;169;303952000000;map;34.4044883307;-0.189322225803;0.0;0.0;0.0;0.00433686655498;0.99999059575;0.0601874614229;0.00590686174611;0.0;0.0;0.0;0.0;0.00590686174611;0.00416205407814;0.0;0.0;0.0;0.0;0.0;0.0;0.0;0.0;0.0;0.0;0.0;0.0;0.0;0.0;0.0;0.0;0.0;0.0;0.0;0.0;0.0;0.0;0.0;0.0;0.0;0.0;0.0;0.00526426075202
304353000000;170;304353000000;map;34.6091682022;-0.194082815507;0.0;0.0;0.0;-0.00101934285967;0.99999948047;0.0563839823271;0.00580035525375;0.0;0.0;0.0;0.0;0.00580035525375;0.00555575377388;0.0;0.0;0.0;0.0;0.0;0.0;0.0;0.0;0.0;0.0;0.0;0.0;0.0;0.0;0.0;0.0;0.0;0.0;0.0;0.0;0.0;0.0;0.0;0.0;0.0;0.0;0.0;0.00733280742376
304754000000;171;304754000000;map;34.838262284;-0.195792871908;0.0;0.0;0.0;-0.00289881101134;0.999995798439;0.0514701450861;0.00669941309051;0.0;0.0;0.0;0.0;0.00669941309051;0.00668137045684;0.0;0.0;0.0;0.0;0.0;0.0;0.0;0.0;0.0;0.0;0.0;0.0;0.0;0.0;0.0;0.0;0.0;0.0;0.0;0.0;0.0;0.0;0.0;0.0;0.0;0.0;0.0;0.00833875292989
305162000000;172;305162000000;map;35.0606165558;-0.19737328737;0.0;0.0;0.0;5.47031233987e-05;0.999999998504;0.0534888255786;0.00649897969128;0.0;0.0;0.0;0.0;0.00649897969128;0.00644052617759;0.0;0.0;0.0;0.0;0.0;0.0;0.0;0.0;0.0;0.0;0.0;0.0;0.0;0.0;0.0;0.0;0.0;0.0;0.0;0.0;0.0;0.0;0.0;0.0;0.0;0.0;0.0;0.00754866579789
305566000000;173;305566000000;map;35.2489710038;-0.198836855851;0.0;0.0;0.0;-0.000697632507651;0.999999756654;0.0412967820307;0.00481228343878;0.0;0.0;0.0;0.0;0.00481228343878;0.00628047714026;0.0;0.0;0.0;0.0;0.0;0.0;0.0;0.0;0.0;0.0;0.0;0.0;0.0;0.0;0.0;0.0;0.0;0.0;0.0;0.0;0.0;0.0;0.0;0.0;0.0;0.0;0.0;0.0086362161279
305967000000;174;305967000000;map;35.3855505094;-0.19723932773;0.0;0.0;0.0;-0.00189765117589;0.999998199458;0.0328664073941;0.00416119043034;0.0;0.0;0.0;0.0;0.00416119043034;0.00667900366612;0.0;0.0;0.0;0.0;0.0;0.0;0.0;0.0;0.0;0.0;0.0;0.0;0.0;0.0;0.0;0.0;0.0;0.0;0.0;0.0;0.0;0.0;0.0;0.0;0.0;0.0;0.0;0.00566036088358
306369000000;175;306369000000;map;35.5969528127;-0.203305241803;0.0;0.0;0.0;-0.00372635512478;0.999993057115;0.0260299344454;0.00190808658751;0.0;0.0;0.0;0.0;0.00190808658751;0.00679079287994;0.0;0.0;0.0;0.0;0.0;0.0;0.0;0.0;0.0;0.0;0.0;0.0;0.0;0.0;0.0;0.0;0.0;0.0;0.0;0.0;0.0;0.0;0.0;0.0;0.0;0.0;0.0;0.0066505030056
306775000000;176;306775000000;map;35.796122045;-0.210712588137;0.0;0.0;0.0;0.00259242995553;0.999996639648;0.0244941905905;0.00131975327385;0.0;0.0;0.0;0.0;0.00131975327385;0.00692533203679;0.0;0.0;0.0;0.0;0.0;0.0;0.0;0.0;0.0;0.0;0.0;0.0;0.0;0.0;0.0;0.0;0.0;0.0;0.0;0.0;0.0;0.0;0.0;0.0;0.0;0.0;0.0;0.0050284067989
307178000000;177;307178000000;map;36.0254383426;-0.208064874331;0.0;0.0;0.0;-0.00181106964656;0.999998360012;0.0303385114785;0.00156127380088;0.0;0.0;0.0;0.0;0.00156127380088;0.00598728950895;0.0;0.0;0.0;0.0;0.0;0.0;0.0;0.0;0.0;0.0;0.0;0.0;0.0;0.0;0.0;0.0;0.0;0.0;0.0;0.0;0.0;0.0;0.0;0.0;0.0;0.0;0.0;0.00410732490227
307597000000;178;307597000000;map;36.205640703;-0.207467205897;0.0;0.0;0.0;-0.00286279822389;0.999995902185;0.0330875005143;0.001389860708;0.0;0.0;0.0;0.0;0.001389860708;0.00427939880452;0.0;0.0;0.0;0.0;0.0;0.0;0.0;0.0;0.0;0.0;0.0;0.0;0.0;0.0;0.0;0.0;0.0;0.0;0.0;0.0;0.0;0.0;0.0;0.0;0.0;0.0;0.0;0.00567482251112
308016000000;179;308016000000;map;36.4532923132;-0.214103553044;0.0;0.0;0.0;-0.00708698144437;0.999974887032;0.0385486850521;0.000329339722731;0.0;0.0;0.0;0.0;0.000329339722731;0.00380337169152;0.0;0.0;0.0;0.0;0.0;0.0;0.0;0.0;0.0;0.0;0.0;0.0;0.0;0.0;0.0;0.0;0.0;0.0;0.0;0.0;0.0;0.0;0.0;0.0;0.0;0.0;0.0;0.00447352797325
308424000000;180;308424000000;map;36.6595988511;-0.210218733992;0.0;0.0;0.0;-0.00478116459941;0.999988570167;0.036594753436;0.00132850681451;0.0;0.0;0.0;0.0;0.00132850681451;0.00306418647864;0.0;0.0;0.0;0.0;0.0;0.0;0.0;0.0;0.0;0.0;0.0;0.0;0.0;0.0;0.0;0.0;0.0;0.0;0.0;0.0;0.0;0.0;0.0;0.0;0.0;0.0;0.0;0.00447249776294
308825000000;181;308825000000;map;36.8572163166;-0.211441411341;0.0;0.0;0.0;0.007182288374;0.999974207034;0.0312041582574;-0.000960485371765;0.0;0.0;0.0;0.0;-0.000960485371764;0.00343093256267;0.0;0.0;0.0;0.0;0.0;0.0;0.0;0.0;0.0;0.0;0.0;0.0;0.0;0.0;0.0;0.0;0.0;0.0;0.0;0.0;0.0;0.0;0.0;0.0;0.0;0.0;0.0;0.00408582757312
310240000000;182;310240000000;map;37.0378357883;-0.216567853266;0.0;0.0;0.0;0.122979535847;0.992409206811;0.0470839802524;-0.00160334859313;0.0;0.0;0.0;0.0;-0.00160334859313;0.00437719351781;0.0;0.0;0.0;0.0;0.0;0.0;0.0;0.0;0.0;0.0;0.0;0.0;0.0;0.0;0.0;0.0;0.0;0.0;0.0;0.0;0.0;0.0;0.0;0.0;0.0;0.0;0.0;0.0078823152812
311366000000;183;311366000000;map;37.0473577574;-0.214640875401;0.0;0.0;0.0;0.244185627997;0.969728507924;0.0539516756742;0.00205729299367;0.0;0.0;0.0;0.0;0.00205729299367;0.00502463155906;0.0;0.0;0.0;0.0;0.0;0.0;0.0;0.0;0.0;0.0;0.0;0.0;0.0;0.0;0.0;0.0;0.0;0.0;0.0;0.0;0.0;0.0;0.0;0.0;0.0;0.0;0.0;0.0115445154464
312476000000;184;312476000000;map;37.0686810311;-0.211893886141;0.0;0.0;0.0;0.358829757133;0.933403024098;0.0499315385559;0.00125570124899;0.0;0.0;0.0;0.0;0.00125570124899;0.00505510579771;0.0;0.0;0.0;0.0;0.0;0.0;0.0;0.0;0.0;0.0;0.0;0.0;0.0;0.0;0.0;0.0;0.0;0.0;0.0;0.0;0.0;0.0;0.0;0.0;0.0;0.0;0.0;0.008752941426
313600000000;185;313600000000;map;37.0626982146;-0.229902293265;0.0;0.0;0.0;0.462444840878;0.886648052581;0.040764651159;0.000571155421657;0.0;0.0;0.0;0.0;0.000571155421657;0.00627819951825;0.0;0.0;0.0;0.0;0.0;0.0;0.0;0.0;0.0;0.0;0.0;0.0;0.0;0.0;0.0;0.0;0.0;0.0;0.0;0.0;0.0;0.0;0.0;0.0;0.0;0.0;0.0;0.0112145963439
314663000000;186;314663000000;map;37.0561674891;-0.222162105298;0.0;0.0;0.0;0.576354232686;0.817199974587;0.0451227543906;0.00274700780524;0.0;0.0;0.0;0.0;0.00274700780524;0.00775454724517;0.0;0.0;0.0;0.0;0.0;0.0;0.0;0.0;0.0;0.0;0.0;0.0;0.0;0.0;0.0;0.0;0.0;0.0;0.0;0.0;0.0;0.0;0.0;0.0;0.0;0.0;0.0;0.00452972957203
315729000000;187;315729000000;map;37.0222057959;-0.212103258748;0.0;0.0;0.0;0.683399786352;0.730044335649;0.0401509074857;0.00140635077859;0.0;0.0;0.0;0.0;0.00140635077859;0.00800838546427;0.0;0.0;0.0;0.0;0.0;0.0;0.0;0.0;0.0;0.0;0.0;0.0;0.0;0.0;0.0;0.0;0.0;0.0;0.0;0.0;0.0;0.0;0.0;0.0;0.0;0.0;0.0;0.00427001140585
317058000000;188;317058000000;map;37.0135527562;0.00595247679998;0.0;0.0;0.0;0.732590809113;0.680669307669;0.0380752972801;0.00110018356963;0.0;0.0;0.0;0.0;0.00110018356963;0.0118436047591;0.0;0.0;0.0;0.0;0.0;0.0;0.0;0.0;0.0;0.0;0.0;0.0;0.0;0.0;0.0;0.0;0.0;0.0;0.0;0.0;0.0;0.0;0.0;0.0;0.0;0.0;0.0;0.00745410202446
317479000000;189;317479000000;map;36.987763781;0.234056775908;0.0;0.0;0.0;0.726459042058;0.687209764345;0.0356503143369;-0.00147777365223;0.0;0.0;0.0;0.0;-0.00147777365223;0.0110775797423;0.0;0.0;0.0;0.0;0.0;0.0;0.0;0.0;0.0;0.0;0.0;0.0;0.0;0.0;0.0;0.0;0.0;0.0;0.0;0.0;0.0;0.0;0.0;0.0;0.0;0.0;0.0;0.0103037707593
317886000000;190;317886000000;map;36.9758908836;0.449214408734;0.0;0.0;0.0;0.728649118258;0.684887189589;0.0312376835229;-0.00217607764745;0.0;0.0;0.0;0.0;-0.00217607764745;0.0111123790001;0.0;0.0;0.0;0.0;0.0;0.0;0.0;0.0;0.0;0.0;0.0;0.0;0.0;0.0;0.0;0.0;0.0;0.0;0.0;0.0;0.0;0.0;0.0;0.0;0.0;0.0;0.0;0.00826141503054
318288000000;191;318288000000;map;36.9745916004;0.63806307653;0.0;0.0;0.0;0.726995198214;0.686642542939;0.0305827842469;-0.00437713624617;0.0;0.0;0.0;0.0;-0.00437713624617;0.0106574040566;0.0;0.0;0.0;0.0;0.0;0.0;0.0;0.0;0.0;0.0;0.0;0.0;0.0;0.0;0.0;0.0;0.0;0.0;0.0;0.0;0.0;0.0;0.0;0.0;0.0;0.0;0.0;0.00864381989363
318692000000;192;318692000000;map;36.9881327045;0.826958759816;0.0;0.0;0.0;0.729077080092;0.684431597228;0.029797278484;-0.00101243251496;0.0;0.0;0.0;0.0;-0.00101243251496;0.0103046389932;0.0;0.0;0.0;0.0;0.0;0.0;0.0;0.0;0.0;0.0;0.0;0.0;0.0;0.0;0.0;0.0;0.0;0.0;0.0;0.0;0.0;0.0;0.0;0.0;0.0;0.0;0.0;0.00729432425193
