%time,field.x,field.y,field.z,field.w
1524842957754899024,0.0,0.0,9.04173655444e-05,0.999999995912
1524842957769495964,0.0,0.0,9.04223149228e-05,0.999999995912
1524842957769614934,0.0,0.0,9.04288963216e-05,0.999999995911
1524842957769691944,0.0,0.0,9.04353660349e-05,0.999999995911
1524842957834849119,0.0,0.0,9.04431751713e-05,0.99999999591
1524842957835014104,0.0,0.0,9.04477666045e-05,0.99999999591
1524842957835097074,0.0,0.0,9.04542934364e-05,0.999999995909
1524842957835171937,0.0,0.0,9.04606876823e-05,0.999999995908
1524842957835242986,0.0,0.0,9.04644128401e-05,0.999999995908
1524842957835536956,0.0,0.0,9.04688853188e-05,0.999999995908
1524842957835621118,0.0,0.0,9.04713286138e-05,0.999999995907
1524842957864551067,0.0,0.0,9.04745111336e-05,0.999999995907
1524842957884577035,0.0,0.0,9.04764969213e-05,0.999999995907
1524842957908582925,0.0,0.0,9.04798347822e-05,0.999999995907
1524842957927153110,0.0,0.0,9.04867843343e-05,0.999999995906
1524842957927267074,0.0,0.0,9.04913609412e-05,0.999999995906
1524842957950685977,0.0,0.0,9.04962170897e-05,0.999999995905
1524842957988087892,0.0,0.0,9.05030419398e-05,0.999999995905
1524842957994012117,0.0,0.0,9.05070258972e-05,0.999999995904
1524842958019906044,0.0,0.0,9.05163424697e-05,0.999999995903
1524842958025787115,0.0,0.0,9.05257489853e-05,0.999999995903
1524842958050615072,0.0,0.0,9.0532905392e-05,0.999999995902
1524842958050698041,0.0,0.0,9.05366026825e-05,0.999999995902
1524842958086675882,0.0,0.0,9.05472248244e-05,0.999999995901
1524842958087280988,0.0,0.0,9.05520535813e-05,0.9999999959
1524842958087575912,0.0,0.0,9.05562251385e-05,0.9999999959
1524842958123362064,0.0,0.0,9.05638326584e-05,0.999999995899
1524842958123445987,0.0,0.0,9.0220247686e-05,0.99999999593
1524842958123581886,0.0,0.0,8.89597937329e-05,0.999999996043
1524842958185144901,0.0,0.0,8.82675056987e-05,0.999999996104
1524842958185538053,0.0,0.0,8.81015684458e-05,0.999999996119
1524842958202812910,0.0,0.0,8.80343961684e-05,0.999999996125
1524842958202924013,0.0,0.0,8.80151425238e-05,0.999999996127
1524842958222111940,0.0,0.0,8.80035457413e-05,0.999999996128
1524842958242585897,0.0,0.0,8.7998156739e-05,0.999999996128
1524842958271126985,0.0,0.0,8.79954901705e-05,0.999999996128
1524842958284615993,0.0,0.0,8.79985890837e-05,0.999999996128
1524842958324023008,0.0,0.0,8.80044419209e-05,0.999999996128
1524842958369251012,0.0,0.0,8.80093071686e-05,0.999999996127
1524842958369679927,0.0,0.0,8.80139974304e-05,0.999999996127
1524842958369867086,0.0,0.0,8.80192975438e-05,0.999999996126
1524842958409859895,0.0,0.0,8.80268962375e-05,0.999999996126
1524842958409950017,0.0,0.0,8.80309357218e-05,0.999999996125
1524842958428433895,0.0,0.0,8.80517584004e-05,0.999999996123
1524842958447362899,0.0,0.0,8.91915552051e-05,0.999999996022
1524842958484474897,0.0,0.0,9.01162862589e-05,0.99999999594
1524842958524204969,0.0,0.0,9.04290445197e-05,0.999999995911
1524842958565722942,0.0,0.0,9.05599907853e-05,0.999999995899
1524842958566000938,0.0,0.0,9.06186626616e-05,0.999999995894
1524842958566090106,0.0,0.0,9.06466643866e-05,0.999999995892
1524842958605645895,0.0,0.0,9.0660495722e-05,0.99999999589
1524842958605782985,0.0,0.0,9.0669134118e-05,0.99999999589
1524842958605957984,0.0,0.0,9.06769962608e-05,0.999999995889
1524842958629669904,0.0,0.0,9.06831585141e-05,0.999999995888
1524842958703803062,0.0,0.0,9.06897550544e-05,0.999999995888
1524842958740339994,0.0,0.0,9.06987333925e-05,0.999999995887
1524842958740529060,0.0,0.0,9.07041490085e-05,0.999999995886
1524842958740596055,0.0,0.0,9.07070014835e-05,0.999999995886
1524842958740653991,0.0,0.0,9.07113654906e-05,0.999999995886
1524842958780117988,0.0,0.0,9.07217063129e-05,0.999999995885
1524842958792596101,0.0,0.0,9.07293645951e-05,0.999999995884
1524842958836189985,0.0,0.0,9.07319102315e-05,0.999999995884
1524842958836266040,0.0,0.0,9.07359500745e-05,0.999999995883
1524842958876655101,0.0,0.0,9.07423609644e-05,0.999999995883
1524842958880436897,0.0,0.0,9.07496371917e-05,0.999999995882
1524842958921432971,0.0,0.0,9.0753724644e-05,0.999999995882
1524842958961345911,0.0,0.0,9.0762520608e-05,0.999999995881
1524842958961499929,0.0,0.0,9.07667913103e-05,0.999999995881
1524842958961565017,0.0,0.0,9.07699257e-05,0.99999999588
1524842959001146078,0.0,0.0,9.07724973e-05,0.99999999588
1524842959006351947,0.0,0.0,9.07722701632e-05,0.99999999588
1524842959044179916,0.0,0.0,9.07758093749e-05,0.99999999588
1524842959044289112,0.0,0.0,9.07786999352e-05,0.99999999588
1524842959087018013,0.0,0.0,9.07794691409e-05,0.99999999588
1524842959098608016,0.0,0.0,9.07867125172e-05,0.999999995879
1524842959137362957,0.0,0.0,9.07901430464e-05,0.999999995879
1524842959176167011,0.0,0.0,9.07961951832e-05,0.999999995878
1524842959176244974,0.0,0.0,9.07976082781e-05,0.999999995878
1524842959217545032,0.0,0.0,9.07985730209e-05,0.999999995878
1524842959217957973,0.0,0.0,9.07993951481e-05,0.999999995878
1524842959256050109,0.0,0.0,9.080272643e-05,0.999999995877
1524842959256169080,0.0,0.0,9.08053784275e-05,0.999999995877
1524842959297337055,0.0,0.0,9.08085139812e-05,0.999999995877
1524842959312721967,0.0,0.0,9.08143850417e-05,0.999999995876
1524842959352092027,0.0,0.0,9.08187303084e-05,0.999999995876
1524842959352207899,0.0,0.0,9.08211250474e-05,0.999999995876
1524842959392222881,0.0,0.0,9.08264358176e-05,0.999999995875
1524842959392468929,0.0,0.0,9.08314088255e-05,0.999999995875
1524842959392618894,0.0,0.0,9.08352094519e-05,0.999999995874
1524842959443490028,0.0,0.0,9.08446860008e-05,0.999999995874
1524842959443670034,0.0,0.0,9.08544891066e-05,0.999999995873
1524842959481497049,0.0,0.0,9.08595087525e-05,0.999999995872
1524842959520374059,0.0,0.0,9.08649116328e-05,0.999999995872
1524842959520442008,0.0,0.0,9.08736929375e-05,0.999999995871
1524842959560297012,0.0,0.0,9.08778723666e-05,0.999999995871
1524842959560391902,0.0,0.0,9.08806180426e-05,0.99999999587
1524842959601648092,0.0,0.0,9.08870812401e-05,0.99999999587
1524842959612938880,0.0,0.0,9.08942459317e-05,0.999999995869
1524842959653816938,0.0,0.0,9.08987946856e-05,0.999999995869
1524842959654234886,0.0,0.0,9.09030343723e-05,0.999999995868
1524842959692215919,0.0,0.0,9.09101952036e-05,0.999999995868
1524842959692349910,0.0,0.0,9.09149607463e-05,0.999999995867
1524842959737106084,0.0,0.0,9.09209274748e-05,0.999999995867
1524842959737330913,0.0,0.0,9.09267452018e-05,0.999999995866
1524842959775937080,0.0,0.0,9.09409485268e-05,0.999999995865
1524842959776000976,0.0,0.0,9.09457567886e-05,0.999999995864
1524842959816459894,0.0,0.0,9.09514120196e-05,0.999999995864
1524842959818325996,0.0,0.0,9.09546086974e-05,0.999999995864
1524842959856502056,0.0,0.0,9.09574890433e-05,0.999999995863
1524842959856678009,0.0,0.0,9.09614686407e-05,0.999999995863
1524842959898175954,0.0,0.0,9.09660127675e-05,0.999999995863
1524842959898883104,0.0,0.0,9.09708176343e-05,0.999999995862
1524842959936192989,0.0,0.0,9.09751901331e-05,0.999999995862
1524842959958826065,0.0,0.0,9.09778775214e-05,0.999999995862
1524842959996145963,0.0,0.0,9.09835709142e-05,0.999999995861
1524842959996273040,0.0,0.0,9.09843328059e-05,0.999999995861
1524842960036163091,0.0,0.0,9.09859454172e-05,0.999999995861
1524842960036292076,0.0,0.0,9.09885925577e-05,0.999999995861
1524842960076951026,0.0,0.0,9.09903803678e-05,0.99999999586
1524842960077095985,0.0,0.0,9.09940704232e-05,0.99999999586
1524842960117953062,0.0,0.0,9.09979244827e-05,0.99999999586
1524842960118139982,0.0,0.0,9.100130745e-05,0.999999995859
1524842960157672882,0.0,0.0,9.10051921467e-05,0.999999995859
1524842960167373895,0.0,0.0,9.10073964932e-05,0.999999995859
1524842960204751968,0.0,0.0,9.10105538525e-05,0.999999995859
1524842960244064092,0.0,0.0,9.10120589752e-05,0.999999995858
1524842960244163036,0.0,0.0,9.10150668232e-05,0.999999995858
1524842960244220018,0.0,0.0,9.10161583206e-05,0.999999995858
1524842960284359931,0.0,0.0,9.10184393862e-05,0.999999995858
1524842960315907001,0.0,0.0,9.10216633982e-05,0.999999995858
1524842960353158950,0.0,0.0,9.10293755349e-05,0.999999995857
1524842960353297948,0.0,0.0,9.10340372422e-05,0.999999995856
1524842960353358983,0.0,0.0,9.10428328108e-05,0.999999995856
1524842960392306089,0.0,0.0,9.10464138163e-05,0.999999995855
1524842960392421960,0.0,0.0,9.10512631694e-05,0.999999995855
1524842960405725002,0.0,0.0,9.1058225219e-05,0.999999995854
1524842960429167985,0.0,0.0,9.10628697667e-05,0.999999995854
1524842960469358921,0.0,0.0,9.10677498492e-05,0.999999995853
1524842960508260965,0.0,0.0,9.10721529737e-05,0.999999995853
1524842960508373975,0.0,0.0,9.10766622029e-05,0.999999995853
1524842960548089027,0.0,0.0,9.10813481845e-05,0.999999995852
1524842960551105022,0.0,0.0,9.10889362822e-05,0.999999995851
1524842960588212013,0.0,0.0,9.1097474659e-05,0.999999995851
1524842960588354110,0.0,0.0,9.11050466253e-05,0.99999999585
1524842960629074096,0.0,0.0,9.1110601092e-05,0.999999995849
1524842960653395891,0.0,0.0,9.11143986509e-05,0.999999995849
1524842960693773984,0.0,0.0,9.11299557907e-05,0.999999995848
1524842960733335018,0.0,0.0,9.11410120269e-05,0.999999995847
1524842960733809947,0.0,0.0,9.11495572057e-05,0.999999995846
1524842960734078884,0.0,0.0,9.1157860742e-05,0.999999995845
1524842960772484064,0.0,0.0,9.11651953266e-05,0.999999995844
1524842960772646903,0.0,0.0,9.11726064184e-05,0.999999995844
1524842960783479928,0.0,0.0,9.11842012196e-05,0.999999995843
1524842960793886899,0.0,0.0,9.11913133911e-05,0.999999995842
1524842960833174943,0.0,0.0,9.11950372815e-05,0.999999995842
1524842960872442960,0.0,0.0,9.12002514975e-05,0.999999995841
1524842960872617006,0.0,0.0,9.12032553702e-05,0.999999995841
1524842960915632963,0.0,0.0,9.121232067e-05,0.99999999584
1524842960926357030,0.0,0.0,9.12199863623e-05,0.999999995839
1524842960965004920,0.0,0.0,9.12275651965e-05,0.999999995839
1524842961004520893,0.0,0.0,9.12315076549e-05,0.999999995838
1524842961004683017,0.0,0.0,9.12372604081e-05,0.999999995838
1524842961004757881,0.0,0.0,9.12403722611e-05,0.999999995838
1524842961044483900,0.0,0.0,9.12417825624e-05,0.999999995837
1524842961056138992,0.0,0.0,9.12421497127e-05,0.999999995837
1524842961092040061,0.0,0.0,9.12441988351e-05,0.999999995837
1524842961092147111,0.0,0.0,9.12469929472e-05,0.999999995837
1524842961132088899,0.0,0.0,9.12504206146e-05,0.999999995837
1524842961135920047,0.0,0.0,9.12533912268e-05,0.999999995836
1524842961174055099,0.0,0.0,9.12601202276e-05,0.999999995836
1524842961212393045,0.0,0.0,9.12611298603e-05,0.999999995836
1524842961212555885,0.0,0.0,9.12657439809e-05,0.999999995835
1524842961253326892,0.0,0.0,9.12704568629e-05,0.999999995835
1524842961253736972,0.0,0.0,9.12733885627e-05,0.999999995835
1524842961292965888,0.0,0.0,9.12761434693e-05,0.999999995834
1524842961296796083,0.0,0.0,9.12795687383e-05,0.999999995834
1524842961337399959,0.0,0.0,9.12833399087e-05,0.999999995834
1524842961337790966,0.0,0.0,9.12879453695e-05,0.999999995833
1524842961376492023,0.0,0.0,9.12925448549e-05,0.999999995833
1524842961376637935,0.0,0.0,9.12957320928e-05,0.999999995833
1524842961416208028,0.0,0.0,9.1301094004e-05,0.999999995832
1524842961431451082,0.0,0.0,9.13101235583e-05,0.999999995831
1524842961469468116,0.0,0.0,9.13151818696e-05,0.999999995831
1524842961469924926,0.0,0.0,9.13175127603e-05,0.999999995831
1524842961470129013,0.0,0.0,9.13269358216e-05,0.99999999583
1524842961508061885,0.0,0.0,9.13350271387e-05,0.999999995829
1524842961545686006,0.0,0.0,9.13417669969e-05,0.999999995828
1524842961585932970,0.0,0.0,9.13449536798e-05,0.999999995828
1524842961586262941,0.0,0.0,9.13499049293e-05,0.999999995828
1524842961586486101,0.0,0.0,9.13545985131e-05,0.999999995827
1524842961624195098,0.0,0.0,9.13640208049e-05,0.999999995826
1524842961624290943,0.0,0.0,9.13716552182e-05,0.999999995826
1524842961693615913,0.0,0.0,9.13761177983e-05,0.999999995825
1524842961707803010,0.0,0.0,9.13824664069e-05,0.999999995825
1524842961746128082,0.0,0.0,9.139053435e-05,0.999999995824
1524842961746867895,0.0,0.0,9.13952984941e-05,0.999999995823
1524842961747184991,0.0,0.0,9.13992056273e-05,0.999999995823
1524842961784329891,0.0,0.0,9.14176450546e-05,0.999999995821
1524842961793869018,0.0,0.0,9.14198798959e-05,0.999999995821
1524842961832484006,0.0,0.0,9.14309006259e-05,0.99999999582
1524842961832725048,0.0,0.0,9.14350451916e-05,0.99999999582
1524842961872172117,0.0,0.0,9.1451729733e-05,0.999999995818
1524842961872315883,0.0,0.0,9.14581487733e-05,0.999999995818
1524842961912050962,0.0,0.0,9.14608453208e-05,0.999999995817
1524842961912170886,0.0,0.0,9.14674009724e-05,0.999999995817
1524842961952970981,0.0,0.0,9.1472452639e-05,0.999999995816
1524842961976661920,0.0,0.0,9.14775748962e-05,0.999999995816
1524842962017165899,0.0,0.0,9.14849208031e-05,0.999999995815
1524842962017599105,0.0,0.0,9.14888917709e-05,0.999999995815
1524842962056230068,0.0,0.0,9.14950138998e-05,0.999999995814
1524842962056365013,0.0,0.0,9.14981750873e-05,0.999999995814
1524842962100414037,0.0,0.0,9.15031290978e-05,0.999999995814
1524842962100598096,0.0,0.0,9.15075162739e-05,0.999999995813
1524842962140055894,0.0,0.0,9.1509780087e-05,0.999999995813
1524842962140129089,0.0,0.0,9.15133547588e-05,0.999999995813
1524842962181787014,0.0,0.0,9.15147221885e-05,0.999999995813
1524842962182389020,0.0,0.0,9.1518804475e-05,0.999999995812
1524842962220531940,0.0,0.0,9.15199636375e-05,0.999999995812
1524842962220686912,0.0,0.0,9.15234978017e-05,0.999999995812
1524842962220763921,0.0,0.0,9.15259526726e-05,0.999999995812
1524842962260236024,0.0,0.0,9.15282546086e-05,0.999999995811
1524842962262388944,0.0,0.0,9.15310247932e-05,0.999999995811
1524842962301769018,0.0,0.0,9.15354801682e-05,0.999999995811
1524842962340099096,0.0,0.0,9.15388296316e-05,0.99999999581
1524842962340187072,0.0,0.0,9.15416776131e-05,0.99999999581
1524842962385942935,0.0,0.0,9.15452575006e-05,0.99999999581
1524842962386476993,0.0,0.0,9.1546837552e-05,0.99999999581
1524842962424213886,0.0,0.0,9.15539387242e-05,0.999999995809
1524842962427310943,0.0,0.0,9.15626128643e-05,0.999999995808
1524842962465850114,0.0,0.0,9.15679404445e-05,0.999999995808
1524842962466254949,0.0,0.0,9.15731196362e-05,0.999999995807
1524842962522582054,0.0,0.0,9.1582985626e-05,0.999999995806
1524842962551001071,0.0,0.0,9.15870444646e-05,0.999999995806
1524842962588180065,0.0,0.0,9.15959289339e-05,0.999999995805
1524842962588258981,0.0,0.0,9.16006201994e-05,0.999999995805
1524842962588309049,0.0,0.0,9.16030275203e-05,0.999999995804
1524842962588351964,0.0,0.0,9.16071940856e-05,0.999999995804
1524842962633410930,0.0,0.0,9.16129680941e-05,0.999999995804
1524842962640101909,0.0,0.0,9.16207571214e-05,0.999999995803
1524842962676199913,0.0,0.0,9.16281638135e-05,0.999999995802
1524842962718170881,0.0,0.0,9.16362057087e-05,0.999999995801
1524842962718317031,0.0,0.0,9.16421670523e-05,0.999999995801
1524842962718380928,0.0,0.0,9.16485734933e-05,0.9999999958
1524842962756028890,0.0,0.0,9.16528225987e-05,0.9999999958
1524842962764014005,0.0,0.0,9.16602722504e-05,0.999999995799
1524842962802129983,0.0,0.0,9.16739312004e-05,0.999999995798
1524842962841123104,0.0,0.0,9.16802924379e-05,0.999999995797
1524842962841239929,0.0,0.0,9.16874996525e-05,0.999999995797
1524842962841286897,0.0,0.0,9.16924899813e-05,0.999999995796
1524842962880100965,0.0,0.0,9.1699773341e-05,0.999999995796
1524842962886806964,0.0,0.0,9.17071799742e-05,0.999999995795
1524842962924099922,0.0,0.0,9.1712787447e-05,0.999999995794
1524842962924237966,0.0,0.0,9.17168560672e-05,0.999999995794
1524842962972222089,0.0,0.0,9.17232363681e-05,0.999999995793
1524842962973795890,0.0,0.0,9.17269047988e-05,0.999999995793
1524842963013746976,0.0,0.0,9.1731911206e-05,0.999999995793
1524842963052444934,0.0,0.0,9.17382774497e-05,0.999999995792
1524842963092035055,0.0,0.0,9.17446491862e-05,0.999999995791
1524842963132242918,0.0,0.0,9.17514976802e-05,0.999999995791
1524842963132364988,0.0,0.0,9.17533562922e-05,0.999999995791
1524842963132477045,0.0,0.0,9.17566452922e-05,0.99999999579
1524842963132596015,0.0,0.0,9.17620406061e-05,0.99999999579
1524842963172244071,0.0,0.0,9.17667895345e-05,0.999999995789
1524842963172337055,0.0,0.0,9.17710451354e-05,0.999999995789
1524842963189198017,0.0,0.0,9.1773166117e-05,0.999999995789
1524842963203165054,0.0,0.0,9.17739121284e-05,0.999999995789
1524842963240379095,0.0,0.0,9.17762696275e-05,0.999999995789
1524842963280096054,0.0,0.0,9.17818972119e-05,0.999999995788
1524842963280198097,0.0,0.0,9.17879984766e-05,0.999999995787
1524842963322020053,0.0,0.0,9.17917163452e-05,0.999999995787
1524842963322709083,0.0,0.0,9.17923546e-05,0.999999995787
1524842963361526012,0.0,0.0,9.17930001912e-05,0.999999995787
1524842963370260953,0.0,0.0,9.17942801357e-05,0.999999995787
1524842963408106088,0.0,0.0,9.17975275723e-05,0.999999995787
1524842963408209085,0.0,0.0,9.18013281053e-05,0.999999995786
1524842963448920011,0.0,0.0,9.18071559858e-05,0.999999995786
1524842963449479103,0.0,0.0,9.18109729596e-05,0.999999995785
1524842963490451097,0.0,0.0,9.18203347197e-05,0.999999995785
1524842963490974903,0.0,0.0,9.18287751773e-05,0.999999995784
1524842963535820960,0.0,0.0,9.18371536265e-05,0.999999995783
1524842963561306953,0.0,0.0,9.18440408665e-05,0.999999995782
1524842963600474119,0.0,0.0,9.18513208248e-05,0.999999995782
1524842963600600957,0.0,0.0,9.18577911892e-05,0.999999995781
1524842963600681066,0.0,0.0,9.1860939799e-05,0.999999995781
1524842963640149116,0.0,0.0,9.18663559188e-05,0.99999999578
1524842963640235900,0.0,0.0,9.18720370526e-05,0.99999999578
1524842963640284061,0.0,0.0,9.18789250265e-05,0.999999995779
1524842963680696964,0.0,0.0,9.18815997143e-05,0.999999995779
1524842963683474063,0.0,0.0,9.18936004299e-05,0.999999995778
1524842963721055030,0.0,0.0,9.18993652437e-05,0.999999995777
1524842963764991998,0.0,0.0,9.19063492479e-05,0.999999995777
1524842963765157938,0.0,0.0,9.19127820423e-05,0.999999995776
1524842963765238046,0.0,0.0,9.19218414325e-05,0.999999995775
1524842963803992986,0.0,0.0,9.19289754699e-05,0.999999995775
1524842963805901050,0.0,0.0,9.19411751767e-05,0.999999995773
1524842963857929944,0.0,0.0,9.19480507868e-05,0.999999995773
1524842963896186113,0.0,0.0,9.19534865614e-05,0.999999995772
1524842963896347999,0.0,0.0,9.19587831988e-05,0.999999995772
1524842963936467885,0.0,0.0,9.19716154914e-05,0.999999995771
1524842963939754009,0.0,0.0,9.19785602933e-05,0.99999999577
1524842963978295087,0.0,0.0,9.19848028558e-05,0.999999995769
1524842963979007005,0.0,0.0,9.19900643467e-05,0.999999995769
1524842964017651081,0.0,0.0,9.19926225486e-05,0.999999995769
1524842964018167018,0.0,0.0,9.19983407675e-05,0.999999995768
1524842964056000947,0.0,0.0,9.20018960367e-05,0.999999995768
1524842964056107044,0.0,0.0,9.20060779479e-05,0.999999995767
1524842964096566915,0.0,0.0,9.2011815562e-05,0.999999995767
1524842964096817016,0.0,0.0,9.20151448869e-05,0.999999995767
1524842964136327981,0.0,0.0,9.20160702465e-05,0.999999995767
1524842964142014980,0.0,0.0,9.20287458466e-05,0.999999995765
1524842964185731887,0.0,0.0,9.20331453772e-05,0.999999995765
1524842964226314067,0.0,0.0,9.2033948566e-05,0.999999995765
1524842964227117061,0.0,0.0,9.20350173044e-05,0.999999995765
1524842964264144897,0.0,0.0,9.20368873035e-05,0.999999995765
1524842964271222114,0.0,0.0,9.20387897529e-05,0.999999995764
1524842964308186054,0.0,0.0,9.20401280179e-05,0.999999995764
1524842964308321952,0.0,0.0,9.20423562298e-05,0.999999995764
1524842964348512887,0.0,0.0,9.20570961203e-05,0.999999995763
1524842964358068943,0.0,0.0,9.20602429901e-05,0.999999995762
1524842964416444063,0.0,0.0,9.20631353366e-05,0.999999995762
1524842964457804918,0.0,0.0,9.20655466855e-05,0.999999995762
1524842964458007097,0.0,0.0,9.20692146765e-05,0.999999995762
1524842964458096027,0.0,0.0,9.20747040071e-05,0.999999995761
1524842964496609926,0.0,0.0,9.20794955589e-05,0.999999995761
1524842964509831905,0.0,0.0,9.20859334962e-05,0.99999999576
1524842964548187017,0.0,0.0,9.20888168232e-05,0.99999999576
1524842964548310995,0.0,0.0,9.20935401538e-05,0.999999995759
1524842964602880954,0.0,0.0,9.20994153738e-05,0.999999995759
1524842964608305931,0.0,0.0,9.2104559903e-05,0.999999995758
1524842964645252943,0.0,0.0,9.21111668113e-05,0.999999995758
1524842964645481109,0.0,0.0,9.21178937836e-05,0.999999995757
1524842964645615100,0.0,0.0,9.21213641647e-05,0.999999995757
1524842964710442066,0.0,0.0,9.21295166925e-05,0.999999995756
1524842964720426082,0.0,0.0,9.21359033796e-05,0.999999995755
1524842964760590076,0.0,0.0,9.21481092986e-05,0.999999995754
1524842964760699987,0.0,0.0,9.21560415654e-05,0.999999995754
1524842964800422906,0.0,0.0,9.21642833889e-05,0.999999995753
1524842964800592899,0.0,0.0,9.21697236522e-05,0.999999995752
1524842964840173959,0.0,0.0,9.21827503376e-05,0.999999995751
1524842964840267896,0.0,0.0,9.21887059739e-05,0.999999995751
1524842964896378040,0.0,0.0,9.21952953954e-05,0.99999999575
1524842964896809101,0.0,0.0,9.22025233287e-05,0.999999995749
1524842964940085887,0.0,0.0,9.22087272426e-05,0.999999995749
1524842964940706968,0.0,0.0,9.22140631212e-05,0.999999995748
1524842964976294994,0.0,0.0,9.22225971006e-05,0.999999995747
1524842964976459980,0.0,0.0,9.22343712562e-05,0.999999995746
1524842964976535081,0.0,0.0,9.22399195172e-05,0.999999995746
1524842965016251087,0.0,0.0,9.22459754301e-05,0.999999995745
1524842965016402959,0.0,0.0,9.22509540925e-05,0.999999995745
1524842965032946109,0.0,0.0,9.22569735198e-05,0.999999995744
1524842965073997020,0.0,0.0,9.22624376764e-05,0.999999995744
1524842965112215042,0.0,0.0,9.22662360242e-05,0.999999995743
1524842965112360954,0.0,0.0,9.22696915253e-05,0.999999995743
1524842965153153896,0.0,0.0,9.22735573731e-05,0.999999995743
1524842965153548955,0.0,0.0,9.22841916187e-05,0.999999995742
1524842965193186044,0.0,0.0,9.22892215134e-05,0.999999995741
1524842965194017887,0.0,0.0,9.22913893261e-05,0.999999995741
1524842965232323884,0.0,0.0,9.22938086153e-05,0.999999995741
1524842965232482910,0.0,0.0,9.22960643035e-05,0.999999995741
1524842965272116899,0.0,0.0,9.22992817059e-05,0.99999999574
1524842965291044950,0.0,0.0,9.23026425811e-05,0.99999999574
1524842965328248977,0.0,0.0,9.23052062793e-05,0.99999999574
1524842965328372001,0.0,0.0,9.23072108151e-05,0.99999999574
1524842965368141889,0.0,0.0,9.23113155556e-05,0.999999995739
1524842965368271112,0.0,0.0,9.23148567091e-05,0.999999995739
1524842965368346929,0.0,0.0,9.23169611745e-05,0.999999995739
1524842965408348083,0.0,0.0,9.23219140086e-05,0.999999995738
1524842965427756071,0.0,0.0,9.23251462955e-05,0.999999995738
1524842965465126991,0.0,0.0,9.23265799201e-05,0.999999995738
1524842965465483903,0.0,0.0,9.23275025298e-05,0.999999995738
1524842965504194021,0.0,0.0,9.2333916075e-05,0.999999995737
1524842965504317045,0.0,0.0,9.23391781138e-05,0.999999995737
1524842965545070886,0.0,0.0,9.23403100086e-05,0.999999995737
1524842965545677900,0.0,0.0,9.2345985051e-05,0.999999995736
1524842965585059881,0.0,0.0,9.23515514625e-05,0.999999995736
1524842965585530042,0.0,0.0,9.23556016919e-05,0.999999995735
1524842965624088048,0.0,0.0,9.23582298048e-05,0.999999995735
1524842965624227046,0.0,0.0,9.23636621251e-05,0.999999995734
1524842965664139032,0.0,0.0,9.23717917095e-05,0.999999995734
1524842965665168046,0.0,0.0,9.237731622e-05,0.999999995733
1524842965704236984,0.0,0.0,9.23840831351e-05,0.999999995733
1524842965704411983,0.0,0.0,9.23898479821e-05,0.999999995732
1524842965747478961,0.0,0.0,9.23964660511e-05,0.999999995731
1524842965748179912,0.0,0.0,9.24021081216e-05,0.999999995731
1524842965784250974,0.0,0.0,9.2409803097e-05,0.99999999573
1524842965784399032,0.0,0.0,9.24175279073e-05,0.99999999573
1524842965826180934,0.0,0.0,9.24252810759e-05,0.999999995729
1524842965826484918,0.0,0.0,9.2432709725e-05,0.999999995728
1524842965864464998,0.0,0.0,9.24441986093e-05,0.999999995727
1524842965904084920,0.0,0.0,9.24499802701e-05,0.999999995727
1524842965904189109,0.0,0.0,9.2455188084e-05,0.999999995726
1524842965949532032,0.0,0.0,9.24601937536e-05,0.999999995726
1524842965960279941,0.0,0.0,9.24705128742e-05,0.999999995725
1524842966001410007,0.0,0.0,9.24746160883e-05,0.999999995724
1524842966002373933,0.0,0.0,9.24764001321e-05,0.999999995724
1524842966040169000,0.0,0.0,9.24797423245e-05,0.999999995724
1524842966040301084,0.0,0.0,9.24817662406e-05,0.999999995724
1524842966040366888,0.0,0.0,9.24879790869e-05,0.999999995723
1524842966081322908,0.0,0.0,9.24937532199e-05,0.999999995722
1524842966086878061,0.0,0.0,9.24989587609e-05,0.999999995722
1524842966124073028,0.0,0.0,9.25058439382e-05,0.999999995721
1524842966167304992,0.0,0.0,9.25094329603e-05,0.999999995721
1524842966167817115,0.0,0.0,9.25118908999e-05,0.999999995721
1524842966168024063,0.0,0.0,9.25154612994e-05,0.99999999572
1524842966205208063,0.0,0.0,9.25185062825e-05,0.99999999572
1524842966209394931,0.0,0.0,9.25230682569e-05,0.99999999572
1524842966248451948,0.0,0.0,9.25267147493e-05,0.999999995719
1524842966288649082,0.0,0.0,9.25299531159e-05,0.999999995719
1524842966288772106,0.0,0.0,9.25318196536e-05,0.999999995719
1524842966328052043,0.0,0.0,9.25356724349e-05,0.999999995719
1524842966344182014,0.0,0.0,9.25407075785e-05,0.999999995718
1524842966390341043,0.0,0.0,9.25411907011e-05,0.999999995718
1524842966428287029,0.0,0.0,9.25511943055e-05,0.999999995717
1524842966428394079,0.0,0.0,9.25538662018e-05,0.999999995717
1524842966428461074,0.0,0.0,9.25611733022e-05,0.999999995716
1524842966468082904,0.0,0.0,9.25627960042e-05,0.999999995716
1524842966468168020,0.0,0.0,9.25649816675e-05,0.999999995716
1524842966481152057,0.0,0.0,9.256824337e-05,0.999999995716
1524842966537683010,0.0,0.0,9.25755971042e-05,0.999999995715
1524842966576899051,0.0,0.0,9.25800085727e-05,0.999999995714
1524842966577392101,0.0,0.0,9.25846402953e-05,0.999999995714
1524842966577527046,0.0,0.0,9.25905630349e-05,0.999999995713
1524842966616252899,0.0,0.0,9.25942742766e-05,0.999999995713
1524842966635519027,0.0,0.0,9.26023809112e-05,0.999999995712
1524842966672513008,0.0,0.0,9.26091008131e-05,0.999999995712
1524842966713110923,0.0,0.0,9.26157663808e-05,0.999999995711
1524842966713481903,0.0,0.0,9.26225961438e-05,0.999999995711
1524842966713639020,0.0,0.0,9.2629250578e-05,0.99999999571
1524842966752280950,0.0,0.0,9.26341616084e-05,0.999999995709
1524842966752479076,0.0,0.0,9.26426481635e-05,0.999999995709
1524842966767829895,0.0,0.0,9.26480677906e-05,0.999999995708
1524842966786269903,0.0,0.0,9.26514072725e-05,0.999999995708
1524842966824059009,0.0,0.0,9.26556255765e-05,0.999999995707
1524842966864054918,0.0,0.0,9.26624679306e-05,0.999999995707
1524842966904114961,0.0,0.0,9.26694024269e-05,0.999999995706
1524842966904201030,0.0,0.0,9.26825942163e-05,0.999999995705
1524842966904246091,0.0,0.0,9.26860177391e-05,0.999999995705
1524842966945008993,0.0,0.0,9.26934559269e-05,0.999999995704
1524842966945590972,0.0,0.0,9.27024954208e-05,0.999999995703
1524842966992522954,0.0,0.0,9.27128394427e-05,0.999999995702
1524842966993933916,0.0,0.0,9.27220556774e-05,0.999999995701
1524842967032244920,0.0,0.0,9.2729203944e-05,0.999999995701
1524842967073349952,0.0,0.0,9.27356231203e-05,0.9999999957
1524842967073801994,0.0,0.0,9.2741220997e-05,0.9999999957
1524842967074028968,0.0,0.0,9.27473080032e-05,0.999999995699
1524842967112086057,0.0,0.0,9.27524036575e-05,0.999999995698
1524842967112184047,0.0,0.0,9.27561956492e-05,0.999999995698
1524842967131072044,0.0,0.0,9.27608595667e-05,0.999999995698
1524842967144275903,0.0,0.0,9.27664758945e-05,0.999999995697
1524842967190187931,0.0,0.0,9.27718131744e-05,0.999999995697
1524842967228287935,0.0,0.0,9.27741059857e-05,0.999999995696
1524842967228427886,0.0,0.0,9.27835177949e-05,0.999999995696
1524842967269542932,0.0,0.0,9.27862565691e-05,0.999999995695
1524842967294596910,0.0,0.0,9.27900558624e-05,0.999999995695
1524842967332060098,0.0,0.0,9.27909607542e-05,0.999999995695
1524842967332164049,0.0,0.0,9.27924106401e-05,0.999999995695
1524842967373568058,0.0,0.0,9.27949082036e-05,0.999999995695
1524842967374094963,0.0,0.0,9.2798858484e-05,0.999999995694
1524842967412405014,0.0,0.0,9.28011019451e-05,0.999999995694
1524842967412610054,0.0,0.0,9.28078996143e-05,0.999999995693
1524842967452181100,0.0,0.0,9.28129844335e-05,0.999999995693
1524842967452322006,0.0,0.0,9.28183196439e-05,0.999999995692
1524842967492289066,0.0,0.0,9.28214128517e-05,0.999999995692
1524842967500457048,0.0,0.0,9.28256386111e-05,0.999999995692
1524842967540978908,0.0,0.0,9.28285917713e-05,0.999999995691
1524842967541351079,0.0,0.0,9.28327493695e-05,0.999999995691
1524842967581501960,0.0,0.0,9.2838231378e-05,0.999999995691
1524842967581728935,0.0,0.0,9.28426632844e-05,0.99999999569
1524842967620155096,0.0,0.0,9.28474667361e-05,0.99999999569
1524842967637171983,0.0,0.0,9.28515057086e-05,0.999999995689
1524842967676515102,0.0,0.0,9.28580915469e-05,0.999999995689
1524842967676683902,0.0,0.0,9.2865235946e-05,0.999999995688
1524842967676801919,0.0,0.0,9.2871467726e-05,0.999999995687
1524842967676901102,0.0,0.0,9.287483446e-05,0.999999995687
1524842967717259883,0.0,0.0,9.28807982291e-05,0.999999995687
1524842967729240894,0.0,0.0,9.28868902172e-05,0.999999995686
1524842967780414104,0.0,0.0,9.28942068815e-05,0.999999995685
1524842967820399999,0.0,0.0,9.29006471927e-05,0.999999995685
1524842967820537090,0.0,0.0,9.29072857155e-05,0.999999995684
1524842967820619106,0.0,0.0,9.29136991572e-05,0.999999995684
1524842967860480070,0.0,0.0,9.29219093508e-05,0.999999995683
1524842967874783039,0.0,0.0,9.29336819819e-05,0.999999995682
1524842967913979053,0.0,0.0,9.29389153073e-05,0.999999995681
1524842967952037096,0.0,0.0,9.29426721954e-05,0.999999995681
1524842967952156066,0.0,0.0,9.29519367489e-05,0.99999999568
1524842967952212095,0.0,0.0,9.29591830398e-05,0.999999995679
1524842967992147922,0.0,0.0,9.29665890546e-05,0.999999995679
1524842967992301940,0.0,0.0,9.29731042986e-05,0.999999995678
1524842968016453981,0.0,0.0,9.29813109617e-05,0.999999995677
1524842968030975103,0.0,0.0,9.2988716155e-05,0.999999995677
1524842968068160057,0.0,0.0,9.29917905788e-05,0.999999995676
1524842968110357999,0.0,0.0,9.29950792378e-05,0.999999995676
1524842968148384094,0.0,0.0,9.30018208322e-05,0.999999995675
1524842968148474931,0.0,0.0,9.30076965755e-05,0.999999995675
1524842968148519992,0.0,0.0,9.30121620569e-05,0.999999995674
1524842968188088893,0.0,0.0,9.3018442379e-05,0.999999995674
1524842968188214063,0.0,0.0,9.30234371809e-05,0.999999995673
1524842968198307037,0.0,0.0,9.30279661525e-05,0.999999995673
1524842968223989009,0.0,0.0,9.3031814427e-05,0.999999995673
1524842968260217905,0.0,0.0,9.30342371314e-05,0.999999995672
1524842968303945064,0.0,0.0,9.30399789594e-05,0.999999995672
1524842968304404973,0.0,0.0,9.30396265953e-05,0.999999995672
1524842968304538011,0.0,0.0,9.30388921924e-05,0.999999995672
1524842968342719078,0.0,0.0,9.30405427592e-05,0.999999995672
1524842968359549999,0.0,0.0,9.30426881936e-05,0.999999995672
1524842968396203041,0.0,0.0,9.30439745454e-05,0.999999995671
1524842968438498020,0.0,0.0,9.30453163496e-05,0.999999995671
1524842968438637971,0.0,0.0,9.30461061117e-05,0.999999995671
1524842968476607084,0.0,0.0,9.30468940042e-05,0.999999995671
1524842968476732969,0.0,0.0,9.30502464286e-05,0.999999995671
1524842968516231060,0.0,0.0,9.30535623264e-05,0.999999995671
1524842968516355037,0.0,0.0,9.30580627185e-05,0.99999999567
1524842968556130886,0.0,0.0,9.30633707406e-05,0.99999999567
1524842968587064981,0.0,0.0,9.30670152221e-05,0.999999995669
1524842968624573945,0.0,0.0,9.30727136262e-05,0.999999995669
1524842968664293050,0.0,0.0,9.30751204631e-05,0.999999995669
1524842968664411067,0.0,0.0,9.30825954687e-05,0.999999995668
1524842968664454936,0.0,0.0,9.30867810909e-05,0.999999995667
1524842968706453084,0.0,0.0,9.30887095075e-05,0.999999995667
1524842968706549882,0.0,0.0,9.30920147574e-05,0.999999995667
1524842968714426040,0.0,0.0,9.30972393791e-05,0.999999995666
1524842968732537984,0.0,0.0,9.31037452073e-05,0.999999995666
1524842968768296957,0.0,0.0,9.31104078312e-05,0.999999995665
1524842968768450021,0.0,0.0,9.31157395919e-05,0.999999995665
1524842968813494920,0.0,0.0,9.31223461453e-05,0.999999995664
1524842968823138952,0.0,0.0,9.312989387e-05,0.999999995663
1524842968860244035,0.0,0.0,9.31353338201e-05,0.999999995663
1524842968860361099,0.0,0.0,9.31414997447e-05,0.999999995662
1524842968900883913,0.0,0.0,9.31595217801e-05,0.999999995661
1524842968902614116,0.0,0.0,9.31667793817e-05,0.99999999566
1524842968940217018,0.0,0.0,9.31710688764e-05,0.99999999566
1524842968940366029,0.0,0.0,9.31855846157e-05,0.999999995658
1524842968980096101,0.0,0.0,9.31926340074e-05,0.999999995658
1524842968980192899,0.0,0.0,9.31980681928e-05,0.999999995657
1524842969021091938,0.0,0.0,9.32060940457e-05,0.999999995656
1524842969038275957,0.0,0.0,9.32145332072e-05,0.999999995656
1524842969076448917,0.0,0.0,9.32206439395e-05,0.999999995655
1524842969116620063,0.0,0.0,9.32257488096e-05,0.999999995654
1524842969116854906,0.0,0.0,9.32341695795e-05,0.999999995654
1524842969117043018,0.0,0.0,9.32405653658e-05,0.999999995653
1524842969156286954,0.0,0.0,9.3245631163e-05,0.999999995653
1524842969156416893,0.0,0.0,9.32518087654e-05,0.999999995652
1524842969158510923,0.0,0.0,9.32587125271e-05,0.999999995651
1524842969212238073,0.0,0.0,9.32641933659e-05,0.999999995651
1524842969253505945,0.0,0.0,9.32670192693e-05,0.999999995651
1524842969253881931,0.0,0.0,9.32725074704e-05,0.99999999565
1524842969292273998,0.0,0.0,9.32762752394e-05,0.99999999565
1524842969292388916,0.0,0.0,9.32805472195e-05,0.999999995649
1524842969292453050,0.0,0.0,9.32856086144e-05,0.999999995649
1524842969292505979,0.0,0.0,9.32886130707e-05,0.999999995649
1524842969334683895,0.0,0.0,9.32920222892e-05,0.999999995648
1524842969380625963,0.0,0.0,9.32938251514e-05,0.999999995648
1524842969420228004,0.0,0.0,9.32980140811e-05,0.999999995648
1524842969420362949,0.0,0.0,9.33025730009e-05,0.999999995647
1524842969420443058,0.0,0.0,9.33049880225e-05,0.999999995647
1524842969460496902,0.0,0.0,9.33076996611e-05,0.999999995647
1524842969460721969,0.0,0.0,9.3309219079e-05,0.999999995647
1524842969477890968,0.0,0.0,9.33111591456e-05,0.999999995647
1524842969489270925,0.0,0.0,9.33154955334e-05,0.999999995646
1524842969528024911,0.0,0.0,9.33203814877e-05,0.999999995646
1524842969569570064,0.0,0.0,9.33250704125e-05,0.999999995645
1524842969569875001,0.0,0.0,9.33244533982e-05,0.999999995645
1524842969608201980,0.0,0.0,9.33267588196e-05,0.999999995645
1524842969608314037,0.0,0.0,9.33302470812e-05,0.999999995645
1524842969648107051,0.0,0.0,9.33319590481e-05,0.999999995645
1524842969648921966,0.0,0.0,9.33378209866e-05,0.999999995644
1524842969688246965,0.0,0.0,9.33405904735e-05,0.999999995644
1524842969688388109,0.0,0.0,9.33438254632e-05,0.999999995643
1524842969728193044,0.0,0.0,9.33473227476e-05,0.999999995643
1524842969728337049,0.0,0.0,9.33528971741e-05,0.999999995643
1524842969768506050,0.0,0.0,9.33605491673e-05,0.999999995642
1524842969782233953,0.0,0.0,9.3367873232e-05,0.999999995641
1524842969822318077,0.0,0.0,9.33725196986e-05,0.999999995641
1524842969823064088,0.0,0.0,9.33768780879e-05,0.99999999564
1524842969860251903,0.0,0.0,9.33841327424e-05,0.99999999564
1524842969860387086,0.0,0.0,9.33905138057e-05,0.999999995639
1524842969900363922,0.0,0.0,9.33968186313e-05,0.999999995639
1524842969900547027,0.0,0.0,9.34016196705e-05,0.999999995638
1524842969970422029,0.0,0.0,9.341470886e-05,0.999999995637
1524842969971051931,0.0,0.0,9.34224424338e-05,0.999999995636
1524842970008480072,0.0,0.0,9.34296748439e-05,0.999999995635
1524842970008606910,0.0,0.0,9.34385816155e-05,0.999999995635
1524842970008680105,0.0,0.0,9.34470895909e-05,0.999999995634
1524842970049500942,0.0,0.0,9.34580452285e-05,0.999999995633
1524842970051810979,0.0,0.0,9.34646092197e-05,0.999999995632
1524842970089227914,0.0,0.0,9.3472115268e-05,0.999999995631
1524842970128317117,0.0,0.0,9.34788752449e-05,0.999999995631
1524842970169265031,0.0,0.0,9.34863156185e-05,0.99999999563
1524842970169548988,0.0,0.0,9.34951887032e-05,0.999999995629
1524842970169735908,0.0,0.0,9.35026134926e-05,0.999999995629
1524842970208621978,0.0,0.0,9.35083817306e-05,0.999999995628
1524842970208726882,0.0,0.0,9.35113297916e-05,0.999999995628
1524842970216578960,0.0,0.0,9.35201856734e-05,0.999999995627
1524842970237183094,0.0,0.0,9.35291617193e-05,0.999999995626
1524842970276439905,0.0,0.0,9.35334198099e-05,0.999999995626
1524842970276634931,0.0,0.0,9.3539730992e-05,0.999999995625
1524842970317028999,0.0,0.0,9.3545214243e-05,0.999999995625
1524842970317368030,0.0,0.0,9.35487635974e-05,0.999999995624
1524842970368916034,0.0,0.0,9.35524764682e-05,0.999999995624
1524842970375252962,0.0,0.0,9.35544126221e-05,0.999999995624
1524842970413321018,0.0,0.0,9.3556192683e-05,0.999999995624
1524842970413703918,0.0,0.0,9.35582500456e-05,0.999999995623
1524842970453140020,0.0,0.0,9.35601540567e-05,0.999999995623
1524842970469257116,0.0,0.0,9.35636702024e-05,0.999999995623
1524842970512176990,0.0,0.0,9.35676029899e-05,0.999999995623
1524842970512284040,0.0,0.0,9.35698146253e-05,0.999999995622
1524842970512336015,0.0,0.0,9.35749243396e-05,0.999999995622
1524842970552992105,0.0,0.0,9.35761941319e-05,0.999999995622
1524842970602421045,0.0,0.0,9.35763334077e-05,0.999999995622
1524842970641828060,0.0,0.0,9.35790342948e-05,0.999999995621
1524842970641952991,0.0,0.0,9.35830816476e-05,0.999999995621
1524842970642033100,0.0,0.0,9.35861159893e-05,0.999999995621
1524842970681169986,0.0,0.0,9.35894442798e-05,0.999999995621
1524842970681725978,0.0,0.0,9.35926901162e-05,0.99999999562
1524842970682090044,0.0,0.0,9.35940006e-05,0.99999999562
1524842970730442047,0.0,0.0,9.3597404317e-05,0.99999999562
1524842970730680942,0.0,0.0,9.36054324423e-05,0.999999995619
1524842970769721984,0.0,0.0,9.36091281881e-05,0.999999995619
1524842970808080911,0.0,0.0,9.36128908926e-05,0.999999995618
1524842970808199882,0.0,0.0,9.36177288671e-05,0.999999995618
1524842970808288097,0.0,0.0,9.36246050553e-05,0.999999995617
1524842970849473953,0.0,0.0,9.36352799025e-05,0.999999995616
1524842970849705934,0.0,0.0,9.36445198189e-05,0.999999995615
1524842970870826005,0.0,0.0,9.36553305231e-05,0.999999995614
1524842970885871887,0.0,0.0,9.36637977034e-05,0.999999995614
1524842970925271034,0.0,0.0,9.36711339642e-05,0.999999995613
1524842970965439081,0.0,0.0,9.36789318376e-05,0.999999995612
1524842971005999088,0.0,0.0,9.36912261034e-05,0.999999995611
1524842971006412029,0.0,0.0,9.36985575683e-05,0.99999999561
1524842971006702899,0.0,0.0,9.37062847044e-05,0.99999999561
1524842971044121980,0.0,0.0,9.3713602521e-05,0.999999995609
1524842971044205904,0.0,0.0,9.37201069982e-05,0.999999995608
1524842971062771081,0.0,0.0,9.37277844277e-05,0.999999995608
1524842971118120908,0.0,0.0,9.37370522245e-05,0.999999995607
1524842971171514987,0.0,0.0,9.37485643174e-05,0.999999995606
1524842971208132982,0.0,0.0,9.37518659429e-05,0.999999995605
1524842971208233118,0.0,0.0,9.37660148459e-05,0.999999995604
1524842971208312988,0.0,0.0,9.37731224494e-05,0.999999995603
1524842971208390951,0.0,0.0,9.37786368771e-05,0.999999995603
1524842971248243093,0.0,0.0,9.37819068308e-05,0.999999995602
1524842971248454093,0.0,0.0,9.37904142506e-05,0.999999995602
1524842971260977029,0.0,0.0,9.37933948896e-05,0.999999995601
1524842971294150114,0.0,0.0,9.3800171776e-05,0.999999995601
1524842971333076000,0.0,0.0,9.38037392293e-05,0.9999999956
1524842971373691082,0.0,0.0,9.38075072461e-05,0.9999999956
1524842971373801946,0.0,0.0,9.3817750228e-05,0.999999995599
1524842971412784099,0.0,0.0,9.38195724865e-05,0.999999995599
1524842971425115108,0.0,0.0,9.38254069476e-05,0.999999995598
1524842971460294961,0.0,0.0,9.38301493234e-05,0.999999995598
1524842971501876115,0.0,0.0,9.38349791217e-05,0.999999995597
1524842971502389907,0.0,0.0,9.38383007617e-05,0.999999995597
1524842971502451896,0.0,0.0,9.38414820972e-05,0.999999995597
1524842971540178060,0.0,0.0,9.38452871977e-05,0.999999995597
1524842971560190916,0.0,0.0,9.38461672654e-05,0.999999995596
1524842971597780942,0.0,0.0,9.38478967479e-05,0.999999995596
1524842971598193883,0.0,0.0,9.38535537058e-05,0.999999995596
1524842971636430025,0.0,0.0,9.38602860866e-05,0.999999995595
1524842971636571884,0.0,0.0,9.38655587926e-05,0.999999995595
1524842971676223039,0.0,0.0,9.38670388522e-05,0.999999995594
1524842971680735111,0.0,0.0,9.38691592721e-05,0.999999995594
1524842971724061012,0.0,0.0,9.38729821257e-05,0.999999995594
1524842971724162101,0.0,0.0,9.38774067971e-05,0.999999995594
1524842971764343976,0.0,0.0,9.38808560691e-05,0.999999995593
1524842971767930984,0.0,0.0,9.3883210505e-05,0.999999995593
1524842971825340032,0.0,0.0,9.38874639306e-05,0.999999995593
1524842971865094900,0.0,0.0,9.39000775256e-05,0.999999995591
1524842971865252017,0.0,0.0,9.39043566263e-05,0.999999995591
1524842971865319967,0.0,0.0,9.3908268086e-05,0.999999995591
1524842971905064105,0.0,0.0,9.39122840094e-05,0.99999999559
1524842971905344963,0.0,0.0,9.39179110083e-05,0.99999999559
1524842971922130107,0.0,0.0,9.39240187631e-05,0.999999995589
1524842971943516016,0.0,0.0,9.39312360312e-05,0.999999995588
1524842971981064081,0.0,0.0,9.39384466227e-05,0.999999995588
1524842971981518983,0.0,0.0,9.3946376123e-05,0.999999995587
1524842972020081043,0.0,0.0,9.39529416208e-05,0.999999995586
1524842972027262926,0.0,0.0,9.39614871208e-05,0.999999995586
1524842972085568904,0.0,0.0,9.39704570693e-05,0.999999995585
1524842972124074935,0.0,0.0,9.39763609106e-05,0.999999995584
1524842972124180078,0.0,0.0,9.39830518602e-05,0.999999995584
1524842972124249935,0.0,0.0,9.39898294401e-05,0.999999995583
1524842972164230108,0.0,0.0,9.39963378925e-05,0.999999995582
1524842972164356946,0.0,0.0,9.40019567274e-05,0.999999995582
1524842972164414882,0.0,0.0,9.40053802403e-05,0.999999995581
1524842972240142107,0.0,0.0,9.40119842876e-05,0.999999995581
1524842972240776062,0.0,0.0,9.40219896758e-05,0.99999999558
1524842972276616096,0.0,0.0,9.40293417036e-05,0.999999995579
1524842972316243886,0.0,0.0,9.40366320449e-05,0.999999995579
1524842972316354990,0.0,0.0,9.40406423766e-05,0.999999995578
1524842972316405057,0.0,0.0,9.40429363414e-05,0.999999995578
1524842972357115030,0.0,0.0,9.40525697944e-05,0.999999995577
1524842972357459068,0.0,0.0,9.4057220167e-05,0.999999995577
1524842972362086057,0.0,0.0,9.40625516241e-05,0.999999995576
1524842972379626035,0.0,0.0,9.40679790743e-05,0.999999995576
1524842972419110059,0.0,0.0,9.40734845834e-05,0.999999995575
1524842972456306934,0.0,0.0,9.4076310756e-05,0.999999995575
1524842972496102094,0.0,0.0,9.40794244907e-05,0.999999995575
1524842972537420034,0.0,0.0,9.40842520755e-05,0.999999995574
1524842972537838935,0.0,0.0,9.4087031345e-05,0.999999995574
1524842972577263116,0.0,0.0,9.40891528889e-05,0.999999995574
1524842972577424049,0.0,0.0,9.40919616521e-05,0.999999995573
1524842972617136001,0.0,0.0,9.40940236775e-05,0.999999995573
1524842972617503881,0.0,0.0,9.40982962647e-05,0.999999995573
1524842972656179904,0.0,0.0,9.41024824919e-05,0.999999995572
1524842972656290054,0.0,0.0,9.41069888492e-05,0.999999995572
1524842972696502923,0.0,0.0,9.41117381396e-05,0.999999995571
1524842972696635007,0.0,0.0,9.41184902797e-05,0.999999995571
1524842972737432003,0.0,0.0,9.41197698693e-05,0.999999995571
1524842972737936019,0.0,0.0,9.41250877187e-05,0.99999999557
1524842972776225090,0.0,0.0,9.41318267226e-05,0.99999999557
1524842972776365995,0.0,0.0,9.41364765735e-05,0.999999995569
1524842972817759037,0.0,0.0,9.4142625687e-05,0.999999995569
1524842972826658010,0.0,0.0,9.4144652869e-05,0.999999995568
1524842972865287065,0.0,0.0,9.41485558108e-05,0.999999995568
1524842972865606069,0.0,0.0,9.41552202058e-05,0.999999995567
1524842972904301881,0.0,0.0,9.41606422222e-05,0.999999995567
1524842972926815032,0.0,0.0,9.41642554911e-05,0.999999995567
1524842972964611053,0.0,0.0,9.41668018858e-05,0.999999995566
1524842972964844942,0.0,0.0,9.41698555428e-05,0.999999995566
1524842973004158973,0.0,0.0,9.41795050567e-05,0.999999995565
1524842973004291057,0.0,0.0,9.41846478873e-05,0.999999995565
1524842973004333019,0.0,0.0,9.41917922632e-05,0.999999995564
1524842973055953025,0.0,0.0,9.41990325478e-05,0.999999995563
1524842973061176061,0.0,0.0,9.42040811545e-05,0.999999995563
1524842973100121974,0.0,0.0,9.42103192915e-05,0.999999995562
1524842973100225925,0.0,0.0,9.4216319372e-05,0.999999995562
1524842973141660928,0.0,0.0,9.42246602945e-05,0.999999995561
1524842973148241996,0.0,0.0,9.42307194104e-05,0.99999999556
1524842973188754081,0.0,0.0,9.42374801157e-05,0.99999999556
1524842973229705095,0.0,0.0,9.42487962721e-05,0.999999995559
1524842973230305910,0.0,0.0,9.42526008073e-05,0.999999995558
1524842973230518102,0.0,0.0,9.42576401741e-05,0.999999995558
1524842973269407033,0.0,0.0,9.42628667089e-05,0.999999995557
1524842973298444986,0.0,0.0,9.42647378466e-05,0.999999995557
1524842973337791919,0.0,0.0,9.42763630506e-05,0.999999995556
1524842973338135004,0.0,0.0,9.42790001277e-05,0.999999995556
1524842973338221073,0.0,0.0,9.42837640848e-05,0.999999995555
1524842973377518892,0.0,0.0,9.42848233038e-05,0.999999995555
1524842973378057956,0.0,0.0,9.42884558747e-05,0.999999995555
1524842973392575979,0.0,0.0,9.42927926719e-05,0.999999995554
1524842973414167881,0.0,0.0,9.42953545946e-05,0.999999995554
1524842973453238010,0.0,0.0,9.42993568475e-05,0.999999995554
1524842973492178916,0.0,0.0,9.43035916082e-05,0.999999995553
1524842973492336988,0.0,0.0,9.43093432033e-05,0.999999995553
1524842973532423973,0.0,0.0,9.43142244051e-05,0.999999995552
1524842973532566070,0.0,0.0,9.4318601083e-05,0.999999995552
1524842973532632112,0.0,0.0,9.4318601083e-05,0.999999995552
1524842973573414087,0.0,0.0,9.43251592351e-05,0.999999995551
1524842973575896978,0.0,0.0,9.43265542236e-05,0.999999995551
1524842973639065027,0.0,0.0,9.43302641335e-05,0.999999995551
1524842973676229953,0.0,0.0,9.43351031035e-05,0.99999999555
1524842973717484951,0.0,0.0,9.43386140542e-05,0.99999999555
1524842973717910051,0.0,0.0,9.43410455875e-05,0.99999999555
1524842973718008995,0.0,0.0,9.4347296493e-05,0.999999995549
1524842973718074083,0.0,0.0,9.43523151374e-05,0.999999995549
1524842973756064891,0.0,0.0,9.43541663989e-05,0.999999995549
1524842973756179094,0.0,0.0,9.43559106183e-05,0.999999995548
1524842973774760007,0.0,0.0,9.4359972993e-05,0.999999995548
1524842973814738988,0.0,0.0,9.43660195623e-05,0.999999995548
1524842973853283882,0.0,0.0,9.43704956821e-05,0.999999995547
1524842973853677988,0.0,0.0,9.43761831153e-05,0.999999995547
1524842973892250061,0.0,0.0,9.43850200697e-05,0.999999995546
1524842973892368078,0.0,0.0,9.43885286899e-05,0.999999995545
1524842973932411909,0.0,0.0,9.43987905852e-05,0.999999995544
1524842973941493034,0.0,0.0,9.44040639292e-05,0.999999995544
1524842973984572887,0.0,0.0,9.44100956267e-05,0.999999995543
1524842973984723091,0.0,0.0,9.44174301325e-05,0.999999995543
1524842974024182081,0.0,0.0,9.44242900082e-05,0.999999995542
1524842974024292945,0.0,0.0,9.44318770051e-05,0.999999995541
1524842974024372100,0.0,0.0,9.44366718575e-05,0.999999995541
1524842974064311027,0.0,0.0,9.44469865218e-05,0.99999999554
1524842974064440965,0.0,0.0,9.44529278166e-05,0.999999995539
1524842974086272001,0.0,0.0,9.44592550697e-05,0.999999995539
1524842974134356021,0.0,0.0,9.44639457659e-05,0.999999995538
1524842974172270059,0.0,0.0,9.44749442985e-05,0.999999995537
1524842974172405958,0.0,0.0,9.44814731047e-05,0.999999995537
1524842974212030887,0.0,0.0,9.44885847773e-05,0.999999995536
1524842974213943004,0.0,0.0,9.44976204625e-05,0.999999995535
1524842974252211093,0.0,0.0,9.45053361418e-05,0.999999995534
1524842974293198108,0.0,0.0,9.45191164865e-05,0.999999995533
1524842974293378114,0.0,0.0,9.45232391154e-05,0.999999995533
1524842974334044933,0.0,0.0,9.45298815316e-05,0.999999995532
1524842974334938049,0.0,0.0,9.45354628445e-05,0.999999995532
1524842974373111963,0.0,0.0,9.45404831627e-05,0.999999995531
1524842974373460054,0.0,0.0,9.45467533684e-05,0.99999999553
1524842974412344932,0.0,0.0,9.45504611242e-05,0.99999999553
1524842974412508010,0.0,0.0,9.45535948547e-05,0.99999999553
1524842974453396081,0.0,0.0,9.45562453094e-05,0.99999999553
1524842974462030887,0.0,0.0,9.45646266531e-05,0.999999995529
1524842974500144004,0.0,0.0,9.45687543211e-05,0.999999995528
1524842974500276088,0.0,0.0,9.45718934259e-05,0.999999995528
1524842974540571928,0.0,0.0,9.45753519778e-05,0.999999995528
1524842974545936107,0.0,0.0,9.45807989682e-05,0.999999995527
1524842974585325002,0.0,0.0,9.45869452141e-05,0.999999995527
1524842974624181985,0.0,0.0,9.45924611143e-05,0.999999995526
1524842974624294042,0.0,0.0,9.4594238156e-05,0.999999995526
1524842974664045095,0.0,0.0,9.459527847e-05,0.999999995526
1524842974664165019,0.0,0.0,9.45983383432e-05,0.999999995526
1524842974709834098,0.0,0.0,9.45994721751e-05,0.999999995525
1524842974710068941,0.0,0.0,9.46037110007e-05,0.999999995525
1524842974748236894,0.0,0.0,9.46060300591e-05,0.999999995525
1524842974748367071,0.0,0.0,9.46088347312e-05,0.999999995525
1524842974790195941,0.0,0.0,9.4612936901e-05,0.999999995524
1524842974792890071,0.0,0.0,9.46176498945e-05,0.999999995524
1524842974834414958,0.0,0.0,9.46262094288e-05,0.999999995523
1524842974873495101,0.0,0.0,9.46295027062e-05,0.999999995523
1524842974873624086,0.0,0.0,9.46367076353e-05,0.999999995522
1524842974912683010,0.0,0.0,9.46427648752e-05,0.999999995521
1524842974951313972,0.0,0.0,9.46501316353e-05,0.999999995521
1524842974992908000,0.0,0.0,9.4656187932e-05,0.99999999552
1524842975032519102,0.0,0.0,9.46630105289e-05,0.999999995519
1524842975032639026,0.0,0.0,9.46728821838e-05,0.999999995519
1524842975032711982,0.0,0.0,9.46868007785e-05,0.999999995517
1524842975032774925,0.0,0.0,9.46888174961e-05,0.999999995517
1524842975086611986,0.0,0.0,9.46945012669e-05,0.999999995516
1524842975087035894,0.0,0.0,9.47107265317e-05,0.999999995515
1524842975124186992,0.0,0.0,9.47190699274e-05,0.999999995514
1524842975124327898,0.0,0.0,9.47221222899e-05,0.999999995514
1524842975164220094,0.0,0.0,9.47323610678e-05,0.999999995513
1524842975164350032,0.0,0.0,9.47392300021e-05,0.999999995512
1524842975164413928,0.0,0.0,9.47459498439e-05,0.999999995512
1524842975205708026,0.0,0.0,9.47503616042e-05,0.999999995511
1524842975212579965,0.0,0.0,9.47605738234e-05,0.99999999551
1524842975252692937,0.0,0.0,9.47653479681e-05,0.99999999551
1524842975252846956,0.0,0.0,9.47721669876e-05,0.999999995509
1524842975291965007,0.0,0.0,9.47840115141e-05,0.999999995508
1524842975292038917,0.0,0.0,9.47929651808e-05,0.999999995507
1524842975333487987,0.0,0.0,9.48009243908e-05,0.999999995506
1524842975333842992,0.0,0.0,9.48096712994e-05,0.999999995506
1524842975372037887,0.0,0.0,9.4816471696e-05,0.999999995505
1524842975398041009,0.0,0.0,9.48237470623e-05,0.999999995504
1524842975436538934,0.0,0.0,9.48310510518e-05,0.999999995504
1524842975436753034,0.0,0.0,9.48366135059e-05,0.999999995503
1524842975436881065,0.0,0.0,9.48410756385e-05,0.999999995503
1524842975493733882,0.0,0.0,9.48451369812e-05,0.999999995502
1524842975493928909,0.0,0.0,9.4850123016e-05,0.999999995502
1524842975533396959,0.0,0.0,9.48539057282e-05,0.999999995501
1524842975533795118,0.0,0.0,9.48569711308e-05,0.999999995501
1524842975576235055,0.0,0.0,9.48596664814e-05,0.999999995501
1524842975576380014,0.0,0.0,9.48629529502e-05,0.999999995501
1524842975617055892,0.0,0.0,9.48645490336e-05,0.9999999955
1524842975621642112,0.0,0.0,9.48647802569e-05,0.9999999955
1524842975660584926,0.0,0.0,9.48662963933e-05,0.9999999955
1524842975660831928,0.0,0.0,9.48697367726e-05,0.9999999955
1524842975700042963,0.0,0.0,9.48710619121e-05,0.9999999955
1524842975700141906,0.0,0.0,9.48742379001e-05,0.999999995499
1524842975740231990,0.0,0.0,9.48762489661e-05,0.999999995499
1524842975784267902,0.0,0.0,2.43314974999e-05,0.999999999704
1524842975824759960,0.0,0.0,-0.00204177028187,0.999997915585
1524842975824826955,0.0,0.0,-0.00493733056293,0.999987811309
1524842975865684986,0.0,0.0,-0.00878387370512,0.999961421037
1524842975866159915,0.0,0.0,-0.016349059741,0.999866345191
1524842975866353988,0.0,0.0,-0.017921131298,0.999839403631
1524842975905509948,0.0,0.0,-0.0261008283712,0.999659315346
1524842975906002998,0.0,0.0,-0.0278361691066,0.999612498766
1524842975941582918,0.0,0.0,-0.0319065195395,0.999490857392
1524842975941836118,0.0,0.0,-0.0398791952808,0.999204508489
1524842975980427026,0.0,0.0,-0.0414823153172,0.999139238303
1524842975980603933,0.0,0.0,-0.0493149576969,0.998783277267
1524842976052592039,0.0,0.0,-0.0552561444775,0.998472212181
1524842976054151058,0.0,0.0,-0.0602343305072,0.998184264266
1524842976092307090,0.0,0.0,-0.064917558458,0.997890630582
1524842976132234096,0.0,0.0,-0.0693154328386,0.997594792875
1524842976132352113,0.0,0.0,-0.0783803389029,0.9969235289
1524842976132420063,0.0,0.0,-0.0823457569595,0.99660382114
1524842976172303915,0.0,0.0,-0.0863831603753,0.996261988437
1524842976194231986,0.0,0.0,-0.0897711112557,0.995962422777
1524842976232271909,0.0,0.0,-0.0952712833084,0.995451346163
1524842976232400894,0.0,0.0,-0.0984138006682,0.995145579218
1524842976273327112,0.0,0.0,-0.103278847242,0.994652441666
1524842976273598909,0.0,0.0,-0.107005771852,0.994258399407
1524842976312391996,0.0,0.0,-0.108915340061,0.994051029223
1524842976312499046,0.0,0.0,-0.109836855755,0.993949629065
1524842976352380037,0.0,0.0,-0.110421741833,0.993884821763
1524842976369048118,0.0,0.0,-0.110654165186,0.99385897175
1524842976408960103,0.0,0.0,-0.111539314077,0.993760022045
1524842976449769973,0.0,0.0,-0.116927766281,0.99314042183
1524842976450347900,0.0,0.0,-0.120853409269,0.992670364959
1524842976450623989,0.0,0.0,-0.126034661516,0.992025838422
1524842976488933086,0.0,0.0,-0.130323419624,0.991471535798
1524842976489064931,0.0,0.0,-0.133812243862,0.991006701992
1524842976498069047,0.0,0.0,-0.139023912791,0.990289024312
1524842976518191099,0.0,0.0,-0.141582149452,0.989926509877
1524842976556080102,0.0,0.0,-0.145435188257,0.989367780968
1524842976596216917,0.0,0.0,-0.146880412419,0.989154257155
1524842976596371889,0.0,0.0,-0.14884129429,0.988861096977
1524842976636039018,0.0,0.0,-0.149356161997,0.988783463087
1524842976636138916,0.0,0.0,-0.149373688808,0.988780815495
1524842976676352977,0.0,0.0,-0.14933779076,0.988786237895
1524842976676526069,0.0,0.0,-0.149320398388,0.988788864533
1524842976716418027,0.0,0.0,-0.149312820079,0.98879000893
1524842976716593027,0.0,0.0,-0.149377009925,0.988780313773
1524842976756678104,0.0,0.0,-0.149815986544,0.988713897028
1524842976757294893,0.0,0.0,-0.150938564429,0.988543145122
1524842976796219110,0.0,0.0,-0.153135932222,0.988205133696
1524842976796325922,0.0,0.0,-0.15691431945,0.987612219624
1524842976796366930,0.0,0.0,-0.15842180245,0.98737152709
1524842976837028980,0.0,0.0,-0.166223167845,0.986088159584
1524842976845077037,0.0,0.0,-0.170675315591,0.985327324623
1524842976884848117,0.0,0.0,-0.175830029589,0.984420540569
1524842976923974990,0.0,0.0,-0.180039505414,0.983659380319
1524842976924081087,0.0,0.0,-0.186236152753,0.982505010373
1524842976965867996,0.0,0.0,-0.190277705808,0.981730306486
1524842976989991903,0.0,0.0,-0.194168953875,0.980968102107
1524842977028167009,0.0,0.0,-0.198090497055,0.980183735315
1524842977028263092,0.0,0.0,-0.201532447922,0.979481838747
1524842977028327941,0.0,0.0,-0.205843335084,0.978584958704
1524842977068631887,0.0,0.0,-0.212724323246,0.977112256754
1524842977068739891,0.0,0.0,-0.215711347492,0.976457174977
1524842977087979078,0.0,0.0,-0.219332155222,0.975650247622
1524842977101480960,0.0,0.0,-0.222528907399,0.974926092261
1524842977143837928,0.0,0.0,-0.22419773161,0.974543676364
1524842977180123090,0.0,0.0,-0.229171943965,0.973385956391
1524842977180219888,0.0,0.0,-0.232053046066,0.972703132416
1524842977220343112,0.0,0.0,-0.235933946338,0.971769094469
1524842977222071886,0.0,0.0,-0.240278865976,0.970703902622
1524842977260008096,0.0,0.0,-0.242440969703,0.970166159072
1524842977260085105,0.0,0.0,-0.245082865319,0.969502134669
1524842977300676107,0.0,0.0,-0.247340302477,0.968928673727
1524842977321147918,0.0,0.0,-0.247601082377,0.968862066553
1524842977360837936,0.0,0.0,-0.247924606937,0.968779329504
1524842977361510038,0.0,0.0,-0.247904784634,0.968784402102
1524842977400311946,0.0,0.0,-0.247891661261,0.968787760182
1524842977451167106,0.0,0.0,-0.247887224611,0.968788895413
1524842977488296985,0.0,0.0,-0.247882474412,0.968790110849
1524842977488445997,0.0,0.0,-0.247878385137,0.968791157155
1524842977488548040,0.0,0.0,-0.247875350307,0.968791933652
1524842977528800010,0.0,0.0,-0.247874515135,0.968792147339
1524842977528975963,0.0,0.0,-0.24787390361,0.968792303804
1524842977529084920,0.0,0.0,-0.247873392838,0.968792434489
1524842977569554090,0.0,0.0,-0.247873204146,0.968792482767
1524842977570002079,0.0,0.0,-0.247872154015,0.968792751451
1524842977586478948,0.0,0.0,-0.247870564476,0.968793158144
1524842977636707067,0.0,0.0,-0.247869396003,0.968793457103
1524842977676232099,0.0,0.0,-0.24786882833,0.968793602344
1524842977676326036,0.0,0.0,-0.247868344887,0.968793726034
1524842977676403045,0.0,0.0,-0.247867903265,0.968793839024
1524842977721064090,0.0,0.0,-0.247867237451,0.968794009374
1524842977721699953,0.0,0.0,-0.247866836427,0.968794111976
1524842977760092973,0.0,0.0,-0.247982932869,0.968764401186
1524842977801232099,0.0,0.0,-0.248653005099,0.968592630085
1524842977841355085,0.0,0.0,-0.250044108889,0.968234446614
1524842977841572999,0.0,0.0,-0.253207953246,0.967411873202
1524842977841658115,0.0,0.0,-0.25743541733,0.966295506511
1524842977880192041,0.0,0.0,-0.260328420801,0.965520125799
1524842977880294084,0.0,0.0,-0.266518851463,0.963829705817
1524842977893804073,0.0,0.0,-0.270962125157,0.962590009677
1524842977907454967,0.0,0.0,-0.275276885771,0.961364985924
1524842977944032907,0.0,0.0,-0.280328206621,0.959904212186
1524842977989123106,0.0,0.0,-0.284790628779,0.958589744239
1524842977989243984,0.0,0.0,-0.292411324987,0.956292641935
1524842978028107881,0.0,0.0,-0.294266645786,0.955723360172
1524842978028211116,0.0,0.0,-0.301539042136,0.953453830066
1524842978028261899,0.0,0.0,-0.306977267684,0.951716847138
1524842978069453954,0.0,0.0,-0.311102857385,0.950376247666
1524842978079452991,0.0,0.0,-0.312143344572,0.950035016428
1524842978151144981,0.0,0.0,-0.313018618469,0.949746989725
1524842978189606904,0.0,0.0,-0.313018888779,0.949746900636
1524842978189699888,0.0,0.0,-0.313009024872,0.949750151539
1524842978189759016,0.0,0.0,-0.313005025946,0.949751469455
1524842978229648113,0.0,0.0,-0.313003435367,0.949751993653
1524842978230088949,0.0,0.0,-0.313002837345,0.949752190739
1524842978241725921,0.0,0.0,-0.313002649523,0.949752252638
1524842978274617910,0.0,0.0,-0.313002628992,0.949752259405
1524842978315453052,0.0,0.0,-0.313002675824,0.94975224397
1524842978316457986,0.0,0.0,-0.313002750823,0.949752219254
1524842978352446079,0.0,0.0,-0.313000415119,0.949752989011
1524842978352560043,0.0,0.0,-0.312991904792,0.94975579363
1524842978392035961,0.0,0.0,-0.312988562307,0.949756895139
1524842978392127037,0.0,0.0,-0.312986931688,0.949757432502
1524842978432327985,0.0,0.0,-0.312985923957,0.949757764593
1524842978432462930,0.0,0.0,-0.312985158115,0.949758016971
1524842978472063064,0.0,0.0,-0.312984492172,0.949758236426
1524842978472165107,0.0,0.0,-0.312983631152,0.949758520168
1524842978544017076,0.0,0.0,-0.312983042331,0.949758714207
1524842978544255971,0.0,0.0,-0.312982472243,0.949758902074
1524842978588354110,0.0,0.0,-0.312981915649,0.949759085493
1524842978588517904,0.0,0.0,-0.312981371468,0.949759264821
1524842978588597059,0.0,0.0,-0.313057481771,0.949734180235
1524842978628200054,0.0,0.0,-0.313604534619,0.949553682456
1524842978628295898,0.0,0.0,-0.314696227355,0.94919243807
1524842978647938013,0.0,0.0,-0.316628887251,0.948549496736
1524842978656384944,0.0,0.0,-0.320365386062,0.947294051186
1524842978696177959,0.0,0.0,-0.324640770214,0.945837391053
1524842978696295976,0.0,0.0,-0.328563993066,0.944481711025
1524842978736192941,0.0,0.0,-0.335902830436,0.94189664428
1524842978743339061,0.0,0.0,-0.339900218417,0.940461504539
1524842978780280113,0.0,0.0,-0.344930662627,0.938628168116
1524842978820061922,0.0,0.0,-0.34865449241,0.937251324311
1524842978860295057,0.0,0.0,-0.355207912267,0.934787322904
1524842978860388040,0.0,0.0,-0.359137299991,0.933284736699
1524842978860456943,0.0,0.0,-0.362129374864,0.932127843089
