%time,field.x,field.y,field.z,field.w
1524842957787657022,0.0,0.0,4.22044506648e-06,0.999999999991
1524842957804295063,0.0,0.0,4.22044506648e-06,0.999999999991
1524842957833226919,0.0,0.0,4.22044506648e-06,0.999999999991
1524842957853672981,0.0,0.0,4.22044506648e-06,0.999999999991
1524842957878411054,0.0,0.0,4.22044506648e-06,0.999999999991
1524842957903178930,0.0,0.0,4.22044506648e-06,0.999999999991
1524842957934201002,0.0,0.0,4.22044506648e-06,0.999999999991
1524842957953493118,0.0,0.0,4.22044506648e-06,0.999999999991
1524842957978965044,0.0,0.0,4.22044506648e-06,0.999999999991
1524842958003854036,0.0,0.0,4.22044506648e-06,0.999999999991
1524842958029155015,0.0,0.0,4.22044506648e-06,0.999999999991
1524842958058172941,0.0,0.0,4.27671341977e-06,0.999999999991
1524842958079289913,0.0,0.0,4.27895820219e-06,0.999999999991
1524842958107851982,0.0,0.0,4.28120298461e-06,0.999999999991
1524842958131417989,0.0,0.0,4.28616493374e-06,0.999999999991
1524842958158232927,0.0,0.0,4.28790397045e-06,0.999999999991
1524842958182847976,0.0,0.0,4.28964300717e-06,0.999999999991
1524842958210819959,0.0,0.0,4.28984671201e-06,0.999999999991
1524842958235346078,0.0,0.0,4.29118453983e-06,0.999999999991
1524842958261267900,0.0,0.0,4.29252236765e-06,0.999999999991
1524842958283041954,0.0,0.0,4.29386019547e-06,0.999999999991
1524842958307957887,0.0,0.0,4.29519802329e-06,0.999999999991
1524842958335180997,0.0,0.0,4.2965358511e-06,0.999999999991
1524842958357978105,0.0,0.0,4.29787367892e-06,0.999999999991
1524842958385235071,0.0,0.0,1.36252879488e-08,1.0
1524842958409001111,0.0,0.0,-9.87972217353e-08,1.0
1524842958433433055,0.0,0.0,-2.11219731419e-07,1.0
1524842958461340904,0.0,0.0,-3.23642241104e-07,1.0
1524842958484812021,0.0,0.0,-4.36064750788e-07,1.0
1524842958509138107,0.0,0.0,-5.48487260472e-07,1.0
1524842958537359952,0.0,0.0,-6.60909770156e-07,1.0
1524842958560376882,0.0,0.0,-2.35111334706e-06,0.999999999997
1524842958586227893,0.0,0.0,-1.21479573582e-05,0.999999999926
1524842958608644962,0.0,0.0,-1.2328105991e-05,0.999999999924
1524842958638482093,0.0,0.0,-1.25082546238e-05,0.999999999922
1524842958659790992,0.0,0.0,-1.26884032566e-05,0.99999999992
1524842958687762975,0.0,0.0,-1.28685518893e-05,0.999999999917
1524842958709844112,0.0,0.0,-1.30487005221e-05,0.999999999915
1524842958736073970,0.0,0.0,-1.32288491549e-05,0.999999999912
1524842958763914108,0.0,0.0,5.50871138889e-05,0.999999998483
1524842958785428047,0.0,0.0,5.60650933943e-05,0.999999998428
1524842958810544013,0.0,0.0,5.70430728996e-05,0.999999998373
1524842958838972091,0.0,0.0,-6.30926671174e-05,0.99999999801
1524842958861099958,0.0,0.0,-6.41379525749e-05,0.999999997943
1524842958887840986,0.0,0.0,-6.51832380324e-05,0.999999997876
1524842958910761117,0.0,0.0,-6.62285234897e-05,0.999999997807
1524842958938741922,0.0,0.0,-6.7273808947e-05,0.999999997737
1524842958962687015,0.0,0.0,-6.83190944043e-05,0.999999997666
1524842958990772962,0.0,0.0,5.51948490663e-05,0.999999998477
1524842959010819911,0.0,0.0,5.57701940123e-05,0.999999998445
1524842959036314964,0.0,0.0,5.63455389584e-05,0.999999998413
1524842959062927007,0.0,0.0,5.69208839043e-05,0.99999999838
1524842959086339950,0.0,0.0,5.74962288503e-05,0.999999998347
1524842959122347116,0.0,0.0,1.18310623884e-05,0.99999999993
1524842959137387990,0.0,0.0,1.19519915635e-05,0.999999999929
1524842959163175106,0.0,0.0,1.20729207387e-05,0.999999999927
1524842959186609983,0.0,0.0,1.21938499138e-05,0.999999999926
1524842959218983888,0.0,0.0,1.66566964352e-05,0.999999999861
1524842959238131999,0.0,0.0,1.67960594147e-05,0.999999999859
1524842959262748956,0.0,0.0,1.69354223942e-05,0.999999999857
1524842959288906097,0.0,0.0,1.70747853737e-05,0.999999999854
1524842959312098026,0.0,0.0,1.72141483533e-05,0.999999999852
1524842959338325977,0.0,0.0,1.73535113328e-05,0.999999999849
1524842959362207889,0.0,0.0,1.74928743123e-05,0.999999999847
1524842959389591932,0.0,0.0,-2.91720147072e-05,0.999999999574
1524842959413623094,0.0,0.0,-2.93231068174e-05,0.99999999957
1524842959438689947,0.0,0.0,-2.94741989276e-05,0.999999999566
1524842959462991952,0.0,0.0,-2.96252910378e-05,0.999999999561
1524842959490067005,0.0,0.0,0.000144408688266,0.999999989573
1524842959515372037,0.0,0.0,0.000145473908989,0.999999989419
1524842959539433956,0.0,0.0,0.000146539129712,0.999999989263
1524842959562988996,0.0,0.0,0.000147604350435,0.999999989106
1524842959588892936,0.0,0.0,0.000148669571158,0.999999988949
1524842959616594076,0.0,0.0,0.000184267686343,0.999999983023
1524842959638271093,0.0,0.0,0.000185551482067,0.999999982785
1524842959664829015,0.0,0.0,0.000186835277791,0.999999982546
1524842959689661026,0.0,0.0,0.000188119073514,0.999999982306
1524842959713835000,0.0,0.0,0.000189402869237,0.999999982063
1524842959739795923,0.0,0.0,0.00019068666496,0.999999981819
1524842959769303083,0.0,0.0,0.000191970460683,0.999999981574
1524842959792932987,0.0,0.0,0.000193254256405,0.999999981326
1524842959819871902,0.0,0.0,0.000194538052127,0.999999981077
1524842959840523958,0.0,0.0,0.000195821847849,0.999999980827
1524842959869920015,0.0,0.0,0.00019710564357,0.999999980575
1524842959892246961,0.0,0.0,0.000198389439291,0.999999980321
1524842959919064998,0.0,0.0,0.000199673235012,0.999999980065
1524842959945228099,0.0,0.0,0.000200957030732,0.999999979808
1524842959968554019,0.0,0.0,0.000202240826452,0.999999979549
1524842959994183063,0.0,0.0,0.000203524622172,0.999999979289
1524842960020088911,0.0,0.0,0.000204808417891,0.999999979027
1524842960042701005,0.0,0.0,0.00020609221361,0.999999978763
1524842960070458889,0.0,0.0,0.000207376009329,0.999999978498
1524842960092674016,0.0,0.0,0.000208659805047,0.999999978231
1524842960119558095,0.0,0.0,0.000209943600765,0.999999977962
1524842960143296003,0.0,0.0,0.000211227396482,0.999999977691
1524842960168068885,0.0,0.0,0.0002125111922,0.999999977419
1524842960193619012,0.0,0.0,0.000213794987917,0.999999977146
1524842960219542026,0.0,0.0,0.000215078783633,0.999999976871
1524842960243217945,0.0,0.0,0.000216362579349,0.999999976594
1524842960272310018,0.0,0.0,0.000217646375065,0.999999976315
1524842960293984889,0.0,0.0,0.000218930170781,0.999999976035
1524842960319407939,0.0,0.0,0.000220213966496,0.999999975753
1524842960343585968,0.0,0.0,0.000221497762211,0.999999975469
1524842960371064901,0.0,0.0,0.000222781557925,0.999999975184
1524842960397855997,0.0,0.0,0.000224065353639,0.999999974897
1524842960420851945,0.0,0.0,0.000225349149353,0.999999974609
1524842960447083950,0.0,0.0,0.000226632945066,0.999999974319
1524842960471952915,0.0,0.0,0.000227916740779,0.999999974027
1524842960497268915,0.0,0.0,0.000229200536492,0.999999973734
1524842960521881103,0.0,0.0,0.000230484332204,0.999999973438
1524842960546849966,0.0,0.0,0.000231768127916,0.999999973142
1524842960573827028,0.0,0.0,0.000233051923627,0.999999972843
1524842960597266912,0.0,0.0,0.000234335719338,0.999999972543
1524842960623148918,0.0,0.0,0.000235619515049,0.999999972242
1524842960647289991,0.0,0.0,0.000236903310759,0.999999971938
1524842960673146963,0.0,0.0,0.000238187106469,0.999999971633
1524842960698240995,0.0,0.0,0.000239470902178,0.999999971327
1524842960722381114,0.0,0.0,0.000240754697887,0.999999971019
1524842960748630046,0.0,0.0,0.000242038493596,0.999999970709
1524842960773855924,0.0,0.0,0.000243322289304,0.999999970397
1524842960797544956,0.0,0.0,0.000244606085012,0.999999970084
1524842960823322057,0.0,0.0,0.00024588988072,0.999999969769
1524842960852282047,0.0,0.0,0.000247173676427,0.999999969453
1524842960873790025,0.0,0.0,0.000248457472133,0.999999969134
1524842960898580074,0.0,0.0,0.00024974126784,0.999999968815
1524842960925867080,0.0,0.0,0.000251025063545,0.999999968493
1524842960952636957,0.0,0.0,0.000252308859251,0.99999996817
1524842960973509073,0.0,0.0,0.000253592654956,0.999999967845
1524842961001857995,0.0,0.0,0.00025487645066,0.999999967519
1524842961023705005,0.0,0.0,0.000256160246365,0.999999967191
1524842961049117088,0.0,0.0,0.000257444042068,0.999999966861
1524842961074167013,0.0,0.0,0.000258727837772,0.99999996653
1524842961101886034,0.0,0.0,0.000260011633475,0.999999966197
1524842961126590967,0.0,0.0,0.000261295429177,0.999999965862
1524842961150279998,0.0,0.0,0.000262579224879,0.999999965526
1524842961177191972,0.0,0.0,0.000263863020581,0.999999965188
1524842961204031944,0.0,0.0,0.000265146816282,0.999999964849
1524842961227396965,0.0,0.0,0.000266430611983,0.999999964507
1524842961255007028,0.0,0.0,0.000267714407683,0.999999964164
1524842961277359008,0.0,0.0,0.000268998203383,0.99999996382
1524842961302424907,0.0,0.0,0.000270281999082,0.999999963474
1524842961326745986,0.0,0.0,0.000271565794781,0.999999963126
1524842961357364892,0.0,0.0,-5.50432049867e-06,0.999999999985
1524842961379364967,0.0,0.0,-5.74747280724e-06,0.999999999983
1524842961405427932,0.0,0.0,-5.99062511582e-06,0.999999999982
1524842961427628040,0.0,0.0,-6.2337774244e-06,0.999999999981
1524842961454546928,0.0,0.0,3.82270983523e-06,0.999999999993
1524842961478243112,0.0,0.0,3.6093871961e-06,0.999999999993
1524842961502310991,0.0,0.0,3.39606455696e-06,0.999999999994
1524842961528320074,0.0,0.0,3.18274191782e-06,0.999999999995
1524842961557837963,0.0,0.0,2.96941927868e-06,0.999999999996
1524842961587011098,0.0,0.0,-6.01576165835e-05,0.999999998191
1524842961605540990,0.0,0.0,-6.28767223197e-05,0.999999998023
1524842961630177974,0.0,0.0,-6.55958280554e-05,0.999999997849
1524842961658665895,0.0,0.0,-6.83149337907e-05,0.999999997667
1524842961683732986,0.0,0.0,-7.10340395255e-05,0.999999997477
1524842961708275079,0.0,0.0,-7.37531452597e-05,0.99999999728
1524842961736017942,0.0,0.0,-1.72372612605e-05,0.999999999851
1524842961759718894,0.0,0.0,-1.91380349757e-05,0.999999999817
1524842961785324096,0.0,0.0,-2.10388086909e-05,0.999999999779
1524842961810672044,0.0,0.0,-2.29395824061e-05,0.999999999737
1524842961837083101,0.0,0.0,-8.22181435942e-05,0.99999999662
1524842961860223054,0.0,0.0,-8.42090669111e-05,0.999999996454
1524842961885510921,0.0,0.0,-8.61999902277e-05,0.999999996285
1524842961910486936,0.0,0.0,-8.81909135439e-05,0.999999996111
1524842961937915086,0.0,0.0,-9.01818368598e-05,0.999999995934
1524842961966821908,0.0,0.0,-1.78331869959e-05,0.999999999841
1524842961988583087,0.0,0.0,-1.88558891833e-05,0.999999999822
1524842962013092041,0.0,0.0,-1.98785913707e-05,0.999999999802
1524842962038819074,0.0,0.0,-2.09012935581e-05,0.999999999782
1524842962067262887,0.0,0.0,-2.19239957455e-05,0.99999999976
1524842962092453956,0.0,0.0,-4.63460325818e-05,0.999999998926
1524842962115335941,0.0,0.0,-4.7731321604e-05,0.999999998861
1524842962139935970,0.0,0.0,-4.91166106261e-05,0.999999998794
1524842962169434070,0.0,0.0,-5.05018996481e-05,0.999999998725
1524842962190361022,0.0,0.0,-5.18871886701e-05,0.999999998654
1524842962217509984,0.0,0.0,-2.88852069778e-05,0.999999999583
1524842962240134000,0.0,0.0,-3.00505406575e-05,0.999999999548
1524842962265538930,0.0,0.0,-3.12158743372e-05,0.999999999513
1524842962290997982,0.0,0.0,-3.23812080169e-05,0.999999999476
1524842962318500041,0.0,0.0,-3.35465416965e-05,0.999999999437
1524842962342474937,0.0,0.0,7.72063835599e-05,0.99999999702
1524842962369204044,0.0,0.0,7.75441369033e-05,0.999999996993
1524842962391283035,0.0,0.0,7.78818902466e-05,0.999999996967
1524842962421979904,0.0,0.0,7.821964359e-05,0.999999996941
1524842962440869092,0.0,0.0,7.85573969334e-05,0.999999996914
1524842962467926025,0.0,0.0,7.88951502767e-05,0.999999996888
1524842962495410919,0.0,0.0,7.923290362e-05,0.999999996861
1524842962520508050,0.0,0.0,-9.33100832655e-05,0.999999995647
1524842962542066097,0.0,0.0,5.84249713015e-05,0.999999998293
1524842962571227073,0.0,0.0,5.8604355766e-05,0.999999998283
1524842962593782901,0.0,0.0,7.91949532175e-05,0.999999996864
1524842962617711067,0.0,0.0,7.96490587805e-05,0.999999996828
1524842962641489028,0.0,0.0,8.01031643435e-05,0.999999996792
1524842962670072078,0.0,0.0,8.05572699064e-05,0.999999996755
1524842962692135095,0.0,0.0,8.10113754693e-05,0.999999996719
1524842962721411943,0.0,0.0,4.06714240928e-05,0.999999999173
1524842962743484973,0.0,0.0,4.06927783538e-05,0.999999999172
1524842962771544933,0.0,0.0,4.07141326148e-05,0.999999999171
1524842962793764114,0.0,0.0,4.07354868759e-05,0.99999999917
1524842962822102069,0.0,0.0,4.07568411369e-05,0.999999999169
1524842962845454931,0.0,0.0,-4.62933708819e-05,0.999999998928
1524842962872570991,0.0,0.0,-4.70566752456e-05,0.999999998893
1524842962893500089,0.0,0.0,-4.78199796092e-05,0.999999998857
1524842962919831991,0.0,0.0,-4.85832839729e-05,0.99999999882
1524842962945399999,0.0,0.0,-4.93465883365e-05,0.999999998782
1524842962974276065,0.0,0.0,0.000201007184557,0.999999979798
1524842962994961023,0.0,0.0,7.20527684246e-05,0.999999997404
1524842963019491910,0.0,0.0,7.26879320038e-05,0.999999997358
1524842963044413089,0.0,0.0,7.33230955829e-05,0.999999997312
1524842963069111108,0.0,0.0,7.3958259162e-05,0.999999997265
1524842963094130039,0.0,0.0,7.45934227411e-05,0.999999997218
1524842963122585058,0.0,0.0,-4.39616597996e-07,1.0
1524842963144994974,0.0,0.0,-5.87384947245e-07,1.0
1524842963171988010,0.0,0.0,-7.35153296493e-07,1.0
1524842963197916030,0.0,0.0,-8.82921645741e-07,1.0
1524842963223546028,0.0,0.0,-1.03068999499e-06,0.999999999999
1524842963260215044,0.0,0.0,-8.04316918518e-07,1.0
1524842963300627946,0.0,0.0,-9.37470045237e-07,1.0
1524842963340512990,0.0,0.0,-1.07062317196e-06,0.999999999999
1524842963340703010,0.0,0.0,-1.20377629867e-06,0.999999999999
1524842963380327939,0.0,0.0,3.46721752064e-06,0.999999999994
1524842963380530118,0.0,0.0,3.3732434588e-06,0.999999999994
1524842963420214891,0.0,0.0,3.27926939696e-06,0.999999999995
1524842963424886941,0.0,0.0,3.18529533512e-06,0.999999999995
1524842963465188980,0.0,0.0,-0.000466595220479,0.999999891144
1524842963504645109,0.0,0.0,-2.16648734314e-05,0.999999999765
1524842963504930019,0.0,0.0,-2.19717279413e-05,0.999999999759
1524842963545186042,0.0,0.0,-2.22785824511e-05,0.999999999752
1524842963550738096,0.0,0.0,-2.2585436961e-05,0.999999999745
1524842963589158058,0.0,0.0,-2.28922914709e-05,0.999999999738
1524842963633100032,0.0,0.0,-2.31991459807e-05,0.999999999731
1524842963633274078,0.0,0.0,-2.35060004906e-05,0.999999999724
1524842963672976970,0.0,0.0,-2.38128550004e-05,0.999999999716
1524842963678066968,0.0,0.0,-2.41197095103e-05,0.999999999709
1524842963716273069,0.0,0.0,-2.44265640201e-05,0.999999999702
1524842963756166934,0.0,0.0,-2.473341853e-05,0.999999999694
1524842963756268978,0.0,0.0,-2.50402730398e-05,0.999999999686
1524842963797240018,0.0,0.0,-2.53471275497e-05,0.999999999679
1524842963803420066,0.0,0.0,-2.56539820595e-05,0.999999999671
1524842963841561079,0.0,0.0,-2.59608365694e-05,0.999999999663
1524842963880003929,0.0,0.0,-2.62676910792e-05,0.999999999655
1524842963880103111,0.0,0.0,-2.6574545589e-05,0.999999999647
1524842963920314073,0.0,0.0,-2.68814000989e-05,0.999999999639
1524842963931627988,0.0,0.0,-2.71882546087e-05,0.99999999963
1524842963968297958,0.0,0.0,-2.74951091185e-05,0.999999999622
1524842964008223056,0.0,0.0,-2.78019636283e-05,0.999999999614
1524842964008331060,0.0,0.0,-2.81088181382e-05,0.999999999605
1524842964049519062,0.0,0.0,-2.8415672648e-05,0.999999999596
1524842964054647922,0.0,0.0,-2.87225271578e-05,0.999999999588
1524842964092206954,0.0,0.0,-2.90293816676e-05,0.999999999579
1524842964132239103,0.0,0.0,-2.93362361774e-05,0.99999999957
1524842964173434019,0.0,0.0,-2.96430906872e-05,0.999999999561
1524842964174231052,0.0,0.0,-2.9949945197e-05,0.999999999552
1524842964212182998,0.0,0.0,-3.02567997068e-05,0.999999999542
1524842964212306976,0.0,0.0,-3.05636542166e-05,0.999999999533
1524842964253478050,0.0,0.0,-3.08705087264e-05,0.999999999524
1524842964258691072,0.0,0.0,-3.11773632362e-05,0.999999999514
1524842964297452926,0.0,0.0,-3.1484217746e-05,0.999999999504
1524842964337842941,0.0,0.0,-3.17910722558e-05,0.999999999495
1524842964338571071,0.0,0.0,-3.20979267656e-05,0.999999999485
1524842964376223087,0.0,0.0,-3.24047812753e-05,0.999999999475
1524842964386993885,0.0,0.0,-3.27116357851e-05,0.999999999465
1524842964424644947,0.0,0.0,-3.30184902949e-05,0.999999999455
1524842964464207887,0.0,0.0,-3.33253448047e-05,0.999999999445
1524842964464442014,0.0,0.0,-3.36321993144e-05,0.999999999434
1524842964505652904,0.0,0.0,-3.39390538242e-05,0.999999999424
1524842964509850978,0.0,0.0,-3.4245908334e-05,0.999999999414
1524842964553740024,0.0,0.0,-3.45527628437e-05,0.999999999403
1524842964592871904,0.0,0.0,-3.48596173535e-05,0.999999999392
1524842964593311071,0.0,0.0,-3.51664718632e-05,0.999999999382
1524842964632802963,0.0,0.0,-3.5473326373e-05,0.999999999371
1524842964637413024,0.0,0.0,-3.57801808827e-05,0.99999999936
1524842964680438995,0.0,0.0,-3.60870353925e-05,0.999999999349
1524842964720247030,0.0,0.0,-3.63938899022e-05,0.999999999338
1524842964720381975,0.0,0.0,-3.67007444119e-05,0.999999999327
1524842964760112047,0.0,0.0,-3.70075989217e-05,0.999999999315
1524842964760360002,0.0,0.0,-3.73144534314e-05,0.999999999304
1524842964800204992,0.0,0.0,-3.76213079411e-05,0.999999999292
1524842964840723037,0.0,0.0,-3.79281624508e-05,0.999999999281
1524842964840805053,0.0,0.0,-3.82350169606e-05,0.999999999269
1524842964880271911,0.0,0.0,-3.85418714703e-05,0.999999999257
1524842964887094974,0.0,0.0,-3.884872598e-05,0.999999999245
1524842964924328088,0.0,0.0,-3.91555804897e-05,0.999999999233
1524842964964703083,0.0,0.0,-3.94624349994e-05,0.999999999221
1524842964964919090,0.0,0.0,-3.97692895091e-05,0.999999999209
1524842965004343986,0.0,0.0,-4.00761440188e-05,0.999999999197
1524842965013228893,0.0,0.0,-4.03829985285e-05,0.999999999185
1524842965053212881,0.0,0.0,-4.06898530382e-05,0.999999999172
1524842965092871904,0.0,0.0,-4.09967075479e-05,0.99999999916
1524842965093075990,0.0,0.0,-4.13035620575e-05,0.999999999147
1524842965132141113,0.0,0.0,-4.16104165672e-05,0.999999999134
1524842965138286113,0.0,0.0,-4.19172710769e-05,0.999999999121
1524842965176042079,0.0,0.0,-4.22241255866e-05,0.999999999109
1524842965218053102,0.0,0.0,-4.25309800962e-05,0.999999999096
1524842965218656063,0.0,0.0,-4.28378346059e-05,0.999999999082
1524842965256709098,0.0,0.0,-4.31446891155e-05,0.999999999069
1524842965266350984,0.0,0.0,-4.34515436252e-05,0.999999999056
1524842965305473089,0.0,0.0,-4.37583981348e-05,0.999999999043
1524842965344111919,0.0,0.0,-4.40652526445e-05,0.999999999029
1524842965344217061,0.0,0.0,-4.43721071541e-05,0.999999999016
1524842965384411096,0.0,0.0,-4.46789616638e-05,0.999999999002
1524842965391350984,0.0,0.0,-4.49858161734e-05,0.999999998988
1524842965428215026,0.0,0.0,-4.5292670683e-05,0.999999998974
1524842965471287965,0.0,0.0,-4.55995251926e-05,0.99999999896
1524842965471893072,0.0,0.0,-4.59063797023e-05,0.999999998946
1524842965508243083,0.0,0.0,-4.62132342119e-05,0.999999998932
1524842965520049095,0.0,0.0,-4.65200887215e-05,0.999999998918
1524842965556397914,0.0,0.0,-6.18896299457e-05,0.999999998085
1524842965596071958,0.0,0.0,-6.09095412967e-05,0.999999998145
1524842965596175909,0.0,0.0,-4.39263031234e-05,0.999999999035
1524842965636662960,0.0,0.0,-4.26158366253e-05,0.999999999092
1524842965641720056,0.0,0.0,-4.13053701271e-05,0.999999999147
1524842965680257081,0.0,0.0,-3.99949036289e-05,0.9999999992
1524842965720587968,0.0,0.0,-3.86844371306e-05,0.999999999252
1524842965720700025,0.0,0.0,0.000150057814701,0.999999988741
1524842965760103940,0.0,0.0,0.00015364787824,0.999999988196
1524842965767497062,0.0,0.0,0.000157237941778,0.999999987638
1524842965805249929,0.0,0.0,0.000160828005313,0.999999987067
1524842965844599962,0.0,0.0,0.000164418068846,0.999999986483
1524842965885106086,0.0,0.0,0.000168008132377,0.999999985887
1524842965885423898,0.0,0.0,0.000193745870899,0.999999981231
1524842965924242973,0.0,0.0,0.000199229783129,0.999999980154
1524842965924356937,0.0,0.0,0.000204713695353,0.999999979046
1524842965965418100,0.0,0.0,0.00021019760757,0.999999977908
1524842965971173048,0.0,0.0,-0.000123192547278,0.999999992412
1524842966008290052,0.0,0.0,-0.00012549438336,0.999999992126
1524842966048119068,0.0,0.0,-0.000127796219441,0.999999991834
1524842966048213005,0.0,0.0,-0.000130098055521,0.999999991537
1524842966088186025,0.0,0.0,-0.000132399891601,0.999999991235
1524842966094552993,0.0,0.0,-8.21436755428e-05,0.999999996626
1524842966133306026,0.0,0.0,-8.41035193437e-05,0.999999996463
1524842966172141075,0.0,0.0,-8.60633631443e-05,0.999999996297
1524842966172266960,0.0,0.0,-8.80232069445e-05,0.999999996126
1524842966212393999,0.0,0.0,-8.99830507444e-05,0.999999995952
1524842966220897912,0.0,0.0,0.000712264843464,0.999999746339
1524842966261396884,0.0,0.0,0.000721053195047,0.999999740041
1524842966300775051,0.0,0.0,0.000729841546574,0.999999733666
1524842966300913095,0.0,0.0,0.000738629898044,0.999999727213
1524842966340524911,0.0,0.0,0.000747418249458,0.999999720683
1524842966345077991,0.0,0.0,0.000756206600814,0.999999714076
1524842966384067058,0.0,0.0,0.000764994952112,0.999999707391
1524842966424098968,0.0,0.0,0.000311749435172,0.999999951406
1524842966424245119,0.0,0.0,0.000314835508467,0.999999950439
1524842966464041948,0.0,0.0,0.00031792158176,0.999999949463
1524842966470911979,0.0,0.0,0.000597299663784,0.999999821617
1524842966508384943,0.0,0.0,0.000602975367376,0.99999981821
1524842966548760890,0.0,0.0,0.000608651070949,0.999999814772
1524842966549088954,0.0,0.0,0.000614326774502,0.999999811301
1524842966588299989,0.0,0.0,0.000620002478035,0.999999807798
1524842966599634885,0.0,0.0,0.000625678181549,0.999999804263
1524842966636017084,0.0,0.0,0.000631353885042,0.999999800696
1524842966680166959,0.0,0.0,0.000150639989602,0.999999988654
1524842966680274009,0.0,0.0,0.000151289910714,0.999999988556
1524842966720223903,0.0,0.0,0.000151939831825,0.999999988457
1524842966723949909,0.0,0.0,8.88541155958e-05,0.999999996052
1524842966761152029,0.0,0.0,8.89432558569e-05,0.999999996045
1524842966801712036,0.0,0.0,8.90323961179e-05,0.999999996037
1524842966841273069,0.0,0.0,8.9121536379e-05,0.999999996029
1524842966841401100,0.0,0.0,8.921067664e-05,0.999999996021
1524842966880374908,0.0,0.0,0.000367608254839,0.999999932432
1524842966880625009,0.0,0.0,0.000370454665345,0.999999931382
1524842966921793937,0.0,0.0,0.000373301075848,0.999999930323
1524842966923000097,0.0,0.0,0.000376147486347,0.999999929257
1524842966960247039,0.0,0.0,0.000510581353193,0.999999869653
1524842967000988006,0.0,0.0,0.000514372124262,0.999999867711
1524842967040258884,0.0,0.0,0.000518162895323,0.999999865754
1524842967040388107,0.0,0.0,0.000521953666377,0.999999863782
1524842967080322027,0.0,0.0,0.000525744437423,0.999999861796
1524842967080487966,0.0,0.0,0.000529535208462,0.999999859796
1524842967120281934,0.0,0.0,0.000388212080887,0.999999924646
1524842967128431081,0.0,0.0,0.000390366239852,0.999999923807
1524842967168199062,0.0,0.0,0.000392520398815,0.999999922964
1524842967208035945,0.0,0.0,0.000394674557777,0.999999922116
1524842967208122014,0.0,0.0,0.000396828716736,0.999999921263
1524842967248128890,0.0,0.0,0.000187656632802,0.999999982392
1524842967253926992,0.0,0.0,0.000187661183756,0.999999982392
1524842967291979074,0.0,0.0,0.00018766573471,0.999999982391
1524842967332083940,0.0,0.0,0.000187670285663,0.99999998239
1524842967332171916,0.0,0.0,0.000187674836617,0.999999982389
1524842967373168945,0.0,0.0,0.000187679387571,0.999999982388
1524842967382345914,0.0,0.0,0.000114462863728,0.999999993449
1524842967420252084,0.0,0.0,0.000113870843091,0.999999993517
1524842967461280107,0.0,0.0,0.000113278822455,0.999999993584
1524842967461651086,0.0,0.0,-0.000154042784306,0.999999988135
1524842967500099897,0.0,0.0,-0.000157211442139,0.999999987642
1524842967504951953,0.0,0.0,-0.000160380099971,0.999999987139
1524842967543983936,0.0,0.0,-0.0001635487578,0.999999986626
1524842967585138082,0.0,0.0,-0.000166717415629,0.999999986103
1524842967585519075,0.0,0.0,-0.000169886073455,0.999999985569
1524842967625051975,0.0,0.0,-0.00017305473128,0.999999985026
1524842967633692026,0.0,0.0,-0.000176223389103,0.999999984473
1524842967672415018,0.0,0.0,-0.000179392046924,0.999999983909
1524842967713025093,0.0,0.0,-0.000182560704744,0.999999983336
1524842967713550090,0.0,0.0,-0.000185729362561,0.999999982752
1524842967752222061,0.0,0.0,-0.000188898020377,0.999999982159
1524842967760297060,0.0,0.0,-0.000192066678191,0.999999981555
1524842967796375989,0.0,0.0,-0.000195235336003,0.999999980942
1524842967836242914,0.0,0.0,-0.000198403993813,0.999999980318
1524842967836416959,0.0,0.0,-0.000201572651621,0.999999979684
1524842967876199007,0.0,0.0,-0.000204741309427,0.99999997904
1524842967881709098,0.0,0.0,-0.000207909967231,0.999999978387
1524842967920901060,0.0,0.0,-0.000211078625033,0.999999977723
1524842967960555076,0.0,0.0,-0.000214247282832,0.999999977049
1524842967960933923,0.0,0.0,-0.00021741594063,0.999999976365
1524842968000155925,0.0,0.0,-0.000220584598425,0.999999975671
1524842968006668090,0.0,0.0,-0.000223753256218,0.999999974967
1524842968044130086,0.0,0.0,-0.000226921914009,0.999999974253
1524842968084784984,0.0,0.0,-0.000230090571798,0.999999973529
1524842968124610900,0.0,0.0,-0.000233259229584,0.999999972795
1524842968124864101,0.0,0.0,-0.000236427887368,0.999999972051
1524842968165498971,0.0,0.0,-0.00023959654515,0.999999971297
1524842968165725946,0.0,0.0,-0.000242765202929,0.999999970533
1524842968205780982,0.0,0.0,-0.000245933860706,0.999999969758
1524842968210608959,0.0,0.0,-0.00024910251848,0.999999968974
1524842968248192071,0.0,0.0,-0.000252271176252,0.99999996818
1524842968288316011,0.0,0.0,-0.000255439834021,0.999999967375
1524842968288522958,0.0,0.0,-0.000258608491788,0.999999966561
1524842968330941915,0.0,0.0,-0.000261777149552,0.999999965736
1524842968335958957,0.0,0.0,-0.000264945807314,0.999999964902
1524842968376290082,0.0,0.0,-0.000268114465072,0.999999964057
1524842968416085004,0.0,0.0,-0.000271283122829,0.999999963203
1524842968416187047,0.0,0.0,-0.000274451780582,0.999999962338
1524842968457496881,0.0,0.0,-0.000277620438333,0.999999961463
1524842968464694976,0.0,0.0,-0.000280789096081,0.999999960579
1524842968504111051,0.0,0.0,-0.000283957753826,0.999999959684
1524842968544179916,0.0,0.0,-0.000287126411568,0.999999958779
1524842968544316053,0.0,0.0,-0.000290295069307,0.999999957864
1524842968585122108,0.0,0.0,-0.000293463727043,0.99999995694
1524842968592746973,0.0,0.0,-0.000296632384777,0.999999956005
1524842968632361888,0.0,0.0,-0.000299801042507,0.99999995506
1524842968673275947,0.0,0.0,-0.000302969700235,0.999999954105
1524842968673676013,0.0,0.0,-0.000306138357959,0.99999995314
1524842968711957931,0.0,0.0,-0.000309307015681,0.999999952165
1524842968717211008,0.0,0.0,-0.000312475673399,0.999999951179
1524842968756872892,0.0,0.0,-0.000315644331114,0.999999950184
1524842968796089887,0.0,0.0,-0.000318812988826,0.999999949179
1524842968796201944,0.0,0.0,-0.000321981646535,0.999999948164
1524842968837305068,0.0,0.0,-0.00032515030424,0.999999947139
1524842968843872070,0.0,0.0,-0.000328318961942,0.999999946103
1524842968880340099,0.0,0.0,-0.000331487619641,0.999999945058
1524842968920912027,0.0,0.0,-0.000334656277337,0.999999944003
1524842968921324968,0.0,0.0,-0.000337824935029,0.999999942937
1524842968960062980,0.0,0.0,-0.000340993592718,0.999999941862
1524842968967564105,0.0,0.0,-0.000344162250403,0.999999940776
1524842969004071950,0.0,0.0,-0.000347330908085,0.999999939681
1524842969044078111,0.0,0.0,-0.000350499565764,0.999999938575
1524842969044162988,0.0,0.0,-0.000353668223439,0.999999937459
1524842969085477113,0.0,0.0,-0.00035683688111,0.999999936334
1524842969092844009,0.0,0.0,-0.000360005538778,0.999999935198
1524842969132385015,0.0,0.0,-0.000363174196442,0.999999934052
1524842969173165082,0.0,0.0,-0.000366342854103,0.999999932896
1524842969173507928,0.0,0.0,-0.00036951151176,0.999999931731
1524842969212193965,0.0,0.0,-0.000372680169413,0.999999930555
1524842969218956947,0.0,0.0,-0.000375848827062,0.999999929369
1524842969257304906,0.0,0.0,-0.000379017484708,0.999999928173
1524842969296272993,0.0,0.0,-0.00038218614235,0.999999926967
1524842969296399116,0.0,0.0,-0.000385354799988,0.999999925751
1524842969336283922,0.0,0.0,-0.000388523457622,0.999999924525
1524842969345814943,0.0,0.0,-0.000391692115252,0.999999923289
1524842969388017892,0.0,0.0,-0.000394860772879,0.999999922042
1524842969428365945,0.0,0.0,-0.000398029430501,0.999999920786
1524842969428531885,0.0,0.0,-0.00040119808812,0.99999991952
1524842969469624996,0.0,0.0,-0.000404366745734,0.999999918244
1524842969474041938,0.0,0.0,-0.000407535403344,0.999999916957
1524842969513654947,0.0,0.0,-0.00041070406095,0.999999915661
1524842969553616046,0.0,0.0,7.94095472848e-05,0.999999996847
1524842969554053068,0.0,0.0,7.60256078184e-05,0.99999999711
1524842969592070102,0.0,0.0,7.26416683511e-05,0.999999997362
1524842969598232030,0.0,0.0,6.92577288829e-05,0.999999997602
1524842969636641025,0.0,0.0,-2.57995345333e-05,0.999999999667
1524842969676131963,0.0,0.0,-3.07667280915e-05,0.999999999527
1524842969676233053,0.0,0.0,-3.5733921649e-05,0.999999999362
1524842969716379880,0.0,0.0,-4.07011152056e-05,0.999999999172
1524842969728193044,0.0,0.0,-1.67770819759e-05,0.999999999859
1524842969769206047,0.0,0.0,-2.16534046982e-05,0.999999999766
1524842969808001995,0.0,0.0,-2.65297274201e-05,0.999999999648
1524842969808083057,0.0,0.0,-3.14060501412e-05,0.999999999507
1524842969848237037,0.0,0.0,-3.62823728617e-05,0.999999999342
1524842969855067968,0.0,0.0,-2.98702987207e-05,0.999999999554
1524842969892079114,0.0,0.0,-3.47463826313e-05,0.999999999396
1524842969932125091,0.0,0.0,-3.96224665411e-05,0.999999999215
1524842969932251930,0.0,0.0,-4.44985504499e-05,0.99999999901
1524842969972112894,0.0,0.0,-4.93746343577e-05,0.999999998781
1524842969976696014,0.0,0.0,5.93409779242e-05,0.999999998239
1524842970017498970,0.0,0.0,5.78293667719e-05,0.999999998328
1524842970060755014,0.0,0.0,5.63177556194e-05,0.999999998414
1524842970061526060,0.0,0.0,5.48061444668e-05,0.999999998498
1524842970100249052,0.0,0.0,5.3294533314e-05,0.99999999858
1524842970104593038,0.0,0.0,-0.000310829336092,0.999999951693
1524842970144237041,0.0,0.0,-0.000317717530204,0.999999949528
1524842970183985948,0.0,0.0,-0.0003246057243,0.999999947316
1524842970184094905,0.0,0.0,-0.000331493918381,0.999999945056
1524842970224113941,0.0,0.0,-0.000338382112446,0.999999942749
1524842970227612972,0.0,0.0,-0.000168431194135,0.999999985815
1524842970264273881,0.0,0.0,-0.000173785994131,0.999999984899
1524842970304606914,0.0,0.0,-0.000179140794122,0.999999983954
1524842970304840087,0.0,0.0,-0.000184495594107,0.999999982981
1524842970344291925,0.0,0.0,-0.000189850394088,0.999999981978
1524842970354926109,0.0,0.0,-0.000195205194063,0.999999980947
1524842970392210006,0.0,0.0,-8.93071777028e-05,0.999999996012
1524842970433495998,0.0,0.0,-9.26128853794e-05,0.999999995711
1524842970433994054,0.0,0.0,-9.5918593055e-05,0.9999999954
1524842970472062110,0.0,0.0,-9.92243007295e-05,0.999999995077
1524842970484503984,0.0,0.0,0.00012214557143,0.99999999254
1524842970520167112,0.0,0.0,0.00012159779716,0.999999992607
1524842970561451911,0.0,0.0,0.00012105002289,0.999999992673
1524842970561902999,0.0,0.0,0.00012050224862,0.99999999274
1524842970600418090,0.0,0.0,0.00011995447435,0.999999992805
1524842970608144044,0.0,0.0,2.086283197e-05,0.999999999782
1524842970644150972,0.0,0.0,1.93770155147e-05,0.999999999812
1524842970687009096,0.0,0.0,1.78911990592e-05,0.99999999984
1524842970687896013,0.0,0.0,1.64053826038e-05,0.999999999865
1524842970724239110,0.0,0.0,1.49195661483e-05,0.999999999889
1524842970730963945,0.0,0.0,1.34337496928e-05,0.99999999991
1524842970769721984,0.0,0.0,-1.0054041808e-05,0.999999999949
1524842970808599948,0.0,0.0,-1.17085619383e-05,0.999999999931
1524842970808687925,0.0,0.0,-1.33630820685e-05,0.999999999911
1524842970849189996,0.0,0.0,-1.50176021987e-05,0.999999999887
1524842970858915090,0.0,0.0,-0.000321248149353,0.9999999484
1524842970896497011,0.0,0.0,-0.000325733801661,0.999999946949
1524842970937563896,0.0,0.0,-0.000330219453963,0.999999945478
1524842970938116073,0.0,0.0,-0.000334705106258,0.999999943986
1524842970976210117,0.0,0.0,-0.000339190758546,0.999999942475
1524842970988914012,0.0,0.0,-6.09658421384e-05,0.999999998142
1524842971027986049,0.0,0.0,-6.24482435483e-05,0.99999999805
1524842971068089962,0.0,0.0,-6.39306449581e-05,0.999999997956
1524842971068269014,0.0,0.0,-6.54130463677e-05,0.999999997861
1524842971109157085,0.0,0.0,-6.68954477772e-05,0.999999997762
1524842971109436035,0.0,0.0,-6.83778491866e-05,0.999999997662
1524842971149686098,0.0,0.0,-6.98602505958e-05,0.99999999756
1524842971188191890,0.0,0.0,-7.13426520049e-05,0.999999997455
1524842971188333034,0.0,0.0,-2.62996722952e-05,0.999999999654
1524842971232295989,0.0,0.0,-2.72742688325e-05,0.999999999628
1524842971241096019,0.0,0.0,7.6540625495e-06,0.999999999971
1524842971279993057,0.0,0.0,7.11444163336e-06,0.999999999975
1524842971320142984,0.0,0.0,6.57482071722e-06,0.999999999978
1524842971320269107,0.0,0.0,6.03519980107e-06,0.999999999982
1524842971360186100,0.0,0.0,5.49557888493e-06,0.999999999985
1524842971363593101,0.0,0.0,-1.99003743164e-05,0.999999999802
1524842971401542901,0.0,0.0,-2.06254442867e-05,0.999999999787
1524842971440190076,0.0,0.0,-2.1350514257e-05,0.999999999772
1524842971440347909,0.0,0.0,-2.20755842273e-05,0.999999999756
1524842971480194091,0.0,0.0,-2.28006541976e-05,0.99999999974
1524842971490686893,0.0,0.0,-2.09044891184e-05,0.999999999782
1524842971529256105,0.0,0.0,-2.15876882095e-05,0.999999999767
1524842971568281888,0.0,0.0,-2.22708873006e-05,0.999999999752
1524842971568423032,0.0,0.0,-2.29540863916e-05,0.999999999737
1524842971608068943,0.0,0.0,-2.36372854827e-05,0.999999999721
1524842971613593101,0.0,0.0,-2.43204845737e-05,0.999999999704
1524842971653038978,0.0,0.0,-2.50036836647e-05,0.999999999687
1524842971692146062,0.0,0.0,-2.56868827557e-05,0.99999999967
1524842971692281007,0.0,0.0,-2.63700818467e-05,0.999999999652
1524842971733484029,0.0,0.0,-2.70532809377e-05,0.999999999634
1524842971740163087,0.0,0.0,-2.77364800287e-05,0.999999999615
1524842971780180931,0.0,0.0,-2.84196791197e-05,0.999999999596
1524842971821171998,0.0,0.0,-2.91028782106e-05,0.999999999577
1524842971821604967,0.0,0.0,-2.97860773015e-05,0.999999999556
1524842971860959053,0.0,0.0,-3.04692763925e-05,0.999999999536
1524842971866014957,0.0,0.0,-3.11524754834e-05,0.999999999515
1524842971904974937,0.0,0.0,-3.18356745743e-05,0.999999999493
1524842971944941043,0.0,0.0,-3.25188736651e-05,0.999999999471
1524842971945099115,0.0,0.0,-3.3202072756e-05,0.999999999449
1524842971985176086,0.0,0.0,-3.38852718468e-05,0.999999999426
1524842971992265939,0.0,0.0,-3.45684709377e-05,0.999999999403
1524842972032227993,0.0,0.0,-3.52516700285e-05,0.999999999379
1524842972073434114,0.0,0.0,-3.59348691193e-05,0.999999999354
1524842972073954105,0.0,0.0,-3.66180682101e-05,0.99999999933
1524842972113544940,0.0,0.0,-3.73012673008e-05,0.999999999304
1524842972119935989,0.0,0.0,-3.79844663916e-05,0.999999999279
1524842972156492948,0.0,0.0,-3.86676654823e-05,0.999999999252
1524842972196295976,0.0,0.0,-3.9350864573e-05,0.999999999226
1524842972196459054,0.0,0.0,-4.00340636637e-05,0.999999999199
1524842972238743066,0.0,0.0,-4.07172627544e-05,0.999999999171
1524842972242158889,0.0,0.0,-4.1400461845e-05,0.999999999143
1524842972281229972,0.0,0.0,-4.20836609357e-05,0.999999999114
1524842972320502996,0.0,0.0,-4.27668600263e-05,0.999999999085
1524842972320709943,0.0,0.0,-4.34500591169e-05,0.999999999056
1524842972360049009,0.0,0.0,-4.41332582074e-05,0.999999999026
1524842972369178056,0.0,0.0,-4.4816457298e-05,0.999999998996
1524842972412051916,0.0,0.0,-4.54996563885e-05,0.999999998965
1524842972453252077,0.0,0.0,-4.6182855479e-05,0.999999998934
1524842972453675031,0.0,0.0,-4.68660545695e-05,0.999999998902
1524842972492116928,0.0,0.0,-4.754925366e-05,0.99999999887
1524842972495229959,0.0,0.0,-4.82324527504e-05,0.999999998837
1524842972533701896,0.0,0.0,-4.89156518409e-05,0.999999998804
1524842972572124004,0.0,0.0,-4.95988509313e-05,0.99999999877
1524842972572216987,0.0,0.0,-5.02820500216e-05,0.999999998736
1524842972612214088,0.0,0.0,-5.0965249112e-05,0.999999998701
1524842972620327949,0.0,0.0,-5.16484482023e-05,0.999999998666
1524842972665132045,0.0,0.0,-5.23316472926e-05,0.999999998631
1524842972704200983,0.0,0.0,-5.30148463829e-05,0.999999998595
1524842972704318046,0.0,0.0,-5.36980454732e-05,0.999999998558
1524842972744293928,0.0,0.0,-5.43812445634e-05,0.999999998521
1524842972747947931,0.0,0.0,-5.50644436536e-05,0.999999998484
1524842972785176992,0.0,0.0,-5.57476427438e-05,0.999999998446
1524842972824306964,0.0,0.0,-5.64308418339e-05,0.999999998408
1524842972824496030,0.0,0.0,-5.71140409241e-05,0.999999998369
1524842972865096092,0.0,0.0,-5.77972400142e-05,0.99999999833
1524842972872096061,0.0,0.0,-5.84804391042e-05,0.99999999829
1524842972912244081,0.0,0.0,-5.91636381943e-05,0.99999999825
1524842972952316999,0.0,0.0,-5.98468372843e-05,0.999999998209
1524842972952429056,0.0,0.0,-6.05300363743e-05,0.999999998168
1524842972991942882,0.0,0.0,-6.12132354643e-05,0.999999998126
1524842972997270107,0.0,0.0,-6.18964345542e-05,0.999999998084
1524842973036184072,0.0,0.0,-6.25796336441e-05,0.999999998042
1524842973076924085,0.0,0.0,-6.3262832734e-05,0.999999997999
1524842973077023983,0.0,0.0,-6.39460318238e-05,0.999999997955
1524842973116549015,0.0,0.0,-6.46292309136e-05,0.999999997912
1524842973125603914,0.0,0.0,-6.53124300034e-05,0.999999997867
1524842973164316892,0.0,0.0,-6.59956290932e-05,0.999999997822
1524842973206011056,0.0,0.0,-6.66788281829e-05,0.999999997777
1524842973206132888,0.0,0.0,-6.73620272726e-05,0.999999997731
1524842973244647979,0.0,0.0,-6.80452263623e-05,0.999999997685
1524842973248680114,0.0,0.0,-6.87284254519e-05,0.999999997638
1524842973287966012,0.0,0.0,-6.94116245415e-05,0.999999997591
1524842973328325986,0.0,0.0,-7.00948236311e-05,0.999999997543
1524842973328480958,0.0,0.0,-7.07780227206e-05,0.999999997495
1524842973368387937,0.0,0.0,-7.14612218101e-05,0.999999997447
1524842973379100084,0.0,0.0,-7.21444208996e-05,0.999999997398
1524842973416177988,0.0,0.0,-7.2827619989e-05,0.999999997348
1524842973456026077,0.0,0.0,-7.35108190784e-05,0.999999997298
1524842973456157922,0.0,0.0,-7.41940181678e-05,0.999999997248
1524842973496061086,0.0,0.0,-7.48772172571e-05,0.999999997197
1524842973507591962,0.0,0.0,-7.55604163464e-05,0.999999997145
1524842973546170949,0.0,0.0,-7.62436154357e-05,0.999999997093
1524842973585414886,0.0,0.0,-7.69268145249e-05,0.999999997041
1524842973585582971,0.0,0.0,-7.76100136141e-05,0.999999996988
1524842973625401973,0.0,0.0,-7.82932127032e-05,0.999999996935
1524842973630923986,0.0,0.0,-7.89764117924e-05,0.999999996881
1524842973669007062,0.0,0.0,-7.96596108814e-05,0.999999996827
1524842973708178043,0.0,0.0,-8.03428099705e-05,0.999999996773
1524842973708296060,0.0,0.0,-8.10260090595e-05,0.999999996717
1524842973749449014,0.0,0.0,-8.17092081485e-05,0.999999996662
1524842973755947113,0.0,0.0,-8.23924072374e-05,0.999999996606
1524842973793278932,0.0,0.0,-8.30756063263e-05,0.999999996549
1524842973832149982,0.0,0.0,-8.37588054151e-05,0.999999996492
1524842973873531103,0.0,0.0,-8.44420045039e-05,0.999999996435
1524842973873694896,0.0,0.0,-8.51252035927e-05,0.999999996377
1524842973913678884,0.0,0.0,-8.58084026814e-05,0.999999996318
1524842973914228916,0.0,0.0,-8.64916017701e-05,0.99999999626
1524842973952728986,0.0,0.0,-8.71748008588e-05,0.9999999962
1524842973956860065,0.0,0.0,-8.78579999474e-05,0.99999999614
1524842973997658967,0.0,0.0,-8.8541199036e-05,0.99999999608
1524842974037430047,0.0,0.0,-8.92243981245e-05,0.99999999602
1524842974037954092,0.0,0.0,-8.9907597213e-05,0.999999995958
1524842974075995922,0.0,0.0,-9.05907963014e-05,0.999999995897
1524842974086395025,0.0,0.0,-9.12739953898e-05,0.999999995835
1524842974125185012,0.0,0.0,-9.19571944782e-05,0.999999995772
1524842974164541006,0.0,0.0,-9.26403935665e-05,0.999999995709
1524842974164676904,0.0,0.0,-9.33235926548e-05,0.999999995645
1524842974205502986,0.0,0.0,-9.4006791743e-05,0.999999995581
1524842974211297988,0.0,0.0,-9.46899908312e-05,0.999999995517
1524842974251025915,0.0,0.0,-9.53731899194e-05,0.999999995452
1524842974289331912,0.0,0.0,-9.60563890075e-05,0.999999995387
1524842974328793048,0.0,0.0,-9.67395880955e-05,0.999999995321
1524842974328922033,0.0,0.0,-9.74227871835e-05,0.999999995254
1524842974368031024,0.0,0.0,-9.81059862715e-05,0.999999995188
1524842974368112087,0.0,0.0,-9.87891853594e-05,0.99999999512
1524842974408034086,0.0,0.0,-9.94723844473e-05,0.999999995053
1524842974412978887,0.0,0.0,-0.000100155583535,0.999999994984
1524842974453377962,0.0,0.0,-0.000100838782623,0.999999994916
1524842974491914033,0.0,0.0,-0.000101521981711,0.999999994847
1524842974491985082,0.0,0.0,-0.000102205180798,0.999999994777
1524842974532080888,0.0,0.0,-0.000102888379886,0.999999994707
1524842974536958932,0.0,0.0,-0.000103571578974,0.999999994636
1524842974576113939,0.0,0.0,-0.000104254778061,0.999999994565
1524842974617211103,0.0,0.0,-0.000104937977149,0.999999994494
1524842974617580890,0.0,0.0,-0.000105621176236,0.999999994422
1524842974656784057,0.0,0.0,-0.000106304375323,0.99999999435
1524842974663223028,0.0,0.0,-0.000106987574411,0.999999994277
1524842974701984882,0.0,0.0,-0.000107670773498,0.999999994204
1524842974741431951,0.0,0.0,-0.000108353972585,0.99999999413
1524842974780177116,0.0,0.0,-0.000109037171672,0.999999994055
1524842974780278921,0.0,0.0,-0.00010972037076,0.999999993981
1524842974820643901,0.0,0.0,-0.000110403569847,0.999999993906
1524842974820759057,0.0,0.0,-0.000111086768934,0.99999999383
1524842974860332965,0.0,0.0,-0.000111769968021,0.999999993754
1524842974864531040,0.0,0.0,-0.000112453167108,0.999999993677
1524842974904242992,0.0,0.0,-0.000113136366195,0.9999999936
1524842974944283962,0.0,0.0,-0.000113819565281,0.999999993523
1524842974944461107,0.0,0.0,-0.000114502764368,0.999999993445
1524842974985718011,0.0,0.0,-0.000115185963455,0.999999993366
1524842974990535020,0.0,0.0,-0.000115869162542,0.999999993287
1524842975029742956,0.0,0.0,-0.000116552361628,0.999999993208
1524842975068279027,0.0,0.0,-0.000117235560715,0.999999993128
1524842975068422079,0.0,0.0,-0.000117918759801,0.999999993048
1524842975108596086,0.0,0.0,-0.000118601958888,0.999999992967
1524842975116574048,0.0,0.0,-0.000119285157974,0.999999992886
1524842975157912015,0.0,0.0,-0.00011996835706,0.999999992804
1524842975196062088,0.0,0.0,-0.000120651556147,0.999999992722
1524842975196146011,0.0,0.0,-0.000121334755233,0.999999992639
1524842975236260890,0.0,0.0,-0.000122017954319,0.999999992556
1524842975241949081,0.0,0.0,-0.000122701153405,0.999999992472
1524842975281749010,0.0,0.0,-0.000123384352491,0.999999992388
1524842975320316076,0.0,0.0,-0.000124067551577,0.999999992304
1524842975320455074,0.0,0.0,-0.000124750750663,0.999999992219
1524842975360321998,0.0,0.0,-0.000125433949749,0.999999992133
1524842975372311115,0.0,0.0,-0.000126117148835,0.999999992047
1524842975413888931,0.0,0.0,-0.000126800347921,0.999999991961
1524842975453963994,0.0,0.0,-0.000127483547006,0.999999991874
1524842975454435110,0.0,0.0,-0.000128166746092,0.999999991787
1524842975492223024,0.0,0.0,-0.000128849945178,0.999999991699
1524842975494858026,0.0,0.0,-0.000129533144263,0.999999991611
1524842975533286094,0.0,0.0,-0.000130216343349,0.999999991522
1524842975576287031,0.0,0.0,-0.000130899542434,0.999999991433
1524842975576440095,0.0,0.0,-0.000131582741519,0.999999991343
1524842975617110013,0.0,0.0,-0.000132265940605,0.999999991253
1524842975620898008,0.0,0.0,-0.00013294913969,0.999999991162
1524842975660351991,0.0,0.0,-0.000133632338775,0.999999991071
1524842975700031995,0.0,0.0,-0.00013431553786,0.99999999098
1524842975700110912,0.0,0.0,-0.000134998736945,0.999999990888
1524842975740221023,0.0,0.0,-0.00013568193603,0.999999990795
1524842975747879981,0.0,0.0,-0.000136365135115,0.999999990702
1524842975784235000,0.0,0.0,-0.0001370483342,0.999999990609
1524842975824284076,0.0,0.0,-0.000137731533285,0.999999990515
1524842975824440956,0.0,0.0,-0.000138414732369,0.999999990421
1524842975865582942,0.0,0.0,-0.000139097931454,0.999999990326
1524842975871483087,0.0,0.0,-0.000139781130539,0.999999990231
1524842975908075094,0.0,0.0,-0.000140464329623,0.999999990135
1524842975948303937,0.0,0.0,-0.000141147528708,0.999999990039
1524842975948424100,0.0,0.0,-0.000141830727792,0.999999989942
1524842975988194942,0.0,0.0,-0.000142513926876,0.999999989845
1524842976002362966,0.0,0.0,-0.000143197125961,0.999999989747
1524842976040137052,0.0,0.0,-0.000143880325045,0.999999989649
1524842976084280967,0.0,0.0,-0.000144563524129,0.999999989551
1524842976084408044,0.0,0.0,-0.000145246723213,0.999999989452
1524842976124563932,0.0,0.0,-0.000145929922297,0.999999989352
1524842976125163078,0.0,0.0,-0.000146613121381,0.999999989252
1524842976165005922,0.0,0.0,-0.000147296320465,0.999999989152
1524842976205538034,0.0,0.0,-0.000147979519549,0.999999989051
1524842976205981016,0.0,0.0,-0.000148662718632,0.99999998895
1524842976244092941,0.0,0.0,-0.000149345917716,0.999999988848
1524842976251704931,0.0,0.0,-0.000150029116799,0.999999988746
1524842976288028955,0.0,0.0,-0.000150712315883,0.999999988643
1524842976328382015,0.0,0.0,-0.000151395514966,0.99999998854
1524842976328634023,0.0,0.0,-0.00015207871405,0.999999988436
1524842976368474006,0.0,0.0,-0.000152761913133,0.999999988332
1524842976377727985,0.0,0.0,-0.000153445112216,0.999999988227
1524842976416306972,0.0,0.0,-0.000154128311299,0.999999988122
1524842976456073045,0.0,0.0,-0.000154811510383,0.999999988017
1524842976456202030,0.0,0.0,-0.000155494709466,0.999999987911
1524842976495970010,0.0,0.0,-0.000156177908548,0.999999987804
1524842976500777959,0.0,0.0,-0.000156861107631,0.999999987697
1524842976540111064,0.0,0.0,-0.000157544306714,0.99999998759
1524842976580192089,0.0,0.0,-0.000158227505797,0.999999987482
1524842976580285072,0.0,0.0,-0.000158910704879,0.999999987374
1524842976620264053,0.0,0.0,-0.000159593903962,0.999999987265
1524842976628823995,0.0,0.0,-0.000160277103045,0.999999987156
1524842976664479970,0.0,0.0,-0.000160960302127,0.999999987046
1524842976704061985,0.0,0.0,-0.000161643501209,0.999999986936
1524842976704170942,0.0,0.0,-0.000162326700292,0.999999986825
1524842976743953943,0.0,0.0,-0.000163009899374,0.999999986714
1524842976752897024,0.0,0.0,-0.000163693098456,0.999999986602
1524842976792843103,0.0,0.0,-0.000164376297538,0.99999998649
1524842976832989931,0.0,0.0,-0.00016505949662,0.999999986378
1524842976833528041,0.0,0.0,-0.000165742695702,0.999999986265
1524842976872148036,0.0,0.0,-0.000166425894784,0.999999986151
1524842976878768920,0.0,0.0,-0.000167109093865,0.999999986037
1524842976917260885,0.0,0.0,-0.000167792292947,0.999999985923
1524842976956335067,0.0,0.0,-0.000168475492028,0.999999985808
1524842976956499099,0.0,0.0,-0.00016915869111,0.999999985693
1524842976996133089,0.0,0.0,-0.000169841890191,0.999999985577
1524842977004414081,0.0,0.0,-0.000170525089273,0.999999985461
1524842977044297933,0.0,0.0,-0.000171208288354,0.999999985344
1524842977085560083,0.0,0.0,-0.000171891487435,0.999999985227
1524842977086846113,0.0,0.0,-0.000172574686516,0.999999985109
1524842977124329090,0.0,0.0,-0.000173257885597,0.999999984991
1524842977130439996,0.0,0.0,-0.000173941084678,0.999999984872
1524842977168271064,0.0,0.0,-0.000174624283759,0.999999984753
1524842977208674907,0.0,0.0,-0.00017530748284,0.999999984634
1524842977208978891,0.0,0.0,-0.000175990681921,0.999999984514
1524842977249757051,0.0,0.0,-0.000176673881001,0.999999984393
1524842977256889104,0.0,0.0,-0.000177357080082,0.999999984272
1524842977296308994,0.0,0.0,-0.000178040279162,0.999999984151
1524842977337749958,0.0,0.0,-0.000178723478242,0.999999984029
1524842977338283061,0.0,0.0,-0.000179406677323,0.999999983907
1524842977376698970,0.0,0.0,-0.000180089876403,0.999999983784
1524842977381450891,0.0,0.0,-0.000180773075483,0.999999983661
1524842977420461893,0.0,0.0,-0.000181456274563,0.999999983537
1524842977460081100,0.0,0.0,-0.000182139473643,0.999999983413
1524842977460238933,0.0,0.0,-0.000182822672723,0.999999983288
1524842977500415086,0.0,0.0,-0.000183505871803,0.999999983163
1524842977506673097,0.0,0.0,-0.000184189070882,0.999999983037
1524842977545922040,0.0,0.0,-0.000184872269962,0.999999982911
1524842977584546089,0.0,0.0,-0.000185555469041,0.999999982785
1524842977584770917,0.0,0.0,-0.000186238668121,0.999999982658
1524842977630665063,0.0,0.0,-0.0001869218672,0.99999998253
1524842977633675098,0.0,0.0,-0.000187605066279,0.999999982402
1524842977672058105,0.0,0.0,-0.000188288265359,0.999999982274
1524842977712177991,0.0,0.0,-0.000188971464438,0.999999982145
1524842977712291955,0.0,0.0,-0.000189654663517,0.999999982016
1524842977752929925,0.0,0.0,-0.000190337862596,0.999999981886
1524842977758011102,0.0,0.0,-0.000191021061674,0.999999981755
1524842977797363996,0.0,0.0,-0.000191704260753,0.999999981625
1524842977838130950,0.0,0.0,-0.000192387459832,0.999999981494
1524842977838769912,0.0,0.0,-0.00019307065891,0.999999981362
1524842977880100965,0.0,0.0,-0.000193753857989,0.99999998123
1524842977882396936,0.0,0.0,-0.000194437057067,0.999999981097
1524842977919970989,0.0,0.0,-0.000195120256145,0.999999980964
1524842977960285902,0.0,0.0,-0.000195803455224,0.999999980831
1524842977960407972,0.0,0.0,-0.000196486654302,0.999999980696
1524842978000070095,0.0,0.0,-0.00019716985338,0.999999980562
1524842978009121894,0.0,0.0,-0.000197853052457,0.999999980427
1524842978048204898,0.0,0.0,-0.000198536251535,0.999999980292
1524842978089546918,0.0,0.0,-0.000199219450613,0.999999980156
1524842978090029001,0.0,0.0,-0.000199902649691,0.999999980019
1524842978128106117,0.0,0.0,-0.000200585848768,0.999999979883
1524842978138562917,0.0,0.0,-0.000201269047846,0.999999979745
1524842978176696062,0.0,0.0,-0.000201952246923,0.999999979608
1524842978217804908,0.0,0.0,-0.000202635446,0.999999979469
1524842978217931985,0.0,0.0,-0.000203318645077,0.999999979331
1524842978256196022,0.0,0.0,-0.000204001844154,0.999999979192
1524842978261605024,0.0,0.0,-0.000204685043231,0.999999979052
1524842978301382064,0.0,0.0,-0.000205368242308,0.999999978912
1524842978340255022,0.0,0.0,-0.000206051441385,0.999999978771
1524842978340358972,0.0,0.0,-0.000206734640462,0.99999997863
1524842978382194042,0.0,0.0,-0.000207417839538,0.999999978489
1524842978389010906,0.0,0.0,-0.000208101038615,0.999999978347
1524842978428155899,0.0,0.0,-0.000208784237691,0.999999978205
1524842978469708919,0.0,0.0,-0.000209467436767,0.999999978062
1524842978469840049,0.0,0.0,-0.000210150635844,0.999999977918
1524842978508177042,0.0,0.0,-0.00021083383492,0.999999977775
1524842978515093088,0.0,0.0,-0.000211517033996,0.99999997763
1524842978551985979,0.0,0.0,-0.000212200233072,0.999999977486
1524842978592820882,0.0,0.0,-0.000212883432147,0.99999997734
1524842978593147993,0.0,0.0,-0.000213566631223,0.999999977195
1524842978632335901,0.0,0.0,-0.000214249830299,0.999999977049
1524842978642707109,0.0,0.0,-0.000214933029374,0.999999976902
1524842978680124998,0.0,0.0,-0.00021561622845,0.999999976755
1524842978721560001,0.0,0.0,-0.000216299427525,0.999999976607
1524842978722117900,0.0,0.0,-0.0002169826266,0.999999976459
1524842978760288000,0.0,0.0,-0.000217665825675,0.999999976311
1524842978765073060,0.0,0.0,-0.00021834902475,0.999999976162
1524842978804969072,0.0,0.0,-0.000219032223825,0.999999976012
1524842978845097064,0.0,0.0,-0.0002197154229,0.999999975863
1524842978845691919,0.0,0.0,-0.000220398621975,0.999999975712
1524842978885673999,0.0,0.0,-0.000221081821049,0.999999975561
1524842978890033006,0.0,0.0,-0.000221765020124,0.99999997541
1524842978929136991,0.0,0.0,-0.000222448219198,0.999999975258
1524842978969661951,0.0,0.0,-0.000223131418272,0.999999975106
1524842979008650064,0.0,0.0,-0.000223814617346,0.999999974954
1524842979008833885,0.0,0.0,-0.000224497816421,0.9999999748
1524842979048667907,0.0,0.0,-0.000225181015494,0.999999974647
1524842979048763990,0.0,0.0,-0.000225864214568,0.999999974493
1524842979088951110,0.0,0.0,-0.000226547413642,0.999999974338
1524842979090977907,0.0,0.0,-0.000227230612716,0.999999974183
1524842979131922960,0.0,0.0,-0.000227913811789,0.999999974028
1524842979168221950,0.0,0.0,-0.000228597010863,0.999999973872
1524842979168409109,0.0,0.0,-0.000229280209936,0.999999973715
1524842979208132982,0.0,0.0,-0.000229963409009,0.999999973558
1524842979217657089,0.0,0.0,-0.000230646608082,0.999999973401
1524842979256213903,0.0,0.0,-0.000231329807155,0.999999973243
1524842979297292947,0.0,0.0,-0.000232013006228,0.999999973085
1524842979297779083,0.0,0.0,-0.000232696205301,0.999999972926
1524842979336303949,0.0,0.0,-0.000233379404374,0.999999972767
1524842979341799974,0.0,0.0,-0.000234062603446,0.999999972607
1524842979380011081,0.0,0.0,-0.000234745802519,0.999999972447
1524842979420341014,0.0,0.0,-0.000235429001591,0.999999972287
1524842979420499086,0.0,0.0,-0.000236112200663,0.999999972126
1524842979460058927,0.0,0.0,-0.000236795399735,0.999999971964
1524842979469733953,0.0,0.0,-0.000237478598807,0.999999971802
1524842979508044004,0.0,0.0,-0.000238161797879,0.999999971639
1524842979549252986,0.0,0.0,-0.000238844996951,0.999999971477
1524842979549710988,0.0,0.0,-0.000239528196023,0.999999971313
1524842979588118076,0.0,0.0,-0.000240211395094,0.999999971149
1524842979593015909,0.0,0.0,-0.000240894594166,0.999999970985
1524842979632349014,0.0,0.0,-0.000241577793237,0.99999997082
1524842979673619985,0.0,0.0,-0.000242260992309,0.999999970655
1524842979674082994,0.0,0.0,-0.00024294419138,0.999999970489
1524842979712212085,0.0,0.0,-0.000243627390451,0.999999970323
1524842979721642971,0.0,0.0,-0.000244310589522,0.999999970156
1524842979760607004,0.0,0.0,-0.000244993788592,0.999999969989
1524842979800019979,0.0,0.0,-0.000245676987663,0.999999969821
1524842979800103902,0.0,0.0,-0.000246360186734,0.999999969653
1524842979840410947,0.0,0.0,-0.000247043385804,0.999999969485
1524842979844695091,0.0,0.0,-0.000247726584874,0.999999969316
1524842979885644912,0.0,0.0,-0.000248409783945,0.999999969146
1524842979924211978,0.0,0.0,-0.000249092983015,0.999999968976
1524842979924354076,0.0,0.0,-0.000249776182085,0.999999968806
1524842979965641021,0.0,0.0,-0.000250459381154,0.999999968635
1524842979972028017,0.0,0.0,-0.000251142580224,0.999999968464
1524842980013062000,0.0,0.0,-0.000251825779294,0.999999968292
1524842980053343057,0.0,0.0,-0.000252508978363,0.99999996812
1524842980053968906,0.0,0.0,-0.000253192177433,0.999999967947
1524842980092374086,0.0,0.0,-0.000253875376502,0.999999967774
1524842980096357107,0.0,0.0,-0.000254558575571,0.9999999676
1524842980136192083,0.0,0.0,-0.00025524177464,0.999999967426
1524842980176116943,0.0,0.0,-0.000255924973709,0.999999967251
1524842980176240921,0.0,0.0,-0.000256608172778,0.999999967076
1524842980217400074,0.0,0.0,-0.000257291371847,0.999999966901
1524842980222289085,0.0,0.0,-0.000257974570915,0.999999966725
1524842980260098934,0.0,0.0,-0.000258657769984,0.999999966548
1524842980300203084,0.0,0.0,-0.000259340969052,0.999999966371
1524842980300359964,0.0,0.0,-0.00026002416812,0.999999966194
1524842980340048074,0.0,0.0,-0.000260707367188,0.999999966016
1524842980347228050,0.0,0.0,-0.000261390566256,0.999999965837
1524842980386049032,0.0,0.0,-0.000262073765324,0.999999965659
1524842980424520969,0.0,0.0,-0.000262756964392,0.999999965479
1524842980424705982,0.0,0.0,-0.000263440163459,0.9999999653
1524842980464401960,0.0,0.0,-0.000264123362527,0.999999965119
1524842980473006963,0.0,0.0,-0.000264806561594,0.999999964939
1524842980512026071,0.0,0.0,-0.000265489760661,0.999999964758
1524842980554115056,0.0,0.0,-0.000266172959728,0.999999964576
1524842980554698944,0.0,0.0,-0.000266856158795,0.999999964394
1524842980592413902,0.0,0.0,-0.000267539357862,0.999999964211
1524842980600821018,0.0,0.0,-0.000268222556929,0.999999964028
1524842980640180110,0.0,0.0,-0.000268905755995,0.999999963845
1524842980680736064,0.0,0.0,-0.000269588955062,0.999999963661
1524842980681324958,0.0,0.0,-0.000270272154128,0.999999963476
1524842980720449924,0.0,0.0,-0.000270955353194,0.999999963292
1524842980724257946,0.0,0.0,-0.000271638552261,0.999999963106
1524842980764128923,0.0,0.0,-0.000272321751326,0.99999996292
1524842980804519891,0.0,0.0,-0.000273004950392,0.999999962734
1524842980804589033,0.0,0.0,-0.000273688149458,0.999999962547
1524842980844240903,0.0,0.0,-0.000274371348524,0.99999996236
1524842980849543094,0.0,0.0,-0.000275054547589,0.999999962172
1524842980892154932,0.0,0.0,-0.000275737746654,0.999999961984
1524842980933299064,0.0,0.0,-0.00027642094572,0.999999961796
1524842980933617115,0.0,0.0,-0.000277104144785,0.999999961607
1524842980972182035,0.0,0.0,-0.00027778734385,0.999999961417
1524842980974603891,0.0,0.0,-0.000278470542914,0.999999961227
1524842981012442111,0.0,0.0,-0.000279153741979,0.999999961037
1524842981053868055,0.0,0.0,-0.000279836941044,0.999999960846
1524842981053958892,0.0,0.0,-0.000280520140108,0.999999960654
1524842981092514991,0.0,0.0,-0.000281203339172,0.999999960462
1524842981101083993,0.0,0.0,-0.000281886538236,0.99999996027
1524842981140140056,0.0,0.0,-0.0002825697373,0.999999960077
1524842981180742025,0.0,0.0,-0.000283252936364,0.999999959884
1524842981181400060,0.0,0.0,-0.000283936135428,0.99999995969
1524842981220545053,0.0,0.0,-0.000284619334492,0.999999959496
1524842981227539062,0.0,0.0,-0.000285302533555,0.999999959301
1524842981265347003,0.0,0.0,-0.000285985732619,0.999999959106
1524842981304164886,0.0,0.0,-0.000286668931682,0.99999995891
1524842981304371118,0.0,0.0,-0.000287352130745,0.999999958714
1524842981345108985,0.0,0.0,-0.000288035329808,0.999999958518
1524842981358217954,0.0,0.0,-0.000288718528871,0.999999958321
1524842981396142005,0.0,0.0,-0.000289401727933,0.999999958123
1524842981436227083,0.0,0.0,-0.000290084926996,0.999999957925
1524842981436472892,0.0,0.0,-0.000290768126058,0.999999957727
1524842981476210117,0.0,0.0,-0.000291451325121,0.999999957528
1524842981478967905,0.0,0.0,-0.000292134524183,0.999999957329
1524842981516134023,0.0,0.0,-0.000292817723245,0.999999957129
1524842981557893037,0.0,0.0,-0.000293500922307,0.999999956929
1524842981558259963,0.0,0.0,-0.000294184121368,0.999999956728
1524842981595992088,0.0,0.0,-0.00029486732043,0.999999956527
1524842981604887008,0.0,0.0,-0.000295550519491,0.999999956325
1524842981645924091,0.0,0.0,-0.000296233718553,0.999999956123
1524842981684395074,0.0,0.0,-0.000296916917614,0.99999995592
1524842981724200010,0.0,0.0,-0.000297600116675,0.999999955717
1524842981724304914,0.0,0.0,-0.000298283315736,0.999999955514
1524842981764118909,0.0,0.0,-0.000298966514797,0.99999995531
1524842981764208078,0.0,0.0,-0.000299649713857,0.999999955105
1524842981805659055,0.0,0.0,-0.000300332912918,0.9999999549
1524842981807959079,0.0,0.0,-0.000301016111978,0.999999954695
1524842981848376989,0.0,0.0,-0.000301699311038,0.999999954489
1524842981888509988,0.0,0.0,-0.000302382510098,0.999999954282
1524842981888700962,0.0,0.0,-0.000303065709158,0.999999954076
1524842981929683923,0.0,0.0,-0.000303748908218,0.999999953868
1524842981935070037,0.0,0.0,-0.000304432107278,0.999999953661
1524842981973388910,0.0,0.0,-0.000305115306337,0.999999953452
1524842982012304067,0.0,0.0,-0.000305798505397,0.999999953244
1524842982012442111,0.0,0.0,-0.000306481704456,0.999999953034
1524842982052232980,0.0,0.0,-0.000307164903515,0.999999952825
1524842982061976909,0.0,0.0,-0.000307848102574,0.999999952615
1524842982105031013,0.0,0.0,-0.000308531301633,0.999999952404
1524842982145029067,0.0,0.0,-0.000309214500691,0.999999952193
1524842982145188093,0.0,0.0,-0.00030989769975,0.999999951982
1524842982185595989,0.0,0.0,-0.000310580898808,0.99999995177
1524842982187798023,0.0,0.0,-0.000311264097866,0.999999951557
1524842982224066019,0.0,0.0,-0.000311947296924,0.999999951344
1524842982264358997,0.0,0.0,-0.000312630495982,0.999999951131
1524842982264698982,0.0,0.0,-0.00031331369504,0.999999950917
1524842982305480957,0.0,0.0,-0.000313996894098,0.999999950703
1524842982312514066,0.0,0.0,-0.000314680093155,0.999999950488
1524842982352564096,0.0,0.0,-0.000315363292212,0.999999950273
