%time,field.x,field.y,field.z
1524842957787559986,0.00531582275526,-0.00657823034529,0.0
1524842957804179906,0.00531582275526,-0.00657823034529,0.0
1524842957833172082,0.00531582275526,-0.00657823034529,0.0
1524842957853606939,0.00531582275526,-0.00657823034529,0.0
1524842957878261089,0.00531582275526,-0.00657823034529,0.0
1524842957903067111,0.00531582275526,-0.00657823034529,0.0
1524842957934153079,0.00531582275526,-0.00657823034529,0.0
1524842957953434944,0.00531582275526,-0.00657823034529,0.0
1524842957978929042,0.00531582275526,-0.00657823034529,0.0
1524842958003839969,0.00531582275526,-0.00657823034529,0.0
1524842958029123067,0.00531582275526,-0.00657823034529,0.0
1524842958058203935,0.00535786005727,-0.00657857769585,0.0
1524842958079346895,0.00535953720618,-0.0065785915538,0.0
1524842958107182979,0.00536121436314,-0.0065786054118,0.0
1524842958131407976,0.00536491965359,-0.0065786360281,0.0
1524842958158232927,0.00536621838866,-0.00657864675928,0.0
1524842958182821989,0.00536751709351,-0.00657865749021,0.0
1524842958210822105,0.00536765634121,-0.00657865864086,0.0
1524842958235377073,0.00536865272274,-0.00657866687376,0.0
1524842958261055946,0.00536964895524,-0.00657867510542,0.0
1524842958283047914,0.0053706450387,-0.00657868333585,0.0
1524842958307951927,0.00537164097312,-0.00657869156504,0.0
1524842958335150003,0.00537263675851,-0.006578699793,0.0
1524842958358011007,0.00537363239486,-0.00657870801972,0.0
1524842958385226011,0.0173162714329,-0.00630348906725,0.0
1524842958410629987,0.017640338642,-0.00629604941787,0.0
1524842958433370113,0.017964738053,-0.00628860217847,0.0
1524842958459939002,0.0182894696658,-0.00628114734921,0.0
1524842958484726905,0.0186145334804,-0.00627368493024,0.0
1524842958509020090,0.0189399294968,-0.0062662149217,0.0
1524842958537267923,0.019265657715,-0.00625873732375,0.0
1524842958560343027,0.0336658113504,-0.00629125360802,0.0
1524842958586210012,0.120564124015,-0.0134526286761,0.0
1524842958608684062,0.123174956555,-0.0136284818239,0.0
1524842958638367891,0.125792308843,-0.013804874549,0.0
1524842958659733057,0.128416180877,-0.0139818068559,0.0
1524842958687726974,0.131046572657,-0.0141592787495,0.0
1524842958711370944,0.133683484183,-0.0143372902344,0.0
1524842958736033916,0.136326915455,-0.0145158413153,0.0
1524842958762546062,0.225091206352,-0.00970604602911,0.0
1524842958785571098,0.229272370483,-0.00974650861752,0.0
1524842958809912919,0.233465635909,-0.00978696008017,0.0
1524842958838634014,0.394097446297,-0.00703901953284,0.0
1524842958861078977,0.40048313822,-0.00702269625075,0.0
1524842958887810945,0.406890296025,-0.00700612185983,0.0
1524842958910706996,0.413318919714,-0.00698929644984,0.0
1524842958938030004,0.419769009289,-0.00697222011051,0.0
1524842958962709903,0.426240564749,-0.00695489293162,0.0
1524842958990789890,0.481637728111,-0.000820404847056,0.0
1524842959010771036,0.488889370245,-0.000711682211898,0.0
1524842959036303043,0.496166090923,-0.000602247391035,0.0
1524842959063009977,0.503467890143,-0.000492100326751,0.0
1524842959086368083,0.510794767903,-0.000381240961332,0.0
1524842959114399909,0.660478014915,0.000668369859175,0.0
1524842959137332916,0.668687195841,0.000783298899363,0.0
1524842959163058996,0.676924350767,0.000898901123269,0.0
1524842959186604022,0.685189479691,0.00101517654443,0.0
1524842959216721057,0.818442250838,0.00497335412841,0.0
1524842959237576961,0.827502252201,0.00512554487832,0.0
1524842959262106895,0.836592966717,0.00527857181781,0.0
1524842959288939952,0.845714394384,0.005432434964,0.0
1524842959312053918,0.854866535204,0.005587134334,0.0
1524842959338171958,0.864049389174,0.00574266994494,0.0
1524842959362107038,0.873262956295,0.00589904181394,0.0
1524842959389586925,0.975943489496,0.00300782902452,0.0
1524842959413196086,0.985667675447,0.00312722107387,0.0
1524842959438308000,0.995423777488,0.00324718704064,0.0
1524842959462975025,1.00521179562,0.00336772690555,0.0
1524842959490063905,1.0782810343,-0.000419086306475,0.0
1524842959515372991,1.0881480501,-0.000341629949823,0.0
1524842959539361000,1.09804542506,-0.000263870710354,0.0
1524842959562971115,1.1079731592,-0.000185808458709,0.0
1524842959588870048,1.1179312525,-0.000107443065532,0.0
1524842959616589069,1.17095882069,0.00132733857772,0.0
1524842959638267993,1.18128143665,0.0014209842041,0.0
1524842959664860010,1.19163577525,0.00151501744982,0.0
1524842959689656019,1.2020218365,0.00160943847776,0.0
1524842959713834047,1.2124396204,0.00170424745083,0.0
1524842959739753961,1.22288912693,0.00179944453193,0.0
1524842959768702030,1.23337035611,0.00189502988397,0.0
1524842959792921066,1.24388330792,0.00199100366985,0.0
1524842959819418907,1.25442798237,0.00208736605247,0.0
1524842959840601921,1.26500437946,0.00218411719473,0.0
1524842959869612932,1.27561249918,0.00228125725954,0.0
1524842959891360044,1.28625234152,0.00237878640979,0.0
1524842959918719053,1.2969239065,0.00247670480839,0.0
1524842959945123910,1.3076271941,0.00257501261825,0.0
1524842959968552112,1.31836220433,0.00267371000225,0.0
1524842959994096994,1.32912893718,0.00277279712331,0.0
1524842960020004987,1.33992739266,0.00287227414433,0.0
1524842960042716026,1.35075757075,0.00297214122821,0.0
1524842960070358037,1.36161947145,0.00307239853785,0.0
1524842960092700958,1.37251309478,0.00317304623615,0.0
1524842960119817972,1.38343844071,0.00327408448602,0.0
1524842960143198966,1.39439550926,0.00337551345035,0.0
1524842960168160915,1.40538430042,0.00347733329206,0.0
1524842960193634033,1.41640481418,0.00357954417404,0.0
1524842960219368934,1.42745705055,0.00368214625919,0.0
1524842960243212938,1.43854100953,0.00378513971042,0.0
1524842960272778987,1.4496566911,0.00388852469062,0.0
1524842960294186115,1.46080409527,0.00399230136271,0.0
1524842960319225072,1.47198322205,0.00409646988958,0.0
1524842960343584060,1.48319407141,0.00420103043413,0.0
1524842960371066093,1.49443664338,0.00430598315927,0.0
1524842960397895097,1.50571093793,0.0044113282279,0.0
1524842960420829057,1.51701695507,0.00451706580292,0.0
1524842960446772098,1.5283546948,0.00462319604722,0.0
1524842960471887111,1.53972415712,0.00472971912373,0.0
1524842960497107982,1.55112534202,0.00483663519533,0.0
1524842960521881103,1.56255824951,0.00494394442493,0.0
1524842960546962022,1.57402287957,0.00505164697543,0.0
1524842960573894023,1.58551923221,0.00515974300973,0.0
1524842960597275972,1.59704730743,0.00526823269073,0.0
1524842960623286962,1.60860710522,0.00537711618134,0.0
1524842960647336959,1.62019862559,0.00548639364446,0.0
1524842960673146963,1.63182186853,0.00559606524299,0.0
1524842960700794935,1.64347683403,0.00570613113983,0.0
1524842960722450971,1.6551635221,0.00581659149788,0.0
1524842960748483896,1.66688193274,0.00592744648005,0.0
1524842960773091077,1.67863206593,0.00603869624924,0.0
1524842960797540903,1.69041392169,0.00615034096835,0.0
1524842960822973966,1.70222750001,0.00626238080027,0.0
1524842960851433992,1.71407280089,0.00637481590793,0.0
1524842960873759984,1.72594982432,0.0064876464542,0.0
1524842960898431062,1.7378585703,0.006600872602,0.0
1524842960925860881,1.74979903883,0.00671449451424,0.0
1524842960952696084,1.76177122991,0.0068285123538,0.0
1524842960973472118,1.77377514354,0.00694292628359,0.0
1524842961001837015,1.78581077972,0.00705773646652,0.0
1524842961023732900,1.79787813844,0.00717294306549,0.0
1524842961049235105,1.8099772197,0.00728854624339,0.0
1524842961074106931,1.82210802349,0.00740454616313,0.0
1524842961101829051,1.83427054983,0.00752094298762,0.0
1524842961126461982,1.8464647987,0.00763773687975,0.0
1524842961150291919,1.8586907701,0.00775492800242,0.0
1524842961177170991,1.87094846404,0.00787251651854,0.0
1524842961204081058,1.8832378805,0.00799050259101,0.0
1524842961227282047,1.8955590195,0.00810888638273,0.0
1524842961254555940,1.90791188102,0.0082276680566,0.0
1524842961277359008,1.92029646506,0.00834684777552,0.0
1524842961302304983,1.93271277162,0.00846642570241,0.0
1524842961326742887,1.9451608007,0.00858640200014,0.0
1524842961357105970,2.97663033946,0.0186478282918,0.0
1524842961382514953,2.98871133315,0.0187661530326,0.0
1524842961405354976,3.00080981169,0.0188846977919,0.0
1524842961427499055,3.01292577508,0.0190034625527,0.0
1524842961454530954,3.07980245193,0.0183977802063,0.0
1524842961478193998,3.09137845962,0.0184868010345,0.0
1524842961502336978,3.10296921608,0.018575921982,0.0
1524842961528080940,3.11457472129,0.0186651430363,0.0
1524842961557801961,3.12619497527,0.0187544641848,0.0
1524842961587410926,3.21969500819,-0.000826030688231,0.0
1524842961605083942,3.23139091143,-0.00116031310112,0.0
1524842961630078077,3.24310131243,-0.00149619777926,0.0
1524842961657998085,3.25482621119,-0.00183368488034,0.0
1524842961683016061,3.26656560769,-0.00217277456207,0.0
1524842961707959890,3.2783195019,-0.00251346698213,0.0
1524842961736037015,3.28495125964,-0.00420776239546,0.0
1524842961761198043,3.29574232647,-0.00454992494346,0.0
1524842961785326957,3.30654334744,-0.00489363594996,0.0
1524842961810645103,3.31735432255,-0.00523889549065,0.0
1524842961837107896,3.48720935071,-0.00471795342148,0.0
1524842961860124111,3.4985891244,-0.00498980010213,0.0
1524842961885400056,3.50998079663,-0.00526278356906,0.0
1524842961910485029,3.52138436738,-0.00553690391704,0.0
1524842961937788009,3.53279983665,-0.00581216124083,0.0
1524842961966809034,3.60518908345,-0.00512372748783,0.0
1524842961988313913,3.61654143119,-0.00536105247718,0.0
1524842962013011932,3.62790490847,-0.00559928457853,0.0
1524842962038815021,3.63927951527,-0.00583842383741,0.0
1524842962066963911,3.65066525159,-0.00607847029934,0.0
1524842962092478990,3.68295673462,-0.0136945188689,0.0
1524842962115448951,3.69364494054,-0.0140360378783,0.0
1524842962139878034,3.70434033264,-0.0143789195751,0.0
1524842962169394016,3.71504291093,-0.0147231639993,0.0
1524842962190237998,3.72575267538,-0.0150687711906,0.0
1524842962217298984,3.81604148679,-0.0208471926006,0.0
1524842962239984989,3.82714298005,-0.0212618642631,0.0
1524842962265377998,3.83825339868,-0.0216781893414,0.0
1524842962290956020,3.84937274266,-0.0220961678771,0.0
1524842962318422079,3.86050101198,-0.0225157999118,0.0
1524842962342453002,4.010032301,-0.00974246663956,0.0
1524842962368990898,4.02106185294,-0.009898667977,0.0
1524842962391206026,4.03209907063,-0.0100550231661,0.0
1524842962419516086,4.04314395407,-0.0102115321966,0.0
1524842962440828084,4.05419650326,-0.0103681950581,0.0
1524842962467890977,4.0652567182,-0.0105250117402,0.0
1524842962495467901,4.0763245989,-0.0106819822326,0.0
1524842962520509958,4.0793179384,0.00666015952035,0.0
1524842962541910886,4.07652746544,-0.00841713237217,0.0
1524842962571151018,4.08739111755,-0.00853581757666,0.0
1524842962593813896,4.24526767611,0.00364318179117,0.0
1524842962617866039,4.25611359795,0.00373955036955,0.0
1524842962641453981,4.26696532653,0.00383712017083,0.0
1524842962670078992,4.27782286185,0.00393589120558,0.0
1524842962692126035,4.28868620391,0.00403586348434,0.0
1524842962721489906,4.29121168879,0.00345182766048,0.0
1524842962743470907,4.30054473272,0.00353871570883,0.0
1524842962771533012,4.30987491224,0.00362666033722,0.0
1524842962793386936,4.31920222735,0.00371566154539,0.0
1524842962821652889,4.32852667804,0.0038057193331,0.0
1524842962845418930,4.45772173903,-0.00550835207644,0.0
1524842962872536897,4.46810454658,-0.0055970250017,0.0
1524842962893492937,4.47849041973,-0.00568566821306,0.0
1524842962919826030,4.48887935847,-0.0057742817199,0.0
1524842962944936990,4.49927136281,-0.00586286553156,0.0
1524842962974242925,4.54143876071,0.0188331688442,0.0
1524842962995047092,4.54737956504,0.00764340620532,0.0
1524842963019314050,4.55823576664,0.00779482738374,0.0
1524842963044466972,4.56909754175,0.00794760976401,0.0
1524842963069080114,4.57996489038,0.00810175336029,0.0
1524842963094105958,4.59083781252,0.00825725818674,0.0
1524842963122589111,4.67932399763,0.00498575595236,0.0
1524842963144941091,4.68960931906,0.00507953823773,0.0
1524842963171242952,4.69989656575,0.00517423591767,0.0
1524842963196634054,4.7101857377,0.00526984899106,0.0
1524842963224203109,4.72047683492,0.00536637745675,0.0
1524842963260210037,4.81625947742,0.00653299092605,0.0
1524842963300633907,4.8270450152,0.00664479699828,0.0
1524842963340435981,4.83783513674,0.00675756543587,0.0
1524842963340590000,4.84862984205,0.00687129623637,0.0
1524842963380305051,4.93430430655,0.00581946354099,0.0
1524842963380522966,4.94512729378,0.00591144287668,0.0
1524842963420191049,4.95595479268,0.00600421584876,0.0
1524842963424853086,4.96678680326,0.00609778245552,0.0
1524842963465167999,5.06237116817,-0.058882759464,0.0
1524842963504724979,5.06096825844,0.00303596705054,0.0
1524842963504990100,5.07171353095,0.00307761294765,0.0
1524842963545157909,5.0824625706,0.00311971594745,0.0
1524842963550731897,5.09321537738,0.0031622760453,0.0
1524842963589128017,5.10397195129,0.00320529323659,0.0
1524842963632831096,5.11473229234,0.00324876751669,0.0
1524842963633116960,5.12549640053,0.00329269888098,0.0
1524842963672949075,5.13626427585,0.00333708732483,0.0
1524842963677999019,5.1470359183,0.00338193284362,0.0
1524842963716295003,5.1578113279,0.00342723543273,0.0
1524842963756158113,5.16859050463,0.00347299508753,0.0
1524842963756268024,5.1793734485,0.0035192118034,0.0
1524842963798894882,5.1901601595,0.00356588557571,0.0
1524842963803257942,5.20095063765,0.00361301639984,0.0
1524842963841578006,5.21174488294,0.00366060427117,0.0
1524842963880052089,5.22254289537,0.00370864918507,0.0
1524842963880157947,5.23334467493,0.00375715113693,0.0
1524842963920371055,5.24415022164,0.0038061101221,0.0
1524842963931601047,5.25495953549,0.00385552613598,0.0
1524842963968276977,5.26577261649,0.00390539917394,0.0
1524842964008212089,5.27658946463,0.00395572923135,0.0
1524842964008310079,5.28741007991,0.00400651630359,0.0
1524842964048336029,5.29823446233,0.00405776038603,0.0
1524842964054847955,5.3090626119,0.00410946147406,0.0
1524842964092176914,5.31989452862,0.00416161956305,0.0
1524842964132200956,5.33073021248,0.00421423464837,0.0
1524842964173428058,5.34156966349,0.0042673067254,0.0
1524842964174000024,5.35241288164,0.00432083578952,0.0
1524842964212203025,5.36325986694,0.0043748218361,0.0
1524842964212300062,5.37411061939,0.00442926486052,0.0
1524842964253493070,5.38496513899,0.00448416485815,0.0
1524842964258642911,5.39582342574,0.00453952182438,0.0
1524842964297334909,5.40668547964,0.00459533575457,0.0
1524842964337805032,5.41755130069,0.00465160664411,0.0
1524842964338419914,5.42842088889,0.00470833448837,0.0
1524842964376902103,5.43929424425,0.00476551928272,0.0
1524842964386986017,5.45017136675,0.00482316102255,0.0
1524842964424104928,5.46105225641,0.00488125970323,0.0
1524842964464191913,5.47193691322,0.00493981532012,0.0
1524842964464417934,5.48282533718,0.00499882786862,0.0
1524842964505659103,5.4937175283,0.0050582973441,0.0
1524842964510293006,5.50461348657,0.00511822374193,0.0
1524842964553212881,5.515513212,0.00517860705749,0.0
1524842964592803001,5.52641670459,0.00523944728615,0.0
1524842964593260049,5.53732396433,0.0053007444233,0.0
1524842964632802963,5.54823499123,0.0053624984643,0.0
1524842964637124061,5.55914978529,0.00542470940454,0.0
1524842964676213979,5.5700683465,0.00548737723938,0.0
1524842964717669010,5.58099067488,0.00555050196422,0.0
1524842964718180894,5.59191677041,0.00561408357441,0.0
1524842964756050109,5.60284663311,0.00567812206534,0.0
1524842964760067939,5.61378026296,0.00574261743239,0.0
1524842964800147056,5.62471765998,0.00580756967093,0.0
1524842964840351104,5.63565882416,0.00587297877633,0.0
1524842964840538024,5.6466037555,0.00593884474398,0.0
1524842964880419015,5.657552454,0.00600516756925,0.0
1524842964886533975,5.66850491967,0.00607194724751,0.0
1524842964924213886,5.6794611525,0.00613918377414,0.0
1524842964964478969,5.6904211525,0.00620687714452,0.0
1524842964964648008,5.70138491966,0.00627502735403,0.0
1524842965004322052,5.71235245398,0.00634363439803,0.0
1524842965013195037,5.72332375548,0.00641269827191,0.0
1524842965053432941,5.73429882414,0.00648221897104,0.0
1524842965092519044,5.74527765996,0.0065521964908,0.0
1524842965092803955,5.75626026296,0.00662263082656,0.0
1524842965132143974,5.76724663312,0.00669352197371,0.0
1524842965138369083,5.77823677045,0.00676486992761,0.0
1524842965176027059,5.78923067496,0.00683667468364,0.0
1524842965217850923,5.80022834663,0.00690893623718,0.0
1524842965218451976,5.81122978547,0.00698165458361,0.0
1524842965256160974,5.82223499149,0.00705482971829,0.0
1524842965266318082,5.83324396468,0.00712846163662,0.0
1524842965305454969,5.84425670504,0.00720255033396,0.0
1524842965344065904,5.85527321257,0.00727709580569,0.0
1524842965344168901,5.86629348728,0.00735209804718,0.0
1524842965384403944,5.87731752916,0.00742755705381,0.0
1524842965391475915,5.88834533821,0.00750347282097,0.0
1524842965428179025,5.89937691444,0.00757984534401,0.0
1524842965469258069,5.91041225785,0.00765667461833,0.0
1524842965469741106,5.92145136843,0.00773396063929,0.0
1524842965508234977,5.93249424619,0.00781170340228,0.0
1524842965519062042,5.94354089113,0.00788990290266,0.0
1524842965556386947,7.09390774063,-0.032203390935,0.0
1524842965596062898,7.10383347173,-0.0324122853964,0.0
1524842965596170902,7.16430435184,-0.0319239954477,0.0
1524842965637746095,7.17421915312,-0.0321028909251,0.0
1524842965641707897,7.18413252156,-0.0322823003766,0.0
1524842965680252075,7.19404445716,-0.0324622238097,0.0
1524842965720431089,7.20395495994,-0.0326426612319,0.0
1524842965720612049,7.28360538987,-0.034545097212,0.0
1524842965760438919,7.29263516818,-0.0347199366341,0.0
1524842965767390012,7.30166007755,-0.0348952189896,0.0
1524842965805252075,7.31068011799,-0.0350709443484,0.0
1524842965844383955,7.31969528951,-0.0352471127805,0.0
1524842965885551929,7.32870559211,-0.0354237243557,0.0
1524842965886267900,7.44600175462,-0.0244543077465,0.0
1524842965924335002,7.45584595038,-0.0243545676665,0.0
1524842965924418926,7.46568903324,-0.0242540956913,0.0
1524842965965399980,7.47553100317,-0.0241528918453,0.0
1524842965971076965,7.61520739501,-0.0479758959291,0.0
1524842966008223056,7.6252763832,-0.0483394726188,0.0
1524842966048119068,7.63534538166,-0.0487045151102,0.0
1524842966048218965,7.64541439039,-0.0490710234035,0.0
1524842966088136911,7.65548340937,-0.0494389974988,0.0
1524842966094544887,7.68122898307,-0.0535871677806,0.0
1524842966133276939,7.69110190021,-0.054010348312,0.0
1524842966172132015,7.70097386707,-0.0544352175252,0.0
1524842966172255039,7.71084488365,-0.0548617754126,0.0
1524842966212363958,7.72071494993,-0.0552900219667,0.0
1524842966220896005,7.82052992974,-0.0287687975138,0.0
1524842966261279106,7.83057237221,-0.0286825267112,0.0
1524842966300776004,7.84061480842,-0.0285951703613,0.0
1524842966300928115,7.85065723832,-0.0285067284644,0.0
1524842966340501070,7.86069966189,-0.0284172010206,0.0
1524842966345017910,7.87074207908,-0.0283265880302,0.0
1524842966384067058,7.88078448987,-0.0282348894933,0.0
1524842966424098014,7.94652695134,-0.0400174148798,0.0
1524842966424246072,7.95662515592,-0.0401284264924,0.0
1524842966464437961,7.96672365639,-0.0402395063893,0.0
1524842966470875978,8.07938362268,-0.0320424492576,0.0
1524842966508291959,8.08932258832,-0.0320012015899,0.0
1524842966550194978,8.09926093799,-0.0319591661119,0.0
1524842966550580978,8.10919867167,-0.0319163428376,0.0
1524842966588298082,8.11913578934,-0.0318727317808,0.0
1524842966599627017,8.12907229098,-0.0318283329558,0.0
1524842966636373043,8.13900817658,-0.0317831463763,0.0
1524842966680169105,8.20996835072,-0.0369300110875,0.0
1524842966680270910,8.22003258882,-0.0369747418152,0.0
1524842966720263957,8.23009695984,-0.0370192555898,0.0
1524842966723934888,8.30503524569,-0.0300154041262,0.0
1524842966761064052,8.31417937977,-0.0299411705945,0.0
1524842966801697969,8.32331837444,-0.0298660705365,0.0
1524842966840897083,8.33245222971,-0.0297901039542,0.0
1524842966841156005,8.34158094557,-0.0297132708494,0.0
1524842966880351066,8.4578288361,-0.0198093560325,0.0
1524842966880636930,8.467570158,-0.0195626993454,0.0
1524842966920883893,8.47731011713,-0.0193142378159,0.0
1524842966923089981,8.48704871348,-0.0190639714594,0.0
1524842966960247039,8.58628822901,-0.0345141874877,0.0
1524842967000984907,8.59641606349,-0.0345340982704,0.0
1524842967040257930,8.60654483377,-0.0345538252774,0.0
1524842967040383100,8.61667453985,-0.0345733684944,0.0
1524842967080322027,8.62680518172,-0.0345927279073,0.0
1524842967080482959,8.63693675937,-0.0346119035018,0.0
1524842967120281934,8.68585899603,-0.0391208772261,0.0
1524842967128521919,8.69534621422,-0.0392082584746,0.0
1524842967168188095,8.70483064319,-0.0392958699261,0.0
1524842967208033084,8.71431228294,-0.0393837116045,0.0
1524842967208139896,8.72379113347,-0.0394717835339,0.0
1524842967248281955,8.82779391407,-0.0354138651209,0.0
1524842967253858089,8.83791696889,-0.0354311768869,0.0
1524842967291951894,8.84804103085,-0.03544832104,0.0
1524842967332079887,8.85816609993,-0.0354652975803,0.0
1524842967332159042,8.86829217615,-0.0354821065077,0.0
1524842967373167991,8.8784192595,-0.0354987478222,0.0
1524842967382410049,8.97680610508,-0.0285981375198,0.0
1524842967420371055,8.98713231553,-0.0285057979105,0.0
1524842967461226940,8.99746060832,-0.0284126854286,0.0
1524842967461656093,9.06250793542,-0.0568911194742,0.0
1524842967500139951,9.07286572802,-0.0572417674805,0.0
1524842967504914045,9.0832256835,-0.0575942283518,0.0
1524842967544008970,9.09358780184,-0.0579485021154,0.0
1524842967585136890,9.10395208302,-0.0583045887989,0.0
1524842967585494041,9.11431852701,-0.0586624884296,0.0
1524842967625005960,9.12468713379,-0.059022201035,0.0
1524842967633701086,9.13505790334,-0.0593837266425,0.0
1524842967672898054,9.14543083564,-0.0597470652796,0.0
1524842967713269948,9.15580593065,-0.0601122169736,0.0
1524842967713752031,9.16618318837,-0.060479181752,0.0
1524842967752238035,9.17656260877,-0.0608479596422,0.0
1524842967759414911,9.18694419182,-0.0612185506716,0.0
1524842967796216964,9.1973279375,-0.0615909548677,0.0
1524842967836818933,9.2077138458,-0.0619651722579,0.0
1524842967836903095,9.21810191668,-0.0623412028696,0.0
1524842967876195907,9.22849215013,-0.0627190467302,0.0
1524842967881496906,9.23888454612,-0.0630987038672,0.0
1524842967920341014,9.24927910463,-0.063480174308,0.0
1524842967960556983,9.25967582564,-0.06386345808,0.0
1524842967960927009,9.27007470912,-0.0642485552106,0.0
1524842968000473976,9.28047575505,-0.0646354657273,0.0
1524842968006684064,9.29087896342,-0.0650241896575,0.0
1524842968044128894,9.30128433419,-0.0654147270286,0.0
1524842968084765911,9.31169186735,-0.065807077868,0.0
1524842968125689029,9.32210156286,-0.0662012422032,0.0
1524842968125976085,9.33251342072,-0.0665972200615,0.0
1524842968165494918,9.3429274409,-0.0669950114705,0.0
1524842968165679931,9.35334362337,-0.0673946164574,0.0
1524842968205487966,9.36376196811,-0.0677960350498,0.0
1524842968210453033,9.3741824751,-0.0681992672751,0.0
1524842968248191118,9.38460514431,-0.0686043131607,0.0
1524842968288311958,9.39502997573,-0.0690111727339,0.0
1524842968288523912,9.40545696933,-0.0694198460223,0.0
1524842968328850984,9.41588612509,-0.0698303330533,0.0
1524842968335944890,9.42631744299,-0.0702426338542,0.0
1524842968372488021,9.436750923,-0.0706567484525,0.0
1524842968412496089,9.4471865651,-0.0710726768756,0.0
1524842968452718019,9.45762436928,-0.071490419151,0.0
1524842968452986001,9.46806433549,-0.071909975306,0.0
1524842968492021083,9.47850646373,-0.0723313453681,0.0
1524842968492168903,9.48895075397,-0.0727545293647,0.0
1524842968532460927,9.49939720619,-0.0731795273232,0.0
1524842968540884971,9.50984582037,-0.073606339271,0.0
1524842968580368041,9.52029659648,-0.0740349652356,0.0
1524842968621303081,9.5307495345,-0.0744654052443,0.0
1524842968621611118,9.5412046344,-0.0748976593246,0.0
1524842968664860963,9.55166189617,-0.075331727504,0.0
1524842968666759014,9.56212131979,-0.0757676098097,0.0
1524842968705121994,9.57258290523,-0.0762053062693,0.0
1524842968744034051,9.58304665246,-0.0766448169102,0.0
1524842968744143962,9.59351256147,-0.0770861417597,0.0
1524842968784662008,9.60398063223,-0.0775292808454,0.0
1524842968792428970,9.61445086472,-0.0779742341945,0.0
1524842968832048892,9.62492325892,-0.0784210018346,0.0
1524842968873385906,9.6353978148,-0.078869583793,0.0
1524842968873814105,9.64587453235,-0.0793199800972,0.0
1524842968912250041,9.65635341153,-0.0797721907745,0.0
1524842968917499065,9.66683445234,-0.0802262158525,0.0
1524842968956003904,9.67731765473,-0.0806820553585,0.0
1524842968996356964,9.6878030187,-0.0811397093199,0.0
1524842968996736049,9.69829054422,-0.0815991777641,0.0
1524842969036297082,9.70878023127,-0.0820604607186,0.0
1524842969042766094,9.71927207982,-0.0825235582107,0.0
1524842969080615043,9.72976608985,-0.082988470268,0.0
1524842969120467901,9.74026226134,-0.0834551969177,0.0
1524842969120724916,9.75076059427,-0.0839237381874,0.0
1524842969160125970,9.76126108861,-0.0843940941044,0.0
1524842969168989896,9.77176374434,-0.0848662646961,0.0
1524842969208204984,9.78226856144,-0.08534024999,0.0
1524842969248394012,9.79277553989,-0.0858160500134,0.0
1524842969248583078,9.80328467966,-0.0862936647938,0.0
1524842969288789987,9.81379598074,-0.0867730943587,0.0
1524842969294378042,9.82430944309,-0.0872543387353,0.0
1524842969332103013,9.83482506669,-0.0877373979512,0.0
1524842969373102903,9.84534285153,-0.0882222720337,0.0
1524842969373542070,9.85586279758,-0.0887089610102,0.0
1524842969412177085,9.86638490482,-0.0891974649082,0.0
1524842969421821117,9.87690917323,-0.0896877837551,0.0
1524842969460329055,9.88743560277,-0.0901799175782,0.0
1524842969501106023,9.89796419344,-0.0906738664051,0.0
1524842969501271963,9.90849494521,-0.091169630263,0.0
1524842969540128946,11.0992640757,-0.00321676704806,0.0
1524842969547017097,11.1092509646,-0.00286469691206,0.0
1524842969584978103,11.119237341,-0.00251096205791,0.0
1524842969624077081,11.129223205,-0.00215556247865,0.0
1524842969664521932,11.2360959614,-0.00285614144316,0.0
1524842969664694070,11.2460761654,-0.00259035510234,0.0
1524842969704708099,11.2560558594,-0.00232333676812,0.0
1524842969704845905,11.2660350436,-0.00205508643036,0.0
1524842969744271039,11.3120282,-0.00289312593354,0.0
1524842969752192020,11.3220062348,-0.00266863818221,0.0
1524842969788667917,11.3319837668,-0.00244311809626,0.0
1524842969829072952,11.341960796,-0.00221656566587,0.0
1524842969870841979,11.3519373224,-0.00198898088121,0.0
1524842969871540069,11.4620355804,-0.00348433984931,0.0
1524842969908142089,11.4720131909,-0.00332886385009,0.0
1524842969908272981,11.4819903304,-0.00317271260023,0.0
1524842969948234081,11.4919669989,-0.00301588609053,0.0
1524842969949357032,11.5019431965,-0.00285838431178,0.0
1524842969988274097,11.5170533264,0.00972468079164,0.0
1524842970030014038,11.5270320139,0.0101423128803,0.0
1524842970030673980,11.5370102439,0.0105618131798,0.0
1524842970068113088,11.5469880167,0.0109831816929,0.0
1524842970075213909,11.556965332,0.0114064184224,0.0
1524842970112283945,11.68352944,-0.000370168513027,0.0
1524842970155267000,11.693344702,-0.000240402727248,0.0
1524842970155890941,11.7031587402,-0.000110355484278,0.0
1524842970192604064,11.7129715544,1.99732496303e-05,0.0
1524842970202347040,11.7227831448,0.000150583508222,0.0
1524842970240340948,11.8320442291,-0.0168607894277,0.0
1524842970280292987,11.8420152317,-0.0170410605369,0.0
1524842970280457973,11.8519859167,-0.0172226325644,0.0
1524842970320096015,11.8619562842,-0.0174055055035,0.0
1524842970325285911,11.871926334,-0.0175896793474,0.0
1524842970364459037,11.8818960663,-0.0177751540892,0.0
1524842970403971910,11.9650313275,-0.00609342048422,0.0
1524842970404046058,11.9750212807,-0.006066730861,0.0
1524842970444200038,11.9850110428,-0.00604013111361,0.0
1524842970453892946,11.9950006138,-0.00601362123951,0.0
1524842970492063999,12.0742394438,0.00428934403049,0.0
1524842970533293962,12.0839885002,0.00448416940634,0.0
1524842970533704042,12.0937360219,0.00467986614043,0.0
1524842970572197914,12.1034820089,0.00487643423612,0.0
1524842970581368923,12.1132264611,0.00507387369677,0.0
1524842970620234966,12.2022717712,0.00717894250947,0.0
1524842970660590887,12.2122554726,0.00739196326319,0.0
1524842970660682916,12.2222390834,0.00760589173494,0.0
1524842970700158119,12.2322226038,0.00782072792527,0.0
1524842970708374023,12.2422060337,0.00803647183472,0.0
1524842970749496936,12.252189373,0.00825312346383,0.0
1524842970788065910,12.3233184667,0.00689406830932,0.0
1524842970788176059,12.3333541223,0.00707078248053,0.0
1524842970828174114,12.3433899932,0.00724813402072,0.0
1524842970831011056,12.3534260794,0.00742612292845,0.0
1524842970869395017,12.4455052008,-0.00141169961499,0.0
1524842970908361911,12.4555231782,-0.00140113239868,0.0
1524842970949228048,12.4655412521,-0.00139095690773,0.0
1524842970949667930,12.4755594226,-0.00138117314386,0.0
1524842970988909959,12.4855776895,-0.0013717811088,0.0
1524842970989075899,12.5929047826,0.00236375341176,0.0
1524842971027988910,12.6029420163,0.00243234432121,0.0
1524842971035058021,12.6129794505,0.00250093427794,0.0
1524842971072664976,12.623017085,0.00256952328077,0.0
1524842971112099885,12.6330549198,0.00263811132852,0.0
1524842971112210988,12.6430929551,0.00270669841998,0.0
1524842971152457952,12.6531311907,0.00277528455398,0.0
1524842971159437894,12.6631696266,0.00284386972934,0.0
1524842971196103096,12.7271578862,0.00113860533929,0.0
1524842971237406015,12.7371936041,0.00117382965673,0.0
1524842971276249885,12.8748546551,0.00604509396376,0.0
1524842971276329040,12.8848325767,0.00614704667893,0.0
1524842971316364049,12.8948103242,0.00624921720388,0.0
1524842971316514015,12.9047878975,0.00635160553899,0.0
1524842971357449054,12.9147652967,0.00645421168463,0.0
1524842971363688945,12.9924090539,0.00301683064775,0.0
1524842971401527881,13.0024306619,0.0030525576962,0.0
1524842971440412998,13.0124523568,0.0030881077621,0.0
1524842971440531015,13.0224741389,0.0031234808452,0.0
1524842971480202913,13.0324960081,0.00315867694524,0.0
1524842971490675926,13.0719669177,0.000487317405026,0.0
1524842971529206037,13.0819955726,0.000475239328263,0.0
1524842971568268060,13.0920243508,0.000462719093988,0.0
1524842971568418025,13.1020532523,0.000449756701866,0.0
1524842971608114957,13.112082277,0.00043635215156,0.0
1524842971613126039,13.1221114251,0.000422505442732,0.0
1524842971653039932,13.1321406965,0.000408216575046,0.0
1524842971692406892,13.1421700911,0.000393485548164,0.0
1524842971692488908,13.152199609,0.000378312361751,0.0
1524842971733386039,13.1622292503,0.000362697015467,0.0
1524842971740156888,13.1722590148,0.000346639508978,0.0
1524842971776174068,13.1822889026,0.000330139841945,0.0
1524842971817210912,13.1923189137,0.000313198014033,0.0
1524842971817902088,13.202349048,0.000295814024903,0.0
1524842971856237888,13.2123793057,0.000277987874219,0.0
1524842971865624904,13.2224096866,0.000259719561645,0.0
1524842971904952049,13.2324401908,0.000241009086842,0.0
1524842971945660114,13.2424708183,0.000221856449475,0.0
1524842971945779085,13.2525015691,0.000202261649206,0.0
1524842971985177993,13.2625324431,0.000182224685698,0.0
1524842971992115020,13.2725634404,0.000161745558615,0.0
1524842972027940988,13.282594561,0.000140824267619,0.0
1524842972069166898,13.2926258049,0.000119460812374,0.0
1524842972069746017,13.302657172,9.76551925427e-05,0.0
1524842972108148097,13.3126886625,7.54074077879e-05,0.0
1524842972119975090,13.3227202761,5.27174577729e-05,0.0
1524842972156409025,13.3327520131,2.95853421609e-05,0.0
1524842972202212095,13.3427838733,6.01106061484e-06,0.0
1524842972202867984,13.3528158568,-1.80053872021e-05,0.0
1524842972240705966,13.3628479635,-4.24640016268e-05,0.0
1524842972242068052,13.3728801935,-6.73647829963e-05,0.0
1524842972281233072,13.3829125468,-9.27077316473e-05,0.0
1524842972320396900,13.3929450233,-0.000118492847917,0.0
1524842972320525884,13.4029776231,-0.000144720132142,0.0
1524842972360110998,13.4130103462,-0.000171389584659,0.0
1524842972369194984,13.4230431925,-0.000198501205806,0.0
1524842972412400007,13.433076162,-0.000226054995918,0.0
1524842972453210115,13.4431092549,-0.000254050955333,0.0
1524842972453664064,13.4531424709,-0.000282489084389,0.0
1524842972492089033,13.4631758103,-0.000311369383421,0.0
1524842972494371891,13.4732092728,-0.000340691852766,0.0
1524842972533665895,13.4832428587,-0.000370456492762,0.0
1524842972572324037,13.4932765677,-0.000400663303746,0.0
1524842972572478055,13.5033104001,-0.000431312286053,0.0
1524842972612219095,13.5133443556,-0.000462403440022,0.0
1524842972620361089,13.5233784345,-0.000493936765988,0.0
1524842972665139913,13.5334126365,-0.00052591226429,0.0
1524842972704631090,13.5434469618,-0.000558329935263,0.0
1524842972704715967,13.5534814104,-0.000591189779244,0.0
1524842972744340896,13.5635159822,-0.000624491796571,0.0
1524842972746895074,13.5735506772,-0.00065823598758,0.0
1524842972785245895,13.5835854955,-0.000692422352608,0.0
1524842972824295997,13.593620437,-0.000727050891993,0.0
1524842972824445962,13.6036555017,-0.000762121606069,0.0
1524842972865123033,13.6136906897,-0.000797634495176,0.0
1524842972871953964,13.6237260009,-0.000833589559649,0.0
1524842972908555984,13.6337614353,-0.000869986799825,0.0
1524842972948699951,13.643796993,-0.000906826216042,0.0
1524842972948972940,13.6538326739,-0.000944107808635,0.0
1524842972988940954,13.6638684781,-0.000981831577942,0.0
1524842972997267961,13.6739044054,-0.0010199975243,0.0
1524842973036173105,13.683940456,-0.00105860564805,0.0
1524842973076266050,13.6939766298,-0.00109765594951,0.0
1524842973076433897,13.7040129269,-0.00113714842905,0.0
1524842973116539955,13.7140493471,-0.00117708308697,0.0
1524842973125293016,13.7240858906,-0.00121745992364,0.0
1524842973164278030,13.7341225573,-0.00125827893937,0.0
1524842973204807996,13.7441593472,-0.00129954013451,0.0
1524842973205271959,13.7541962604,-0.0013412435094,0.0
1524842973244637966,13.7642332967,-0.00138338906437,0.0
1524842973248660087,13.7742704563,-0.00142597679976,0.0
1524842973287957906,13.7843077391,-0.00146900671591,0.0
1524842973329241991,13.7943451451,-0.00151247881314,0.0
1524842973329413890,13.8043826743,-0.00155639309181,0.0
1524842973368370056,13.8144203267,-0.00160074955224,0.0
1524842973379410982,13.8244581024,-0.00164554819478,0.0
1524842973416140079,13.8344960012,-0.00169078901975,0.0
1524842973456027030,13.8445340233,-0.0017364720275,0.0
1524842973456145048,13.8545721685,-0.00178259721837,0.0
1524842973496057033,13.864610437,-0.00182916459268,0.0
1524842973507469892,13.8746488287,-0.00187617415078,0.0
1524842973545305967,13.8846873435,-0.001923625893,0.0
1524842973584458112,13.8947259816,-0.00197151981969,0.0
1524842973584640026,13.9047647429,-0.00201985593117,0.0
1524842973627273082,13.9148036273,-0.00206863422778,0.0
1524842973630898952,13.924842635,-0.00211785470987,0.0
1524842973669429063,13.9348817659,-0.00216751737776,0.0
1524842973708178043,13.94492102,-0.0022176222318,0.0
1524842973708293914,13.9549603972,-0.00226816927232,0.0
1524842973749391078,13.9649998977,-0.00231915849965,0.0
1524842973755907058,13.9750395213,-0.00237058991414,0.0
1524842973793173074,13.9850792681,-0.00242246351612,0.0
1524842973832142114,13.9951191382,-0.00247477930593,0.0
1524842973873503923,14.0051591314,-0.0025275372839,0.0
1524842973873689889,14.0151992478,-0.00258073745038,0.0
1524842973915545940,14.0252394874,-0.00263437980569,0.0
1524842973915703058,14.0352798501,-0.00268846435018,0.0
1524842973952198028,14.0453203361,-0.00274299108418,0.0
1524842973956823110,14.0553609452,-0.00279796000803,0.0
1524842973997586011,14.0654016775,-0.00285337112206,0.0
1524842974037235021,14.075442533,-0.00290922442661,0.0
1524842974037525892,14.0854835117,-0.00296551992203,0.0
1524842974075988054,14.0955246136,-0.00302225760863,0.0
1524842974085833072,14.1055658386,-0.00307943748677,0.0
1524842974125163078,14.1156071868,-0.00313705955678,0.0
1524842974164465904,14.1256486582,-0.003195123819,0.0
1524842974164603948,14.1356902528,-0.00325363027375,0.0
1524842974205228090,14.1457319705,-0.00331257892139,0.0
1524842974211222887,14.1557738114,-0.00337196976224,0.0
1524842974249417066,14.1658157755,-0.00343180279664,0.0
1524842974289320945,14.1758578627,-0.00349207802493,0.0
1524842974289453983,14.1859000731,-0.00355279544745,0.0
1524842974328212976,14.1959424067,-0.00361395506453,0.0
1524842974340102910,14.2059848634,-0.00367555687651,0.0
1524842974376066923,14.2160274433,-0.00373760088372,0.0
1524842974417936086,14.2260701464,-0.00380008708651,0.0
1524842974418554067,14.2361129726,-0.00386301548521,0.0
1524842974456152915,14.246155922,-0.00392638608015,0.0
1524842974462121009,14.2561989945,-0.00399019887167,0.0
1524842974500094890,14.2662421902,-0.00405445386012,0.0
1524842974540505886,14.2762855091,-0.00411915104582,0.0
1524842974540640115,14.2863289511,-0.00418429042911,0.0
1524842974580267906,14.2963725162,-0.00424987201033,0.0
1524842974589442968,14.3064162046,-0.00431589578982,0.0
1524842974628143072,14.316460016,-0.00438236176791,0.0
1524842974669594049,14.3265039506,-0.00444926994494,0.0
1524842974670032978,14.3365480084,-0.00451662032124,0.0
1524842974708748102,14.3465921893,-0.00458441289716,0.0
1524842974718794107,14.3566364934,-0.00465264767303,0.0
1524842974760179996,14.3666809206,-0.00472132464918,0.0
1524842974800228118,14.376725471,-0.00479044382596,0.0
1524842974800379991,14.3867701445,-0.00486000520369,0.0
1524842974840010881,14.3968149411,-0.00493000878272,0.0
1524842974840089082,14.4068598609,-0.00500045456339,0.0
1524842974882174968,14.4169049038,-0.00507134254602,0.0
1524842974889183044,14.4269500699,-0.00514267273096,0.0
1524842974928028106,14.436995359,-0.00521444511854,0.0
1524842974972719907,14.4470407714,-0.0052866597091,0.0
1524842974972987890,14.4570863068,-0.00535931650298,0.0
1524842975013122081,14.4671319654,-0.0054324155005,0.0
1524842975014395952,14.4771777472,-0.00550595670202,0.0
1524842975053662061,14.487223652,-0.00557994010786,0.0
1524842975092036008,14.49726968,-0.00565436571837,0.0
1524842975092156887,14.5073158312,-0.00572923353387,0.0
1524842975133538007,14.5173621054,-0.00580454355471,0.0
1524842975141051054,14.5274085028,-0.00588029578123,0.0
1524842975180896043,14.5374550233,-0.00595649021375,0.0
1524842975219913959,14.5475016669,-0.00603312685261,0.0
1524842975219978094,14.5575484337,-0.00611020569816,0.0
1524842975260471105,14.5675953236,-0.00618772675073,0.0
1524842975266381978,14.5776423366,-0.00626569001065,0.0
1524842975305389881,14.5876894727,-0.00634409547827,0.0
1524842975344388961,14.5977367319,-0.00642294315391,0.0
1524842975344538927,14.6077841143,-0.00650223303792,0.0
1524842975385257005,14.6178316197,-0.00658196513063,0.0
1524842975391799926,14.6278792483,-0.00666213943237,0.0
1524842975429476022,14.637927,-0.0067427559435,0.0
1524842975468482971,14.6479748748,-0.00682381466433,0.0
1524842975508198022,14.6580228727,-0.00690531559521,0.0
1524842975508342027,14.6680709938,-0.00698725873648,0.0
1524842975548548936,14.6781192379,-0.00706964408847,0.0
1524842975548713922,14.6881676051,-0.00715247165152,0.0
1524842975588280916,14.6982160955,-0.00723574142596,0.0
1524842975596266031,14.708264709,-0.00731945341213,0.0
1524842975637553930,14.7183134455,-0.00740360761037,0.0
1524842975676472902,14.7283623052,-0.00748820402101,0.0
1524842975676601886,14.7384112879,-0.00757324264439,0.0
1524842975717142105,14.7484603938,-0.00765872348085,0.0
1524842975721364021,14.7585096228,-0.00774464653073,0.0
1524842975760282993,14.7685589748,-0.00783101179435,0.0
1524842975801563024,14.77860845,-0.00791781927207,0.0
1524842975802023887,14.7886580483,-0.0080050689642,0.0
1524842975840442895,14.7987077696,-0.0080927608711,0.0
1524842975850120067,14.8087576141,-0.00818089499309,0.0
1524842975888180017,14.8188075816,-0.00826947133052,0.0
1524842975933615922,14.8288576722,-0.00835848988371,0.0
1524842975933999061,14.8389078859,-0.00844795065301,0.0
1524842975972182989,14.8489582228,-0.00853785363876,0.0
1524842975972506046,14.8590086826,-0.00862819884128,0.0
1524842976012392997,14.8690592656,-0.00871898626092,0.0
1524842976052767992,14.8791099717,-0.00881021589801,0.0
1524842976052867889,14.8891608008,-0.00890188775289,0.0
1524842976092305898,14.8992117531,-0.0089940018259,0.0
1524842976101938009,14.9092628284,-0.00908655811737,0.0
1524842976140069961,14.9193140268,-0.00917955662764,0.0
1524842976181813955,14.9293653483,-0.00927299735704,0.0
1524842976182333946,14.9394167928,-0.00936688030591,0.0
1524842976221169948,14.9494683604,-0.0094612054746,0.0
1524842976224886894,14.9595200511,-0.00955597286342,0.0
1524842976264734029,14.9695718649,-0.00965118247273,0.0
1524842976304374933,14.9796238018,-0.00974683430286,0.0
1524842976304485082,14.9896758617,-0.00984292835414,0.0
1524842976344080924,14.9997280447,-0.00993946462691,0.0
1524842976351449012,15.0097803507,-0.0100364431215,0.0
1524842976388289928,15.0198327799,-0.0101338638383,0.0
1524842976430085897,15.0298853321,-0.0102317267775,0.0
1524842976430799007,15.0399380073,-0.0103300319396,0.0
1524842976468084096,15.0499908057,-0.0104287793249,0.0
1524842976477463006,15.0600437271,-0.0105279689337,0.0
1524842976516149997,15.0700967715,-0.0106276007663,0.0
1524842976556180000,15.080149939,-0.0107276748231,0.0
1524842976556272983,15.0902032296,-0.0108281911044,0.0
1524842976598407983,15.1002566433,-0.0109291496106,0.0
1524842976601583003,15.11031018,-0.011030550342,0.0
1524842976640270948,15.1203638397,-0.0111323932989,0.0
1524842976680052995,15.1304176225,-0.0112346784817,0.0
1524842976680155038,15.1404715284,-0.0113374058907,0.0
1524842976721332073,15.1505255573,-0.0114405755262,0.0
1524842976728012084,15.1605797092,-0.0115441873886,0.0
1524842976765324115,15.1706339843,-0.0116482414782,0.0
1524842976804424047,15.1806883823,-0.0117527377953,0.0
1524842976804557085,15.1907429034,-0.0118576763403,0.0
1524842976844122886,15.2007975476,-0.0119630571136,0.0
1524842976854561090,15.2108523148,-0.0120688801154,0.0
1524842976896112918,15.2209072051,-0.0121751453461,0.0
1524842976937277078,15.2309622184,-0.012281852806,0.0
1524842976937417030,15.2410173547,-0.0123890024955,0.0
1524842976976494073,15.2510726141,-0.0124965944149,0.0
1524842976979737043,15.2611279965,-0.0126046285645,0.0
1524842977017174005,15.2711835019,-0.0127131049447,0.0
1524842977056313991,15.2812391304,-0.0128220235559,0.0
1524842977056453943,15.291294882,-0.0129313843982,0.0
1524842977096004962,15.3013507565,-0.0130411874722,0.0
1524842977104053020,15.3114067541,-0.0131514327781,0.0
1524842977141616106,15.3214628748,-0.0132621203162,0.0
1524842977180099964,15.3315191184,-0.0133732500869,0.0
1524842977180197000,15.3415754851,-0.0134848220906,0.0
1524842977220303058,15.3516319748,-0.0135968363275,0.0
1524842977229696035,15.3616885876,-0.0137092927981,0.0
1524842977269682884,15.3717453234,-0.0138221915025,0.0
1524842977312294006,15.3818021822,-0.0139355324413,0.0
1524842977312555074,15.391859164,-0.0140493156146,0.0
1524842977352108955,15.4019162688,-0.0141635410229,0.0
1524842977355159997,15.4119734967,-0.0142782086665,0.0
1524842977392937898,15.4220308476,-0.0143933185458,0.0
1524842977432823896,15.4320883215,-0.0145088706609,0.0
1524842977433070898,15.4421459185,-0.0146248650124,0.0
1524842977472223043,15.4522036384,-0.0147413016005,0.0
1524842977483611106,15.4622614814,-0.0148581804256,0.0
1524842977522032022,15.4723194474,-0.0149755014879,0.0
1524842977560337066,15.4823775363,-0.0150932647879,0.0
1524842977560494899,15.4924357484,-0.0152114703259,0.0
1524842977601006984,15.5024940834,-0.0153301181022,0.0
1524842977608122110,15.5125525414,-0.0154492081172,0.0
1524842977645427942,15.5226111224,-0.0155687403711,0.0
1524842977685235977,15.5326698265,-0.0156887148644,0.0
1524842977685698032,15.5427286535,-0.0158091315973,0.0
1524842977724165916,15.5527876036,-0.0159299905702,0.0
1524842977732331037,15.5628466766,-0.0160512917834,0.0
1524842977777570962,15.5729058727,-0.0161730352374,0.0
1524842977817563056,15.5829651918,-0.0162952209323,0.0
1524842977817698955,15.5930246338,-0.0164178488685,0.0
1524842977856564044,15.6030841989,-0.0165409190465,0.0
1524842977858438968,15.613143887,-0.0166644314664,0.0
1524842977896166086,15.623203698,-0.0167883861287,0.0
1524842977936104059,15.6332636321,-0.0169127830337,0.0
1524842977936345100,15.6433236891,-0.0170376221817,0.0
1524842977976269960,15.6533838692,-0.017162903573,0.0
1524842977983515977,15.6634441722,-0.0172886272081,0.0
1524842978020047903,15.6735045982,-0.0174147930872,0.0
1524842978060626983,15.6835651473,-0.0175414012106,0.0
1524842978060827970,15.6936258193,-0.0176684515788,0.0
1524842978100467920,15.7036866143,-0.017795944192,0.0
1524842978108706951,15.7137475322,-0.0179238790506,0.0
1524842978148293972,15.7238085732,-0.0180522561549,0.0
1524842978189455986,15.7338697372,-0.0181810755052,0.0
1524842978228701114,15.7439310241,-0.0183103371019,0.0
1524842978229712963,15.753992434,-0.0184400409454,0.0
1524842978269591093,15.7640539669,-0.0185701870359,0.0
1524842978270224094,15.7741156228,-0.0187007753738,0.0
1524842978308152914,15.7841774016,-0.0188318059594,0.0
1524842978309942960,15.7942393034,-0.0189632787931,0.0
1524842978348015069,15.8043013283,-0.0190951938752,0.0
1524842978388386011,15.814363476,-0.0192275512061,0.0
1524842978428244113,15.8244257468,-0.019360350786,0.0
1524842978428359031,15.8344881405,-0.0194935926153,0.0
1524842978468206882,15.8445506572,-0.0196272766944,0.0
1524842978468327999,15.8546132969,-0.0197614030235,0.0
1524842978508174896,15.8646760595,-0.0198959716031,0.0
1524842978515091896,15.8747389451,-0.0200309824335,0.0
1524842978552022933,15.8848019537,-0.0201664355149,0.0
1524842978592828035,15.8948650852,-0.0203023308478,0.0
1524842978593151092,15.9049283397,-0.0204386684324,0.0
1524842978632431983,15.9149917171,-0.0205754482691,0.0
1524842978642510890,15.9250552176,-0.0207126703583,0.0
1524842978680131912,15.9351188409,-0.0208503347003,0.0
1524842978721560001,15.9451825873,-0.0209884412953,0.0
1524842978722093105,15.9552464566,-0.0211269901438,0.0
1524842978760283946,15.9653104488,-0.0212659812461,0.0
1524842978764946937,15.975374564,-0.0214054146025,0.0
1524842978804965019,15.9854388022,-0.0215452902134,0.0
1524842978845295906,15.9955031633,-0.0216856080791,0.0
1524842978846036911,16.0055676474,-0.0218263681999,0.0
1524842978885673999,16.0156322544,-0.0219675705761,0.0
1524842978890053033,16.0256969844,-0.0221092152082,0.0
1524842978929009914,16.0357618373,-0.0222513020964,0.0
1524842978969842910,16.0458268131,-0.0223938312411,0.0
1524842979008707046,16.0558919119,-0.0225368026425,0.0
1524842979008829116,16.0659571337,-0.0226802163012,0.0
1524842979048614025,16.0760224784,-0.0228240722173,0.0
1524842979048732995,16.086087946,-0.0229683703912,0.0
1524842979088047981,16.0961535366,-0.0231131108233,0.0
1524842979090974092,16.1062192501,-0.0232582935139,0.0
1524842979129674911,16.1162850866,-0.0234039184633,0.0
1524842979168932914,16.126351046,-0.0235499856719,0.0
1524842979169012069,16.1364171283,-0.0236964951399,0.0
1524842979208132982,16.1464833336,-0.0238434468679,0.0
1524842979217597961,16.1565496618,-0.0239908408559,0.0
1524842979256186962,16.1666161129,-0.0241386771045,0.0
1524842979299485921,16.176682687,-0.024286955614,0.0
1524842979299927949,16.186749384,-0.0244356763846,0.0
1524842979336918115,16.1968162039,-0.0245848394167,0.0
1524842979341615915,16.2068831468,-0.0247344447107,0.0
1524842979380160093,16.2169502125,-0.0248844922669,0.0
1524842979420092105,16.2270174012,-0.0250349820856,0.0
1524842979420192956,16.2370847129,-0.0251859141672,0.0
1524842979460063934,16.2471521474,-0.025337288512,0.0
1524842979469053030,16.2572197049,-0.0254891051203,0.0
1524842979504960060,16.2672873853,-0.0256413639924,0.0
1524842979544203042,16.2773551886,-0.0257940651288,0.0
1524842979544353008,16.2874231148,-0.0259472085297,0.0
1524842979584036111,16.297491164,-0.0261007941956,0.0
1524842979593018054,16.3075593361,-0.0262548221266,0.0
1524842979632303953,16.317627631,-0.0264092923232,0.0
1524842979673839092,16.3276960489,-0.0265642047856,0.0
1524842979674179077,16.3377645898,-0.0267195595143,0.0
1524842979712305068,16.3478332535,-0.0268753565096,0.0
1524842979721307039,16.3579020401,-0.0270315957717,0.0
1524842979760508060,16.3679709496,-0.0271882773011,0.0
1524842979800028085,16.3780399821,-0.027345401098,0.0
1524842979800127983,16.3881091374,-0.0275029671629,0.0
1524842979840305089,16.3981784157,-0.027660975496,0.0
1524842979844703912,16.4082478169,-0.0278194260977,0.0
1524842979885694980,16.4183173409,-0.0279783189683,0.0
1524842979924221038,16.4283869879,-0.0281376541081,0.0
1524842979924349069,16.4384567578,-0.0282974315175,0.0
1524842979965590000,16.4485266505,-0.0284576511969,0.0
1524842979971991062,16.4585966662,-0.0286183131465,0.0
1524842980008956909,16.4686668048,-0.0287794173667,0.0
1524842980050002098,16.4787370662,-0.0289409638578,0.0
1524842980050889968,16.4888074506,-0.0291029526202,0.0
1524842980088099956,16.4988779578,-0.0292653836542,0.0
1524842980096075057,16.508948588,-0.0294282569602,0.0
1524842980132098913,16.519019341,-0.0295915725384,0.0
1524842980173623085,16.5290902169,-0.0297553303892,0.0
1524842980212165117,16.5391612157,-0.029919530513,0.0
1524842980212296962,16.5492323374,-0.0300841729101,0.0
1524842980252135038,16.559303582,-0.0302492575808,0.0
1524842980252263069,16.5693749495,-0.0304147845254,0.0
1524842980292212963,16.5794464399,-0.0305807537443,0.0
1524842980295953035,16.5895180531,-0.0307471652379,0.0
1524842980333051919,16.5995897892,-0.0309140190064,0.0
1524842980372670888,16.6096616482,-0.0310813150502,0.0
1524842980412275075,16.6197336301,-0.0312490533697,0.0
1524842980412419080,16.6298057348,-0.0314172339652,0.0
1524842980453562974,16.6398779625,-0.0315858568369,0.0
1524842980454075098,16.649950313,-0.0317549219853,0.0
1524842980492150068,16.6600227864,-0.0319244294107,0.0
1524842980502592086,16.6700953826,-0.0320943791134,0.0
1524842980540589094,16.6801681017,-0.0322647710937,0.0
1524842980580595970,16.6902409437,-0.032435605352,0.0
1524842980580687046,16.7003139086,-0.0326068818887,0.0
1524842980620536088,16.7103869964,-0.032778600704,0.0
1524842980623223066,16.720460207,-0.0329507617983,0.0
1524842980660334110,16.7305335404,-0.033123365172,0.0
1524842980701735973,16.7406069968,-0.0332964108253,0.0
1524842980740226984,16.750680576,-0.0334698987586,0.0
1524842980740355014,16.760754278,-0.0336438289723,0.0
1524842980781347036,16.770828103,-0.0338182014667,0.0
1524842980781897068,16.7809020507,-0.033993016242,0.0
1524842980820141077,16.7909761214,-0.0341682732987,0.0
1524842980823786020,16.8010503149,-0.0343439726371,0.0
1524842980860316991,16.8111246312,-0.0345201142576,0.0
1524842980901695013,16.8211990705,-0.0346966981604,0.0
1524842980940361976,16.8312736325,-0.0348737243458,0.0
1524842980940553903,16.8413483174,-0.0350511928143,0.0
1524842980981887102,16.8514231252,-0.0352291035662,0.0
1524842980982492923,16.8614980558,-0.0354074566018,0.0
1524842981020574092,16.8715731093,-0.0355862519214,0.0
1524842981024924993,16.8816482856,-0.0357654895254,0.0
1524842981065232038,16.8917235848,-0.0359451694141,0.0
1524842981103935956,16.9017990068,-0.0361252915879,0.0
1524842981103995084,16.9118745517,-0.036305856047,0.0
1524842981144346952,16.9219502194,-0.0364868627919,0.0
1524842981154648065,16.9320260099,-0.0366683118228,0.0
1524842981192060947,16.9421019233,-0.0368502031401,0.0
1524842981233516931,16.9521779595,-0.0370325367441,0.0
1524842981234232902,16.9622541186,-0.0372153126352,0.0
1524842981272538900,16.9723304005,-0.0373985308137,0.0
1524842981277053117,16.9824068052,-0.0375821912799,0.0
1524842981316382884,16.9924833328,-0.0377662940342,0.0
1524842981356169939,17.0025599832,-0.0379508390769,0.0
1524842981396286010,17.0126367565,-0.0381358264084,0.0
1524842981396392107,17.0227136525,-0.0383212560289,0.0
1524842981436218023,17.0327906714,-0.0385071279389,0.0
1524842981436448097,17.0428678132,-0.0386934421386,0.0
1524842981476135015,17.0529450777,-0.0388801986283,0.0
1524842981478801965,17.0630224651,-0.0390673974085,0.0
1524842981516942024,17.0730999753,-0.0392550384795,0.0
1524842981558207988,17.0831776084,-0.0394431218416,0.0
1524842981558506965,17.0932553642,-0.0396316474951,0.0
1524842981595980882,17.1033332429,-0.0398206154403,0.0
1524842981604877948,17.1134112444,-0.0400100256777,0.0
1524842981645245075,17.1234893687,-0.0401998782075,0.0
1524842981684288024,17.1335676159,-0.0403901730301,0.0
1524842981724199056,17.1436459858,-0.0405809101458,0.0
1524842981724303960,17.1537244786,-0.0407720895549,0.0
1524842981764106988,17.1638030942,-0.0409637112579,0.0
1524842981764200925,17.1738818326,-0.0411557752549,0.0
1524842981805644989,17.1839606938,-0.0413482815464,0.0
1524842981807967901,17.1940396779,-0.0415412301327,0.0
1524842981848475933,17.2041187847,-0.0417346210141,0.0
1524842981888264894,17.2141980143,-0.041928454191,0.0
1524842981888417005,17.2242773668,-0.0421227296637,0.0
1524842981929821968,17.2343568421,-0.0423174474325,0.0
1524842981935065984,17.2444364401,-0.0425126074978,0.0
1524842981973609924,17.254516161,-0.0427082098599,0.0
1524842982012361049,17.2645960047,-0.0429042545192,0.0
1524842982012505054,17.2746759711,-0.0431007414759,0.0
1524842982052174091,17.2847560604,-0.0432976707304,0.0
1524842982061445951,17.2948362725,-0.0434950422831,0.0
1524842982105041980,17.3049166074,-0.0436928561343,0.0
1524842982144366025,17.3149970651,-0.0438911122843,0.0
1524842982144531011,17.3250776455,-0.0440898107334,0.0
1524842982185591936,17.3351583488,-0.0442889514821,0.0
1524842982187784910,17.3452391748,-0.0444885345306,0.0
1524842982224104881,17.3553201237,-0.0446885598792,0.0
1524842982264341115,17.3654011953,-0.0448890275284,0.0
1524842982264642000,17.3754823898,-0.0450899374784,0.0
1524842982305442094,17.385563707,-0.0452912897296,0.0
1524842982312535047,17.395645147,-0.0454930842822,0.0
1524842982352534055,17.4057267098,-0.0456953211368,0.0
1524842982393467903,17.4158083954,-0.0458980002935,0.0
1524842982393661975,17.4258902037,-0.0461011217527,0.0
1524842982432264089,17.4359721349,-0.0463046855148,0.0
1524842982437164068,17.4460541888,-0.04650869158,0.0
1524842982476222991,17.4561363655,-0.0467131399488,0.0
1524842982517307043,17.466218665,-0.0469180306215,0.0
1524842982517724037,17.4763010873,-0.0471233635984,0.0
1524842982556020021,17.4863836323,-0.0473291388798,0.0
1524842982563160896,17.4964663001,-0.047535356466,0.0
1524842982600186109,17.5065490907,-0.0477420163575,0.0
1524842982640206098,17.5166320041,-0.0479491185545,0.0
1524842982640321016,17.5267150402,-0.0481566630574,0.0
1524842982680078029,17.5367981991,-0.0483646498665,0.0
1524842982691921949,17.5468814808,-0.0485730789821,0.0
1524842982729198932,17.5569648853,-0.0487819504047,0.0
1524842982770291090,17.5670484125,-0.0489912641344,0.0
1524842982770379066,17.5771320624,-0.0492010201717,0.0
1524842982808094978,17.5872158352,-0.049411218517,0.0
1524842982816272020,17.5972997307,-0.0496218591704,0.0
1524842982852104902,17.607383749,-0.0498329421324,0.0
1524842982892318010,17.61746789,-0.0500444674033,0.0
1524842982892445087,17.6275521538,-0.0502564349834,0.0
1524842982933610916,17.6376365404,-0.0504688448731,0.0
1524842982941560983,17.6477210497,-0.0506816970728,0.0
1524842982980664968,17.6578056817,-0.0508949915826,0.0
1524842983021425008,17.6678904366,-0.0511087284031,0.0
1524842983021869897,17.6779753141,-0.0513229075344,0.0
1524842983060235977,17.6880603145,-0.051537528977,0.0
1524842983067585945,17.6981454376,-0.0517525927312,0.0
1524842983104216098,17.7082306834,-0.0519680987973,0.0
1524842983144280910,17.718316052,-0.0521840471757,0.0
1524842983144505023,17.7284015433,-0.0524004378667,0.0
1524842983184253931,17.7384871574,-0.0526172708706,0.0
1524842983193212985,17.7485728942,-0.0528345461878,0.0
1524842983233329057,17.7586587538,-0.0530522638186,0.0
1524842983272144079,17.7687447361,-0.0532704237633,0.0
1524842983312155961,17.7788308411,-0.0534890260223,0.0
1524842983312288999,17.7889170689,-0.0537080705959,0.0
1524842983352070093,17.7990034195,-0.0539275574844,0.0
1524842983352171897,17.8090898928,-0.0541474866882,0.0
1524842983392002105,17.8191764888,-0.0543678582077,0.0
1524842983398119926,17.8292632075,-0.0545886720431,0.0
1524842983436131000,17.839350049,-0.0548099281948,0.0
1524842983476278066,17.8494370132,-0.0550316266631,0.0
1524842983476387977,17.8595241002,-0.0552537674483,0.0
1524842983517092943,17.8696113099,-0.0554763505509,0.0
1524842983522866964,17.8796986423,-0.0556993759711,0.0
1524842983560233116,17.8897860974,-0.0559228437093,0.0
1524842983601243019,17.8998736753,-0.0561467537658,0.0
1524842983640655040,17.9099613759,-0.0563711061409,0.0
1524842983640737056,17.9200491992,-0.056595900835,0.0
1524842983680373907,17.9301371453,-0.0568211378484,0.0
1524842983680557012,17.940225214,-0.0570468171814,0.0
1524842983720283031,17.9503134055,-0.0572729388345,0.0
1524842983724997043,17.9604017197,-0.0574995028078,0.0
1524842983764522075,17.9704901567,-0.0577265091018,0.0
1524842983805488109,17.9805787163,-0.0579539577168,0.0
1524842983805612087,17.9906673987,-0.0581818486531,0.0
1524842983844067096,18.0007562038,-0.0584101819111,0.0
1524842983848726987,18.0108451316,-0.0586389574911,0.0
1524842983889120101,18.0209341821,-0.0588681753934,0.0
1524842983928153991,18.0310233553,-0.0590978356184,0.0
1524842983928278923,18.0411126513,-0.0593279381664,0.0
1524842983969332933,18.0512020699,-0.0595584830377,0.0
1524842983975229024,18.0612916113,-0.0597894702327,0.0
1524842984012248039,18.0713812754,-0.0600208997518,0.0
1524842984052063941,18.0814710621,-0.0602527715951,0.0
1524842984052187919,18.0915609716,-0.0604850857632,0.0
1524842984092122077,18.1016510038,-0.0607178422563,0.0
1524842984103399991,18.1117411587,-0.0609510410747,0.0
1524842984140223979,18.1218314363,-0.0611846822188,0.0
1524842984180867910,18.1319218366,-0.061418765689,0.0
1524842984181317090,18.1420123595,-0.0616532914855,0.0
1524842984220155954,18.1521030052,-0.0618882596087,0.0
1524842984227368116,18.1621937736,-0.0621236700589,0.0
1524842984264755010,18.1722846647,-0.0623595228366,0.0
1524842984305416107,18.1823756785,-0.0625958179419,0.0
1524842984305983066,18.1924668149,-0.0628325553752,0.0
1524842984344595909,18.2025580741,-0.063069735137,0.0
1524842984355062007,18.212649456,-0.0633073572274,0.0
1524842984392077922,18.2227409605,-0.0635454216469,0.0
1524842984433005094,18.2328325877,-0.0637839283958,0.0
1524842984433412075,18.2429243377,-0.0640228774744,0.0
1524842984472023010,18.2530162103,-0.0642622688831,0.0
1524842984479903936,18.2631082056,-0.0645021026222,0.0
1524842984518208980,18.2732003235,-0.0647423786919,0.0
1524842984556401014,18.2832925642,-0.0649830970928,0.0
1524842984556557893,18.2933849275,-0.065224257825,0.0
1524842984596200942,18.3034774136,-0.065465860889,0.0
1524842984607211112,18.3135700223,-0.0657079062851,0.0
1524842984644081115,18.3236627536,-0.0659503940135,0.0
1524842984685376882,18.3337556077,-0.0661933240747,0.0
1524842984685808897,18.3438485844,-0.066436696469,0.0
1524842984723983049,18.3539416838,-0.0666805111967,0.0
1524842984734527111,18.3640349059,-0.0669247682581,0.0
1524842984772607088,18.3741282507,-0.0671694676536,0.0
1524842984812838077,18.3842217181,-0.0674146093836,0.0
1524842984812917947,18.3943153082,-0.0676601934483,0.0
1524842984853065967,18.4044090209,-0.0679062198481,0.0
1524842984855604887,18.4145028564,-0.0681526885833,0.0
1524842984892771005,18.4245968145,-0.0683995996543,0.0
1524842984932440996,18.4346908952,-0.0686469530613,0.0
1524842984972256898,18.4447850986,-0.0688947488049,0.0
1524842984972398996,18.4548794247,-0.0691429868851,0.0
1524842985012931108,18.4649738735,-0.0693916673025,0.0
1524842985013415098,18.4750684449,-0.0696407900574,0.0
1524842985052207946,18.485163139,-0.06989035515,0.0
1524842985056900978,18.4952579557,-0.0701403625807,0.0
1524842985096043109,18.5053528951,-0.0703908123499,0.0
1524842985137159109,18.5154479571,-0.0706417044578,0.0
