%time;field.header.seq;field.header.stamp;field.header.frame_id;field.child_frame_id;field.pose.pose.position.x;field.pose.pose.position.y;field.pose.pose.position.z;field.pose.pose.orientation.x;field.pose.pose.orientation.y;field.pose.pose.orientation.z;field.pose.pose.orientation.w;field.pose.covariance0;field.pose.covariance1;field.pose.covariance2;field.pose.covariance3;field.pose.covariance4;field.pose.covariance5;field.pose.covariance6;field.pose.covariance7;field.pose.covariance8;field.pose.covariance9;field.pose.covariance10;field.pose.covariance11;field.pose.covariance12;field.pose.covariance13;field.pose.covariance14;field.pose.covariance15;field.pose.covariance16;field.pose.covariance17;field.pose.covariance18;field.pose.covariance19;field.pose.covariance20;field.pose.covariance21;field.pose.covariance22;field.pose.covariance23;field.pose.covariance24;field.pose.covariance25;field.pose.covariance26;field.pose.covariance27;field.pose.covariance28;field.pose.covariance29;field.pose.covariance30;field.pose.covariance31;field.pose.covariance32;field.pose.covariance33;field.pose.covariance34;field.pose.covariance35;field.twist.twist.linear.x;field.twist.twist.linear.y;field.twist.twist.linear.z;field.twist.twist.angular.x;field.twist.twist.angular.y;field.twist.twist.angular.z;field.twist.covariance0;field.twist.covariance1;field.twist.covariance2;field.twist.covariance3;field.twist.covariance4;field.twist.covariance5;field.twist.covariance6;field.twist.covariance7;field.twist.covariance8;field.twist.covariance9;field.twist.covariance10;field.twist.covariance11;field.twist.covariance12;field.twist.covariance13;field.twist.covariance14;field.twist.covariance15;field.twist.covariance16;field.twist.covariance17;field.twist.covariance18;field.twist.covariance19;field.twist.covariance20;field.twist.covariance21;field.twist.covariance22;field.twist.covariance23;field.twist.covariance24;field.twist.covariance25;field.twist.covariance26;field.twist.covariance27;field.twist.covariance28;field.twist.covariance29;field.twist.covariance30;field.twist.covariance31;field.twist.covariance32;field.twist.covariance33;field.twist.covariance34;field.twist.covariance35
36914000000;0;36914000000;map;base_link;5.09731724731;-0.00120957917214;-0.00132753501662;-7.32739234891e-19;-1.52869478494e-20;0.00242950790769;0.999997048741;0.000499999974999;7.85463387185e-08;7.98454556477e-10;0.0;0.0;0.0;7.85463387185e-08;0.000253220740961;-4.20482471095e-06;0.0;0.0;0.0;7.98454556477e-10;-4.20482471095e-06;2.53381088377e-07;0.0;0.0;0.0;0.0;0.0;0.0;5e-07;6.35274710441e-22;-9.65216377273e-22;0.0;0.0;0.0;6.2865726554e-22;5e-07;-3.24230369414e-21;0.0;0.0;0.0;-9.65112979696e-22;-2.39527077213e-21;0.0005;0.0;0.0;0.0;0.0;0.0;0.0;1e-09;0.0;0.0;0.0;0.0;0.0;0.0;1e-09;0.0;0.0;0.0;0.0;0.0;0.0;5e-07;0.0;0.0;0.0;0.0;0.0;0.0;5e-07;0.0;0.0;0.0;0.0;0.0;0.0;5e-07;0.0;0.0;0.0;0.0;0.0;0.0;1e-09
36914000000;1;36914000000;map;base_link;5.09731761983;-0.00317136576398;-0.000933112187402;-3.66369617445e-19;-7.6434739247e-21;0.00242950790769;0.999997048741;0.000249999987365;3.9979555854e-08;3.35988557559e-10;0.0;0.0;0.0;3.9979555854e-08;0.00012289039498;-1.76938434124e-06;0.0;0.0;0.0;3.35988557559e-10;-1.76938434124e-06;1.58402804933e-07;0.0;0.0;0.0;0.0;0.0;0.0;2.5e-07;1.98523347013e-22;-3.61956141477e-22;0.0;0.0;0.0;1.96455395481e-22;2.5e-07;-1.2158638853e-21;0.0;0.0;0.0;-3.61917367386e-22;-8.98226539549e-22;0.00025;0.0;0.0;0.0;0.0;0.0;0.0;1e-09;0.0;0.0;0.0;0.0;0.0;0.0;1e-09;0.0;0.0;0.0;0.0;0.0;0.0;2.5e-07;0.0;0.0;0.0;0.0;0.0;0.0;2.5e-07;0.0;0.0;0.0;0.0;0.0;0.0;2.5e-07;0.0;0.0;0.0;0.0;0.0;0.0;1e-09
36914000000;2;36914000000;map;base_link;5.09731774193;-0.00381438974918;-0.000726833588626;-2.4424641163e-19;-5.09564928313e-21;0.00242950790769;0.999997048741;0.000124999993658;2.0121336696e-08;1.48705700565e-10;0.0;0.0;0.0;2.0121336696e-08;6.07523821526e-05;-7.83114579688e-07;0.0;0.0;0.0;1.48705700565e-10;-7.83114579688e-07;1.14816875639e-07;0.0;0.0;0.0;0.0;0.0;0.0;1.66666666667e-07;9.37471360893e-23;-1.50815058949e-22;0.0;0.0;0.0;9.27706034217e-23;1.66666666667e-07;-5.0660995221e-22;0.0;0.0;0.0;-1.50798903078e-22;-3.74261058145e-22;0.000125;0.0;0.0;0.0;0.0;0.0;0.0;1e-09;0.0;0.0;0.0;0.0;0.0;0.0;1e-09;0.0;0.0;0.0;0.0;0.0;0.0;1.66666666667e-07;0.0;0.0;0.0;0.0;0.0;0.0;1.66666666667e-07;0.0;0.0;0.0;0.0;0.0;0.0;1.66666666667e-07;0.0;0.0;0.0;0.0;0.0;0.0;1e-09
36914000000;3;36914000000;map;base_link;5.09731778637;-0.00404841527991;-0.000597678901151;-1.83184808723e-19;-3.82173696235e-21;0.00242950790769;0.999997048741;6.24999968239e-05;1.00871410711e-08;6.76088117491e-11;0.0;0.0;0.0;1.00871410711e-08;3.02367803116e-05;-3.5604180603e-07;0.0;0.0;0.0;6.76088117491e-11;-3.5604180603e-07;9.07031607765e-08;0.0;0.0;0.0;0.0;0.0;0.0;1.25e-07;5.41975630517e-23;-6.59815882901e-23;0.0;0.0;0.0;5.36330051032e-23;1.25e-07;-2.21641854092e-22;0.0;0.0;0.0;-6.59745200964e-23;-1.63739212939e-22;6.25e-05;0.0;0.0;0.0;0.0;0.0;0.0;1e-09;0.0;0.0;0.0;0.0;0.0;0.0;1e-09;0.0;0.0;0.0;0.0;0.0;0.0;1.25e-07;0.0;0.0;0.0;0.0;0.0;0.0;1.25e-07;0.0;0.0;0.0;0.0;0.0;0.0;1.25e-07;0.0;0.0;0.0;0.0;0.0;0.0;1e-09
36992000000;4;36992000000;map;base_link;5.09735163163;-0.00236736333632;-0.00058616401831;-6.35039692083e-20;-1.24934024345e-21;0.00204149626435;0.999997916144;2.94117686202e-05;4.69320295528e-09;1.10861021349e-11;0.0;0.0;0.0;4.69320295528e-09;1.43686760507e-05;-1.03869195092e-07;0.0;0.0;0.0;1.10861021349e-11;-1.03869195092e-07;6.32034454694e-08;0.0;0.0;0.0;0.0;0.0;0.0;8.37503857147e-08;3.12847360052e-23;1.39176838921e-22;0.0;0.0;0.0;3.12160750311e-23;8.37503857147e-08;-7.80495614335e-23;0.0;0.0;0.0;1.39180859243e-22;-6.59795964167e-23;2.94117700952e-05;1.24747560352e-10;8.51379122744e-09;-3.66270259672e-07;7.63159488357e-22;-5.36570015954e-25;-1.93695859855e-09;7.80100608399e-06;-1.41295714661e-20;3.89664038252e-18;0.0;0.0;0.0;-1.41295714661e-20;7.80100608398e-06;8.76453958015e-16;0.0;0.0;0.0;3.89664038252e-18;8.76453958015e-16;4.70239766547e-07;0.0;0.0;0.0;0.0;0.0;0.0;4.70237736329e-07;1.67188089199e-28;1.86809540156e-30;0.0;0.0;0.0;1.71268178304e-28;4.70237736329e-07;-3.69114011353e-32;0.0;0.0;0.0;1.86766060089e-30;-1.30091026583e-31;7.80099999999e-06
36992000000;5;36992000000;map;base_link;5.09735163451;-0.00239441463066;-0.000520872186038;-5.43932299847e-20;-1.0700990917e-21;0.00204149626435;0.999997916144;1.47058843101e-05;2.34687328735e-09;5.2334905113e-12;0.0;0.0;0.0;2.34687328735e-09;7.18179142842e-06;-4.90340869327e-08;0.0;0.0;0.0;5.2334905113e-12;-4.90340869327e-08;5.58504342129e-08;0.0;0.0;0.0;0.0;0.0;0.0;7.17346453869e-08;2.31128670634e-23;6.45963872778e-23;0.0;0.0;0.0;2.30621406088e-23;7.17346453869e-08;-3.62253643472e-23;0.0;0.0;0.0;6.45982532399e-23;-3.06232893633e-23;1.47058850476e-05;1.27532674677e-10;9.11971224395e-09;2.10833140517e-08;4.36627339754e-22;2.77014117703e-25;-1.93695859855e-09;7.8010060839e-06;-4.90505667925e-19;-9.66591948425e-19;0.0;0.0;0.0;-4.90505667925e-19;7.80100608379e-06;-2.02444493e-16;0.0;0.0;0.0;-9.66591948425e-19;-2.02444493e-16;2.42331658908e-07;0.0;0.0;0.0;0.0;0.0;0.0;2.42331125061e-07;5.55356613436e-29;4.15601313984e-31;0.0;0.0;0.0;5.65416946554e-29;2.42331125061e-07;-1.23839042307e-31;0.0;0.0;0.0;4.15632485542e-31;-1.18989939425e-31;7.8009999999e-06
36992000000;6;36992000000;map;base_link;5.09735163574;-0.00240590667086;-0.000468736295725;-4.75686442369e-20;-9.35835839046e-22;0.00204149626435;0.999997916144;7.35294215504e-06;1.17349758435e-09;2.48560301206e-12;0.0;0.0;0.0;1.17349758435e-09;3.59032475038e-06;-2.32883119504e-08;0.0;0.0;0.0;2.48560301206e-12;-2.32883119504e-08;5.01178614009e-08;0.0;0.0;0.0;0.0;0.0;0.0;6.27341824343e-08;1.77678139245e-23;3.02719740875e-23;0.0;0.0;0.0;1.77288182098e-23;6.27341824343e-08;-1.69764004225e-23;0.0;0.0;0.0;3.02728485387e-23;-1.43510821357e-23;7.35294252379e-06;1.30005950356e-10;9.65722417019e-09;1.27297934832e-07;3.15959861514e-22;4.65858287868e-25;-1.93695859855e-09;7.80100608385e-06;-7.3062591312e-19;-1.97987089951e-18;0.0;0.0;0.0;-7.3062591312e-19;7.80100608369e-06;-4.27486741991e-16;0.0;0.0;0.0;-1.97987089951e-18;-4.27486741991e-16;1.63223282108e-07;0.0;0.0;0.0;0.0;0.0;0.0;1.63223043321e-07;2.91475289241e-29;1.03936196433e-31;0.0;0.0;0.0;2.9496677943e-29;1.63223043321e-07;-1.3835543817e-31;0.0;0.0;0.0;1.04063928378e-31;-1.13156977088e-31;7.80099999985e-06
36992000000;7;36992000000;map;base_link;5.09735163627;-0.00241086843789;-0.000426116012189;-4.2265665519e-20;-8.31508102815e-22;0.00204149626435;0.999997916144;3.67647107752e-06;5.86762605319e-10;1.18626031983e-12;0.0;0.0;0.0;5.86762605319e-10;1.7950329569e-06;-1.1114400682e-08;0.0;0.0;0.0;1.18626031983e-12;-1.1114400682e-08;4.5495600122e-08;0.0;0.0;0.0;0.0;0.0;0.0;5.57404995664e-08;1.4082291515e-23;1.42922955466e-23;0.0;0.0;0.0;1.40513845289e-23;5.57404995664e-08;-8.01506439034e-24;0.0;0.0;0.0;1.4292708401e-23;-6.77557314536e-24;3.6764712619e-06;1.32137155923e-10;1.01201713592e-08;1.65749842675e-07;2.51010581162e-22;5.14808018646e-25;-1.93695859855e-09;7.80100608383e-06;-8.52088338094e-19;-2.17444900488e-18;0.0;0.0;0.0;-8.52088338094e-19;7.80100608364e-06;-4.71254338123e-16;0.0;0.0;0.0;-2.17444900488e-18;-4.71254338123e-16;1.23053027696e-07;0.0;0.0;0.0;0.0;0.0;0.0;1.23052894071e-07;1.87801817172e-29;1.33294472139e-32;0.0;0.0;0.0;1.8943576791e-29;1.23052894071e-07;-1.35157739747e-31;0.0;0.0;0.0;1.34772795392e-32;-1.05637563388e-31;7.80099999983e-06
37126000000;8;37126000000;map;base_link;5.09741766949;-0.00232137006724;-0.000407461983079;-5.94418092488e-14;1.85207300978e-14;0.00201563150239;0.999997968613;1.9711390882e-06;2.90800918991e-10;2.42732136934e-12;4.46489882421e-18;1.09252068968e-15;-2.5768256108e-15;2.90800918991e-10;1.03537071936e-06;-3.72047879432e-09;-1.09172009308e-15;4.43624955498e-18;2.23365187166e-17;2.42732136934e-12;-3.72047879432e-09;3.94275950515e-08;5.70775386889e-17;-7.36362317268e-19;2.18761484428e-20;4.46489882421e-18;-1.09172009308e-15;5.70775386889e-17;4.70385341488e-08;2.47193627285e-24;4.41005627674e-23;1.09252068968e-15;4.43624955498e-18;-7.36362317268e-19;2.4516627448e-24;4.70385341488e-08;-3.12094224936e-24;-2.5768256108e-15;2.23365187166e-17;2.18761484428e-20;4.41006629398e-23;-2.58987183973e-24;1.97051503104e-06;3.55522570728e-05;9.09404784836e-05;-1.74355839447e-07;1.08042451553e-16;-3.43836083906e-17;-2.73357032335e-05;2.13388856104e-05;-1.72804518444e-12;5.95674603926e-14;-4.02952010003e-25;2.09855938068e-21;-1.13500921263e-20;-1.72804518444e-12;2.1338529999e-05;1.22920576001e-11;-3.93592093179e-21;3.67093902655e-23;1.58935169003e-22;5.95674603926e-14;1.22920576001e-11;4.82143021184e-07;7.11851430124e-23;-1.10353052039e-24;-4.96892860846e-25;-4.02952010003e-25;-3.93592093179e-21;7.11851430124e-23;4.82140854843e-07;-5.67745624261e-28;1.83336571868e-25;2.09855938068e-21;3.67093902655e-23;-1.10353052039e-24;-5.68300126646e-28;4.82140854843e-07;6.16470579977e-28;-1.13500921263e-20;1.58935169003e-22;-4.96892860846e-25;1.83336206847e-25;6.17621112351e-28;2.11988231473e-05
37126000000;9;37126000000;map;base_link;5.09741766995;-0.00232207265643;-0.000377686765208;-3.6057509124e-14;1.67202551132e-14;0.00201563150239;0.999997968613;9.855695441e-07;1.45402634602e-10;1.16930895652e-12;2.1364121277e-18;5.22774820568e-16;-1.28841280541e-15;1.45402634602e-10;5.17682025544e-07;-1.79226933142e-09;-5.22304437516e-16;2.12160772077e-18;1.11682789611e-17;1.16930895652e-12;-1.79226933142e-09;3.65403061753e-08;4.69257936303e-17;-6.19583957035e-19;1.05383446485e-20;2.1364121277e-18;-5.22304437516e-16;4.69257936303e-17;4.2993646102e-08;2.07055479816e-24;2.11021906046e-23;5.22774820568e-16;2.12160772077e-18;-6.19583957035e-19;2.05358052788e-24;4.2993646102e-08;-1.49338197563e-24;-1.28841280541e-15;1.11682789611e-17;1.05383446485e-20;2.11022385377e-23;-1.23926299017e-24;9.8525751552e-07;3.55640777501e-05;9.39352599062e-05;7.83134073184e-08;6.328371203e-17;-3.19213374613e-17;-2.73357032336e-05;2.10589184463e-05;-9.61570776054e-10;3.09484359261e-15;2.06298844028e-22;3.11611246499e-19;-3.65701933145e-16;-9.61570776054e-10;2.08039950362e-05;4.49333758136e-14;-5.93178986377e-19;3.47492482113e-21;7.63091256711e-18;3.09484359261e-15;4.49333758135e-14;2.45454497162e-07;5.48582580765e-23;-9.2914970029e-25;3.40982140276e-23;2.06298844028e-22;-5.93178986377e-19;5.48582580765e-23;2.45453939015e-07;-1.51382667234e-28;4.63890644058e-26;3.11611246499e-19;3.47492482113e-21;-9.2914970029e-25;-1.51552722044e-28;2.45453939015e-07;-4.88775140113e-28;-3.65701933145e-16;7.63091256711e-18;3.40982140276e-23;4.63896714706e-26;-3.31419260002e-28;2.09237334541e-05
37126000000;10;37126000000;map;base_link;5.09741767015;-0.00232238806785;-0.000351967949679;-1.87410436276e-14;1.52305286862e-14;0.00201563150239;0.999997968613;4.9278477205e-07;7.27018233825e-11;5.64746807441e-13;1.0258934361e-18;2.51039281872e-16;-6.4420640271e-16;7.27018233825e-11;2.58840237049e-07;-8.6562259959e-10;-2.50777899854e-16;1.01833252667e-18;5.58414404156e-18;5.64746807441e-13;-8.6562259959e-10;3.404923093e-08;3.96157312795e-17;-5.29956242364e-19;5.0897535524e-21;1.0258934361e-18;-2.50777899854e-16;3.96157312795e-17;3.95894105003e-08;1.75931198979e-24;1.01333732618e-23;2.51039281872e-16;1.01833252667e-18;-5.29956242364e-19;1.7448926148e-24;3.95894105003e-08;-7.17130156341e-25;-6.4420640271e-16;5.58414404156e-18;5.0897535524e-21;1.01333962795e-23;-5.95100850609e-25;4.9262875776e-07;3.55753525804e-05;9.68183555199e-05;1.49329858575e-07;3.03130842719e-17;-2.92530220555e-17;-2.73357032336e-05;2.09189348639e-05;-1.44158113168e-09;-9.47656054677e-15;2.59727109252e-22;3.88573179999e-19;-5.48547223616e-16;-1.44158113168e-09;2.05367044574e-05;-2.68796337493e-12;-7.39472189173e-19;4.32714669907e-21;1.14465628185e-17;-9.47656054677e-15;-2.68796337493e-12;1.64634089348e-07;4.42940279092e-23;-7.68166365129e-25;4.21963265136e-23;2.59727109252e-22;-7.39472189173e-19;4.42940279092e-23;1.64633840386e-07;-6.05491922842e-29;1.65440837102e-26;3.88573179999e-19;4.32714669907e-21;-7.68166365129e-25;-6.06804283823e-29;1.64633840386e-07;-7.38666088771e-28;-5.48547223616e-16;1.14465628185e-17;4.21963265136e-23;1.65449158934e-26;-5.44199211029e-28;2.07861886075e-05
37126000000;11;37126000000;map;base_link;5.09741767025;-0.00232253069201;-0.000329528961705;-5.6928833155e-15;1.39786421655e-14;0.00201563150239;0.999997968613;2.46392386025e-07;3.63510300088e-11;2.73371998843e-13;4.94119834861e-19;1.20914999525e-16;-3.22103201356e-16;3.63510300088e-11;1.29419937169e-07;-4.19014664914e-10;-1.20774353475e-16;4.9028894763e-19;2.79207308711e-18;2.73371998843e-13;-4.19014664914e-10;3.18771578423e-08;3.40776703605e-17;-4.5918125028e-19;2.46375162556e-21;4.94119834861e-19;-1.20774353475e-16;3.40776703605e-17;3.66847351561e-08;1.51319899042e-24;4.88081421723e-24;1.20914999525e-16;4.9028894763e-19;-4.5918125028e-19;1.50079840072e-24;3.66847351561e-08;-3.45411273164e-25;-3.22103201356e-16;2.79207308711e-18;2.46375162556e-21;4.8808253039e-24;-2.86634919853e-25;2.4631437888e-07;3.55856737346e-05;9.94685438846e-05;1.75878871189e-07;5.53195181516e-18;-2.68733434317e-17;-2.73357032336e-05;2.08489430725e-05;-1.68165568514e-09;-1.29152189599e-14;2.70478471089e-22;4.02124422101e-19;-6.39969868031e-16;-1.68165568514e-09;2.04030411715e-05;-3.41951139003e-12;-7.65049093441e-19;4.4743158479e-21;1.33546005349e-17;-1.29152189599e-14;-3.41951139003e-12;1.23853161343e-07;3.71178386458e-23;-6.49535705372e-25;4.3500371383e-23;2.70478471089e-22;-7.65049093441e-19;3.71178386458e-23;1.23853021857e-07;-2.94541060141e-29;7.4487290068e-27;4.02124422101e-19;4.4743158479e-21;-6.49535705372e-25;-2.95866828772e-29;1.23853021857e-07;-7.90909178183e-28;-6.39969868031e-16;1.33546005349e-17;4.3500371383e-23;7.44960441662e-27;-5.90797652029e-28;2.07174161842e-05
37275000000;12;37275000000;map;base_link;5.09745359352;-0.00216665173741;-1.31471803686e-05;2.24046799747e-09;-7.77786738472e-10;0.00201906440745;0.999997961687;6.10159604738e-07;2.08009048169e-11;-1.51299521617e-13;3.49763570869e-19;8.85949230857e-16;-2.02446757567e-12;2.08009048169e-11;5.41948953185e-07;1.63016065219e-09;1.88755943374e-14;-6.88439125308e-15;6.99339929836e-13;-1.51299521617e-13;1.63016065219e-09;3.26751977149e-08;4.93436943254e-13;-1.72416059318e-13;1.67910761405e-15;3.49763570869e-19;1.88755943374e-14;4.93436943254e-13;3.39177731762e-08;-3.86847339867e-20;3.65874029285e-20;8.85949230857e-16;-6.88439125308e-15;-1.72416059318e-13;-3.86847430776e-20;3.39177731761e-08;-1.25438218065e-20;-2.02446757567e-12;6.99339929836e-13;1.67910761405e-15;3.65874029497e-20;-1.25438216973e-20;6.0101072686e-07;0.000201685690561;0.000939150947941;4.46976055334e-06;-3.99454079395e-12;1.41382833421e-12;2.9870066689e-05;3.64647574437e-05;-1.72479310963e-09;4.43420521567e-13;-3.96955039181e-19;5.13635171217e-19;5.65476810306e-15;-1.72479310963e-09;3.6006495556e-05;1.15027337336e-10;-1.03744367117e-16;3.64762546247e-17;7.62923441961e-16;4.43420521567e-13;1.15027337336e-10;4.83872591213e-07;-9.84590446918e-20;3.48582124697e-20;1.22361125651e-17;-3.96955039181e-19;-1.03744367117e-16;-9.84590446918e-20;4.83869774313e-07;-3.06571644778e-26;-8.17508567271e-23;5.13635171217e-19;3.64762546247e-17;3.48582124697e-20;-3.06577789478e-26;4.83869774313e-07;2.74798773228e-23;5.65476810306e-15;7.62923441961e-16;1.22361125651e-17;-8.17508542165e-23;2.74800530755e-23;3.55632484787e-05
37275000000;13;37275000000;map;base_link;5.09745359352;-0.00216664172192;-1.23429066945e-05;2.10375127737e-09;-7.30325022276e-10;0.00201906440746;0.999997961687;3.05079802369e-07;1.04005121931e-11;-7.33289371716e-14;2.02174161077e-19;4.28893135458e-16;-1.01223378777e-12;1.04005121931e-11;2.7097383252e-07;7.90078315492e-10;8.78411906049e-15;-3.20920039878e-15;3.49669301483e-13;-7.33289371716e-14;7.90078315492e-10;3.06686067049e-08;4.34206038528e-13;-1.5171932083e-13;8.13799900314e-16;2.02174161077e-19;8.78411906049e-15;4.34206038528e-13;3.17629276938e-08;1.01511697006e-19;1.73481144166e-20;4.28893135458e-16;-3.20920039878e-15;-1.5171932083e-13;1.01511689024e-19;3.1762927694e-08;-5.94532483765e-21;-1.01223378777e-12;3.49669301483e-13;8.13799900314e-16;1.73481144268e-20;-5.94532478477e-21;3.0050536343e-07;0.000201686069025;0.000939251134289;2.27768135314e-06;-3.94317274768e-12;1.39566177062e-12;2.98700667314e-05;2.7902982501e-05;-4.25661919806e-09;1.05718186337e-13;-1.25705698105e-19;2.95519580762e-18;-2.54363833801e-11;-4.25661919806e-09;2.67619032557e-05;2.73959953007e-11;-3.8502825706e-17;1.24702595517e-17;9.79218254149e-12;1.05718186337e-13;2.73959953007e-11;2.45901941195e-07;1.7281598761e-19;-6.11647681848e-20;2.40568105818e-18;-1.25705698105e-19;-3.8502825706e-17;1.7281598761e-19;2.45901234603e-07;1.25041736227e-25;-1.80560309431e-23;2.95519580762e-18;1.24702595517e-17;-6.11647681848e-20;1.25041447121e-25;2.45901234603e-07;1.46142529096e-23;-2.54363833801e-11;9.79218254149e-12;2.40568105818e-18;-1.80560298081e-23;1.461441717e-23;2.7344711291e-05
37342000000;14;37342000000;map;base_link;5.09748923754;-0.00202777782367;0.000246994682266;1.12046376008e-08;-2.84624996159e-09;0.00202684552175;0.999997945947;3.68004134437e-07;7.92393196628e-12;7.69653543328e-14;2.34259919318e-17;2.8717825278e-15;-1.35038093666e-11;7.92393196628e-12;3.4232362245e-07;1.08294953148e-09;3.50501077646e-14;-9.60498202299e-15;2.94446980816e-12;7.69653543328e-14;1.08294953148e-09;2.9854832333e-08;2.15629174901e-12;-5.12172803721e-13;4.31108122335e-15;2.34259919318e-17;3.50501077646e-14;2.15629174901e-12;2.88466071914e-08;-8.40909430973e-20;-2.01054654392e-16;2.8717825278e-15;-9.60498202299e-15;-5.12172803721e-13;-8.40909707003e-20;2.88466071909e-08;-5.83847031194e-16;-1.35038093666e-11;2.94446980816e-12;4.31108122335e-15;-2.01054654392e-16;-5.83847031204e-16;3.59596648134e-07;0.000352009574955;0.00145027587117;6.74150219429e-06;-2.94250153945e-11;7.91716175225e-12;0.000118148076843;3.08223991153e-05;-5.55005680562e-09;3.43697719912e-13;-1.32280850549e-18;5.44766569394e-18;-3.81999358388e-11;-5.55005680562e-09;2.93311663924e-05;7.79473319703e-11;-3.13710464073e-16;7.99161771472e-17;1.48118958768e-11;3.43697719912e-13;7.79473319703e-11;4.66058381676e-07;-4.64287148278e-19;1.12658562172e-19;3.82883270539e-16;-1.32280850549e-18;-3.13710464073e-16;-4.64287148278e-19;4.66053822644e-07;2.40288656126e-26;3.0752819508e-18;5.44766569394e-18;7.99161771472e-17;1.12658562172e-19;2.40152266721e-26;4.66053822644e-07;8.80553218191e-18;-3.81999358388e-11;1.48118958768e-11;3.82883270539e-16;3.0752819508e-18;8.80553218214e-18;2.99244755944e-05
37342000000;15;37342000000;map;base_link;5.09748923753;-0.00202790406592;0.000233074000961;1.01249687883e-08;-2.58072162539e-09;0.0020268455215;0.999997945947;1.84002067219e-07;3.96194572023e-12;3.73969060681e-14;1.13194716699e-17;1.39674948441e-15;-6.75190468336e-12;3.96194572023e-12;1.71161526259e-07;5.26216685658e-10;1.60045593679e-14;-4.42388688011e-15;1.47223376952e-12;3.73969060681e-14;5.26216685658e-10;2.81706744454e-08;1.92542905481e-12;-4.57335494787e-13;2.09478084874e-15;1.13194716699e-17;1.60045593679e-14;1.92542905481e-12;2.72726593502e-08;1.73526173021e-18;-9.7790295481e-17;1.39674948441e-15;-4.42388688011e-15;-4.57335494787e-13;1.73526170551e-18;2.72726593568e-08;-2.8396234968e-16;-6.75190468336e-12;1.47223376952e-12;2.09478084874e-15;-9.7790295481e-17;-2.83962349685e-16;1.79798324067e-07;0.000352007197039;0.00144966893594;3.30417332669e-06;-2.93543231268e-11;7.80188090604e-12;0.000118148070534;2.2874994177e-05;-4.81569412961e-09;8.46156343026e-14;-3.67534720315e-19;2.0724016593e-17;-1.46619518924e-10;-4.81569412961e-09;2.15816084434e-05;1.90685472174e-11;-1.21784627681e-16;2.45908673935e-17;3.78209254488e-11;8.46156343026e-14;1.90685472174e-11;2.41216170098e-07;2.17879984085e-18;-5.33475353679e-19;9.01273666236e-17;-3.67534720315e-19;-1.21784627681e-16;2.17879984085e-18;2.41214987855e-07;4.9770485499e-24;4.83491297208e-20;2.0724016593e-17;2.45908673935e-17;-5.33475353679e-19;4.97704518064e-24;2.41214987855e-07;1.40188058735e-19;-1.46619518924e-10;3.78209254488e-11;9.01273666236e-17;4.83491297229e-20;1.40188058899e-19;2.23053727443e-05
37342000000;16;37342000000;map;base_link;5.09748923753;-0.00202796212455;0.000220641683489;9.20373059871e-09;-2.35366376236e-09;0.00202684552138;0.999997945947;9.20010336094e-08;1.98096807058e-12;1.81995404259e-14;5.481025057e-18;6.8032146526e-16;-3.3759523417e-12;1.98096807059e-12;8.55806957474e-08;2.56091279917e-10;7.34021786764e-15;-2.04663980674e-15;7.36116616511e-13;1.81995404259e-14;2.56091279917e-10;2.66673002297e-08;1.72976843099e-12;-4.10860604365e-13;1.01945348925e-15;5.481025057e-18;7.34021786764e-15;1.72976843099e-12;2.58618593338e-08;3.02056516171e-18;-4.76325249621e-17;6.8032146526e-16;-2.04663980674e-15;-4.10860604365e-13;3.02056513949e-18;2.58618593456e-08;-1.38309093763e-16;-3.3759523417e-12;7.36116616511e-13;1.01945348925e-15;-4.76325249621e-17;-1.38309093765e-16;8.98991620334e-08;0.000352006581822;0.00144949491411;2.11740336583e-06;-2.75656611811e-11;7.31496168863e-12;0.000118148065093;1.8901291708e-05;-4.44848168406e-09;2.81279429098e-14;-5.56437264934e-20;2.53383289968e-17;-2.00829310329e-10;-4.44848168406e-09;1.77068371874e-05;6.28794902729e-12;-5.87421388862e-17;6.71035840281e-18;4.93254731141e-11;2.81279429098e-14;6.28794902729e-12;1.62716357597e-07;2.84341739298e-18;-6.93482967518e-19;2.21197216696e-17;-5.56437264934e-20;-5.87421388862e-17;2.84341739298e-18;1.62715834918e-07;8.55931192492e-24;-4.40261770465e-19;2.53383289968e-17;6.71035840281e-18;-6.93482967518e-19;8.55931064195e-24;1.62715834918e-07;-1.25921924018e-18;-2.00829310329e-10;4.93254731141e-11;2.21197216696e-17;-4.40261770464e-19;-1.25921924005e-18;1.84958213192e-05
37342000000;17;37342000000;map;base_link;5.09748923753;-0.00202798894752;0.000209469231294;8.41088067394e-09;-2.15783098965e-09;0.00202684552133;0.999997945947;4.60005168047e-08;9.90482899487e-13;8.86932907536e-15;2.65890676174e-18;3.31799689391e-16;-1.68797617085e-12;9.90482899487e-13;4.27903318928e-08;1.24803804956e-10;3.37979371415e-15;-9.50635915906e-16;3.68058244637e-13;8.86932907536e-15;1.24803804956e-10;2.53166216801e-08;1.56249165269e-12;-3.71128056608e-13;4.968208179e-16;2.65890676174e-18;3.37979371415e-15;1.56249165269e-12;2.45899060613e-08;3.92147601437e-18;-2.32314415661e-17;3.31799689391e-16;-9.50635915906e-16;-3.71128056608e-13;3.92147599427e-18;2.45899060766e-08;-6.74539186235e-17;-1.68797617085e-12;3.68058244637e-13;4.968208179e-16;-2.32314415661e-17;-6.74539186247e-17;4.49495810167e-08;0.000352006728192;0.00144950912846;1.52192637246e-06;-2.56044503776e-11;6.80008922204e-12;0.000118148060293;1.69144404736e-05;-4.26487057961e-09;1.13262316254e-14;5.99485079442e-20;2.66469046111e-17;-2.27934205964e-10;-4.26487057961e-09;1.57694528194e-05;2.50622024954e-12;-3.475525702e-17;6.14245684131e-20;5.5077763033e-11;1.13262316254e-14;2.50622024954e-12;1.22764644142e-07;2.97050583403e-18;-7.23144168895e-19;4.81521217604e-19;5.99485079442e-20;-3.475525702e-17;2.97050583403e-18;1.22764354238e-07;1.09983277313e-23;-4.4938055621e-19;2.66469046111e-17;6.14245684131e-20;-7.23144168895e-19;1.09983271356e-23;1.22764354238e-07;-1.28585044416e-18;-2.27934205964e-10;5.5077763033e-11;4.81521217604e-19;-4.49380556209e-19;-1.28585044404e-18;1.65910456067e-05
37506000000;18;37506000000;map;base_link;5.09714071025;-0.00179228131318;0.000192778643152;6.65513945794e-09;-1.72891701807e-09;0.002036897267;0.999997925523;5.21354290642e-07;1.13637466607e-11;-4.64689099015e-15;1.46467104339e-17;1.81353780113e-15;-1.91356116003e-11;1.13637466607e-11;4.86622101163e-07;-3.06435879668e-11;-2.14884413549e-14;4.94702399529e-15;4.52298447954e-12;-4.64689099016e-15;-3.06435879668e-11;2.60987639569e-08;6.6841012696e-12;-1.61626402465e-12;1.09458832515e-15;1.46467104339e-17;-2.14884413549e-14;6.6841012696e-12;2.54836760691e-08;1.58981207413e-17;-1.81126030283e-15;1.81353780113e-15;4.94702399529e-15;-1.61626402465e-12;1.58981207072e-17;2.54836761311e-08;-6.98126185111e-15;-1.91356116003e-11;4.52298447954e-12;1.09458832515e-15;-1.81126030283e-15;-6.98126185111e-15;4.90875327389e-07;-0.00195485880508;0.00146189963409;-1.71584416386e-07;-1.4121009637e-11;3.7513870287e-12;0.000122141512498;3.43832715354e-05;-4.34843863561e-09;-6.4739778225e-14;3.72737485997e-19;1.71451663709e-17;-2.46827995896e-10;-4.34843863561e-09;3.32159577028e-05;-1.69878421103e-11;6.4832698331e-17;-2.14176485647e-17;5.924058001e-11;-6.4739778225e-14;-1.69878421103e-11;9.42860160826e-07;4.72273944456e-18;-1.15983925157e-18;-1.24740586945e-16;3.72737485997e-19;6.4832698331e-17;4.72273944456e-18;9.42851609273e-07;1.04225496172e-23;9.87377976663e-18;1.71451663709e-17;-2.14176485647e-17;-1.15983925157e-18;1.04225288032e-23;9.42851609273e-07;3.74821248254e-17;-2.46827995896e-10;5.924058001e-11;-1.24740586945e-16;9.87377976664e-18;3.74821248276e-17;3.2031311602e-05
37506000000;19;37506000000;map;base_link;5.09714071025;-0.00179227850652;0.000183215569038;5.1814431367e-09;-1.3692442342e-09;0.00203689726695;0.999997925523;2.60677145321e-07;5.68187329599e-12;-2.26603162726e-15;7.15984298849e-18;8.84778821543e-16;-9.56780580014e-12;5.68187329599e-12;2.43311050351e-07;-1.49408363355e-11;-1.0391050845e-14;2.3911322583e-15;2.26149224793e-12;-2.26603162726e-15;-1.49408363355e-11;2.48035220889e-08;6.04848546357e-12;-1.46256753145e-12;5.33728767345e-16;7.15984298849e-18;-1.0391050845e-14;6.04848546357e-12;2.42473121136e-08;3.25268301836e-17;-8.83675957606e-16;8.84778821543e-16;2.3911322583e-15;-1.46256753145e-12;3.25268301527e-17;2.42473122404e-08;-3.40599791665e-15;-9.56780580014e-12;2.26149224793e-12;5.33728767345e-16;-8.83675957606e-16;-3.40599791665e-15;2.45437663694e-07;-0.00195485819354;0.00146204685122;-1.76003622561e-07;-1.0416696257e-11;2.82008227094e-12;0.00012214151177;2.59100911065e-05;-2.2727357515e-09;-9.97618699412e-15;2.00364831401e-19;2.07483636071e-17;-2.12100607168e-10;-2.2727357515e-09;2.53001243575e-05;-2.6449197961e-12;1.02472632563e-17;-8.12632628675e-18;5.09033212054e-11;-9.97618699412e-15;-2.6449197961e-12;3.26732843173e-07;6.45622836974e-18;-1.58782167825e-18;-2.29059919571e-17;2.00364831401e-19;1.02472632563e-17;6.45622836974e-18;3.26731820733e-07;3.58399532024e-23;5.70659636233e-20;2.07483636071e-17;-8.12632628675e-18;-1.58782167825e-18;3.58399497711e-23;3.26731820733e-07;3.07795737813e-20;-2.12100607168e-10;5.09033212054e-11;-2.29059919571e-17;5.7065963625e-20;3.07795741582e-20;2.45522818387e-05
37506000000;20;37506000000;map;base_link;5.09714071025;-0.0017922772026;0.000174556443589;3.9465448466e-09;-1.06740103072e-09;0.00203689726692;0.999997925523;1.30338572661e-07;2.84093663975e-12;-1.106262577e-15;3.50336531109e-18;4.32157373235e-16;-4.78390290007e-12;2.84093663975e-12;1.21655525121e-07;-7.29379225689e-12;-5.03429605781e-15;1.15798457766e-15;1.13074612591e-12;-1.106262577e-15;-7.29379225689e-12;2.36311444169e-08;5.49939943641e-12;-1.3297945617e-12;2.60559171128e-16;3.50336531109e-18;-5.03429605781e-15;5.49939943641e-12;2.31257350226e-08;4.45711299249e-17;-4.31621824246e-16;4.32157373235e-16;1.15798457766e-15;-1.3297945617e-12;4.45711298968e-17;2.31257351961e-08;-1.6636163012e-15;-4.78390290007e-12;1.13074612591e-12;2.60559171128e-16;-4.31621824246e-16;-1.6636163012e-15;1.22718831847e-07;-0.00195485766947;0.00146217309474;-1.70267333307e-07;-7.84224181803e-12;2.17338585238e-12;0.000122141511371;2.1673500892e-05;-1.23488456232e-09;-2.08194657576e-15;1.29255572343e-19;2.15419411288e-17;-1.94736912807e-10;-1.23488456232e-09;2.13422076236e-05;-5.74746930761e-13;-1.03434017915e-17;-3.04442897053e-18;4.67346910936e-11;-2.08194657576e-15;-5.74746930761e-13;1.97604788866e-07;5.88688119946e-18;-1.44816920807e-18;-7.44851163596e-18;1.29255572343e-19;-1.03434017915e-17;5.88688119946e-18;1.97604416174e-07;4.89884301767e-23;-1.40226236394e-18;2.15419411288e-17;-3.04442897053e-18;-1.44816920807e-18;4.89884290697e-23;1.97604416174e-07;-5.48497963425e-18;-1.94736912807e-10;4.67346910936e-11;-7.44851163596e-18;-1.40226236394e-18;-5.48497963413e-18;2.08127669571e-05
37506000000;21;37506000000;map;base_link;5.09714071025;-0.00179227659477;0.000166678875843;2.90567410279e-09;-8.12578344729e-10;0.00203689726691;0.999997925523;6.51692863303e-08;1.4204683179e-12;-5.40654357156e-16;1.71574264216e-18;2.11301964765e-16;-2.39195145003e-12;1.4204683179e-12;6.08277625475e-08;-3.56458644708e-12;-2.44319756511e-15;5.61766388583e-16;5.65373063419e-13;-5.40654357156e-16;-3.56458644708e-12;2.25646455777e-08;5.02182131655e-12;-1.21431271936e-12;1.27340145253e-16;1.71574264216e-18;-2.44319756511e-15;5.02182131655e-12;2.2103380356e-08;5.32063962561e-17;-2.11041467318e-16;2.11301964765e-16;5.61766388583e-16;-1.21431271936e-12;5.32063962305e-17;2.21033805631e-08;-8.13422420876e-16;-2.39195145003e-12;5.65373063419e-13;1.27340145253e-16;-2.11041467318e-16;-8.13422420876e-16;6.13594159236e-08;-0.00195485720658;0.00146228464471;-1.63652048468e-07;-5.74483261723e-12;1.64592995872e-12;0.00012214151113;1.95552057848e-05;-7.15959275501e-10;5.63694739232e-17;9.00590980877e-20;2.14663677411e-17;-1.86055065628e-10;-7.15959275501e-10;1.93632491823e-05;-1.26856299063e-14;-2.04534240056e-17;-4.46775876754e-19;4.46503758029e-11;5.63694739232e-17;-1.26856299063e-14;1.41630870725e-07;5.30710780317e-18;-1.30568729768e-18;-2.97507849707e-18;9.00590980877e-20;-2.04534240056e-17;5.30710780317e-18;1.41630679805e-07;5.74045917676e-23;-1.63614623004e-18;2.14663677411e-17;-4.46775876754e-19;-1.30568729768e-18;5.74045914217e-23;1.41630679805e-07;-6.34102874868e-18;-1.86055065628e-10;4.46503758029e-11;-2.97507849707e-18;-1.63614623004e-18;-6.34102874863e-18;1.89430095163e-05
37675000000;22;37675000000;map;base_link;5.09579295873;-0.00150375319046;0.000224066990106;1.41602320192e-08;7.03876528592e-09;0.00205744905092;0.999997883449;6.56258397342e-07;3.19540222863e-12;3.29784156072e-14;-2.54487392873e-18;-4.03564150946e-15;-2.24547330435e-11;3.19540222863e-12;6.47041815913e-07;4.8222375406e-10;2.08002827036e-13;1.26809927129e-13;-1.84463059477e-11;3.29784156072e-14;4.8222375406e-10;2.46944506242e-08;9.36068900302e-12;5.79300006316e-12;-1.52022440327e-14;-2.54487392873e-18;2.08002827036e-13;9.36068900302e-12;2.3292460202e-08;3.77944089035e-17;-8.68809448044e-16;-4.03564150946e-15;1.26809927129e-13;5.79300006316e-12;3.77944088807e-17;2.32924604277e-08;-3.06938808253e-15;-2.24547330435e-11;-1.84463059477e-11;-1.52022440327e-14;-8.68809448044e-16;-3.06938808253e-15;6.01628800448e-07;-0.00764849991676;0.0017385723301;1.40498496618e-06;-2.91929844695e-11;-1.25398895707e-11;0.000231216325474;3.83842665176e-05;-3.98257768816e-10;2.71130695771e-13;-4.7174152461e-18;2.11964197623e-17;-1.90514155198e-10;-3.98257768817e-10;3.82768481876e-05;6.55507011669e-11;-1.18796497979e-15;-6.41460014812e-16;4.60028684625e-11;2.71130695771e-13;6.55507011669e-11;4.85725211906e-07;1.66236987351e-18;8.09386508564e-19;-8.96206943972e-16;-4.7174152461e-18;-1.18796497979e-15;1.66236987351e-18;4.85722198136e-07;5.12913131503e-23;4.69433336553e-18;2.11964197623e-17;-6.41460014812e-16;8.09386508564e-19;5.12913131892e-23;4.85722198136e-07;1.61963495286e-17;-1.90514155198e-10;4.60028684625e-11;-8.96206943972e-16;4.69433336552e-18;1.61963495286e-17;3.48875123522e-05
37675000000;23;37675000000;map;base_link;5.09579295873;-0.00150380467996;0.000213520893099;1.16448870492e-08;5.55349395993e-09;0.00205744905173;0.999997883449;3.28129198671e-07;1.59769723002e-12;1.61009946866e-14;-1.38473408963e-18;-1.97300136416e-15;-1.12273665216e-11;1.59769723002e-12;3.23520851155e-07;2.35434993782e-10;9.9630744979e-14;6.07214239088e-14;-9.22315118315e-12;1.61009946866e-14;2.35434993782e-10;2.35317955699e-08;8.52793984146e-12;5.27764128934e-12;-7.42215422042e-15;-1.38473408963e-18;9.9630744979e-14;8.52793984146e-12;2.22554398394e-08;-5.76739047579e-17;-4.24672420208e-16;-1.97300136416e-15;6.07214239088e-14;5.27764128934e-12;-5.76739047787e-17;2.22554401374e-08;-1.50049997499e-15;-1.12273665216e-11;-9.22315118315e-12;-7.42215422042e-15;-4.24672420208e-16;-1.50049997499e-15;3.00814400224e-07;-0.00764850104665;0.00173830006531;5.95979079466e-07;-2.43127637231e-11;-1.05743236798e-11;0.000231216328484;2.8335424814e-05;-3.0785045616e-10;6.73970844706e-14;-1.74111540979e-18;7.40817052675e-18;-2.13349401366e-10;-3.0785045616e-10;2.82526830303e-05;1.62954824559e-11;-4.38172744851e-16;-2.41498479717e-16;-1.12634031028e-10;6.73970844706e-14;1.62954824559e-11;2.46379480478e-07;6.47791279595e-18;3.72775919511e-18;-2.23788895397e-16;-1.74111540979e-18;-4.38172744851e-16;6.47791279595e-18;2.46378719451e-07;-7.75745148188e-23;7.06707307456e-19;7.40817052675e-18;-2.41498479717e-16;3.72775919511e-18;-7.75745147853e-23;2.46378719451e-07;2.40420609711e-18;-2.13349401366e-10;-1.12634031028e-10;-2.23788895397e-16;7.06707307455e-19;2.40420609711e-18;2.63300620246e-05
37675000000;24;37675000000;map;base_link;5.09579295873;-0.00150382868628;0.000203923404146;9.50435551022e-09;4.29455473862e-09;0.00205744905211;0.999997883449;1.64064599335e-07;7.98847688471e-13;7.86954359014e-15;-7.40420795279e-19;-9.65520464476e-16;-5.61368326079e-12;7.9884768847e-13;1.61760412029e-07;1.15071431685e-10;4.7835602262e-14;2.91454785434e-14;-4.61157516442e-12;7.86954359014e-15;1.15071431685e-10;2.24739263577e-08;7.80160966033e-12;4.82814134387e-12;-3.62765541982e-15;-7.40420795279e-19;4.7835602262e-14;7.80160966033e-12;2.13069693317e-08;-1.29961107377e-16;-2.07783096774e-16;-9.65520464476e-16;2.91454785434e-14;4.82814134387e-12;-1.29961107396e-16;2.13069696816e-08;-7.3424679463e-16;-5.61368326079e-12;-4.61157516442e-12;-3.62765541982e-15;-2.07783096774e-16;-7.3424679463e-16;1.50407200112e-07;-0.00764850154846;0.00173817949162;3.28105941716e-07;-1.9860226725e-11;-8.28470640792e-12;0.000231216329116;2.33110039622e-05;-2.62641441724e-10;2.21948034462e-14;-7.57495032136e-19;2.887603328e-18;-2.24767024529e-10;-2.62641441724e-10;2.32406017451e-05;5.36719436686e-12;-1.90398148569e-16;-1.03804933416e-16;-1.91952499715e-10;2.21948034462e-14;5.36719436686e-12;1.65049683268e-07;7.36518377259e-18;4.32739393323e-18;-7.52617684426e-17;-7.57495032136e-19;-1.90398148569e-16;7.36518377259e-18;1.65049347336e-07;-1.73736096543e-22;-3.28467842534e-19;2.887603328e-18;-1.03804933416e-16;4.32739393323e-18;-1.73736096454e-22;1.65049347336e-07;-1.19822388253e-18;-2.24767024529e-10;-1.91952499715e-10;-7.52617684426e-17;-3.28467842534e-19;-1.19822388253e-18;2.20513368608e-05
37774000000;25;37774000000;map;base_link;5.09444263235;-0.00224346451712;-0.00147943393821;-3.58961373655e-07;-6.92414578505e-07;0.00207146424664;0.999997854515;3.85598749244e-07;2.78453437595e-12;3.3504855877e-12;1.47030101336e-15;2.53318529653e-15;-2.60361590603e-11;2.78453437595e-12;3.76420893166e-07;-1.21551926839e-08;-5.34099015658e-12;-1.01347617032e-11;-9.22808004624e-11;3.3504855877e-12;-1.21551926839e-08;-6.77013034189e-11;-2.96592480391e-14;-5.46180885243e-14;2.97928220877e-12;1.47030101336e-15;-5.34099015658e-12;-2.96592480391e-14;2.13202759311e-08;-8.70121499609e-15;2.62898494948e-15;2.53318529653e-15;-1.01347617032e-11;-5.46180885243e-14;-8.7012149961e-15;2.1320264683e-08;-1.39336027874e-15;-2.60361590603e-11;-9.22808004624e-11;2.97928220877e-12;2.62898494948e-15;-1.39336027873e-15;3.50144487923e-07;-0.0119596445481;-0.00447537742865;-4.24621327254e-05;8.12454317993e-10;1.34070370729e-09;0.000265205189746;3.25791233224e-05;-1.47272114518e-09;-8.18056371626e-12;1.59326461181e-16;2.61248625728e-16;-2.39328923234e-10;-1.47272114518e-09;3.21926444271e-05;-2.13449306306e-09;4.15793714045e-14;6.76645910868e-14;-1.99756377079e-10;-8.18056371626e-12;-2.13449306306e-09;4.76232625819e-07;2.94863150519e-16;4.78259549846e-16;2.73050425065e-13;1.59326461181e-16;4.15793714045e-14;2.94863150519e-16;4.76244308089e-07;-9.60396938271e-21;-1.92341905703e-17;2.61248625728e-16;6.76645910868e-14;4.78259549846e-16;-9.60396937558e-21;4.76244308089e-07;2.64452552106e-17;-2.39328923234e-10;-1.99756377079e-10;2.73050425065e-13;-1.92341905703e-17;2.64452552118e-17;2.98007256533e-05
37774000000;26;37774000000;map;base_link;5.09444263483;-0.00225246921886;-0.00148050676486;-3.44507614481e-07;-6.64526769704e-07;0.00207146535019;0.999997854513;1.92799374619e-07;1.40245810262e-12;1.67568574727e-12;7.20313037116e-16;1.24106016491e-15;-1.3018082028e-11;1.40245810262e-12;1.8817347487e-07;-6.07920333669e-09;-2.61659615002e-12;-4.96509478192e-12;-4.61313383743e-11;1.67568574727e-12;-6.07920333669e-09;-2.64237802914e-10;-1.09508736368e-13;-2.06202751522e-13;1.49003498273e-12;7.20313037116e-16;-2.61659615002e-12;-1.09508736368e-13;2.04480474017e-08;-8.07128829141e-15;1.28778847699e-15;1.24106016491e-15;-4.96509478192e-12;-2.06202751522e-13;-8.07128829141e-15;2.04480369677e-08;-6.82111792164e-16;-1.3018082028e-11;-4.61313383743e-11;1.49003498273e-12;1.28778847699e-15;-6.82111792161e-16;1.75072243959e-07;-0.0119598825797;-0.00453750281765;-2.17618410474e-05;8.19289604772e-10;1.45264465862e-09;0.000265213166555;2.34452872192e-05;-8.30753515321e-10;-2.08735145209e-12;6.04520312622e-17;1.03363918216e-16;-4.07367196399e-10;-8.30753515321e-10;2.32269716264e-05;-5.4480558543e-10;1.57774197929e-14;2.68621397636e-14;-1.16578513189e-09;-2.08735145209e-12;-5.4480558543e-10;2.43913462428e-07;1.71152981463e-16;2.96309811711e-16;7.02956473539e-14;6.04520312622e-17;1.57774197929e-14;1.71152981463e-16;2.43916400677e-07;-1.17919585626e-20;-2.85657634566e-18;1.03363918216e-16;2.68621397636e-14;2.96309811711e-16;-1.17919585605e-20;2.43916400677e-07;-3.25091528509e-18;-4.07367196399e-10;-1.16578513189e-09;7.02956473539e-14;-2.85657634566e-18;-3.2509152848e-18;2.17749366513e-05
37774000000;27;37774000000;map;base_link;5.09444263607;-0.00225697424828;-0.00148172667149;-3.31215977004e-07;-6.38880692009e-07;0.00207146590231;0.999997854512;9.63996873089e-08;7.03777268537e-13;8.38146895614e-13;3.53204932648e-16;6.08573098998e-16;-6.50904163857e-12;7.03777268537e-13;9.4077492766e-08;-3.04070462864e-09;-1.28304534468e-12;-2.4346245407e-12;-2.30634032901e-11;8.38146895614e-13;-3.04070462864e-09;-3.62780245717e-10;-1.45119356795e-13;-2.738366917e-13;7.45287830377e-13;3.53204932648e-16;-1.28304534468e-12;-1.45119356795e-13;1.9644562388e-08;-7.48335477945e-15;6.31355336254e-16;6.08573098998e-16;-2.4346245407e-12;-2.738366917e-13;-7.48335477945e-15;1.96445527156e-08;-3.34149457301e-16;-6.50904163857e-12;-2.30634032901e-11;7.45287830377e-13;6.31355336254e-16;-3.34149457299e-16;8.75361219791e-08;-0.0119600016301;-0.00456857532447;-1.46372307256e-05;8.00774157048e-10;1.45150973604e-09;0.000265217158923;1.8878369187e-05;-5.04711011967e-10;-6.96268011851e-13;2.64872781666e-17;4.5843200287e-17;-4.91386982217e-10;-5.04711011967e-10;1.87454555042e-05;-1.8184200348e-10;6.91405064629e-15;1.19663755222e-14;-1.64896895473e-09;-6.96268011851e-13;-1.8184200348e-10;1.63939398447e-07;1.13674071314e-16;2.01148222175e-16;2.3869241095e-14;2.64872781666e-17;6.91405064629e-15;1.13674071314e-16;1.63940666817e-07;-1.14088331827e-20;6.37370865333e-19;4.5843200287e-17;1.19663755222e-14;2.01148222175e-16;-1.14088331816e-20;1.63940666817e-07;-8.10559303191e-18;-4.91386982217e-10;-1.64896895473e-09;2.3869241095e-14;6.37370865333e-19;-8.10559303181e-18;1.77620421504e-05
37774000000;28;37774000000;map;base_link;5.09444263669;-0.00225922926091;-0.00148302150047;-3.18943372055e-07;-6.15200524125e-07;0.00207146617868;0.999997854511;4.81998436543e-08;3.52526110527e-13;4.19246252854e-13;1.73331607012e-16;2.98661953331e-16;-3.25452097553e-12;3.52526110527e-13;4.70364336871e-08;-1.5209792326e-09;-6.29640710962e-13;-1.19476354568e-12;-1.15311347957e-11;4.19246252854e-13;-1.5209792326e-09;-4.12302614848e-10;-1.59339713429e-13;-3.00876977238e-13;3.72797574929e-13;1.73331607012e-16;-6.29640710962e-13;-1.59339713429e-13;1.89018777725e-08;-6.94582729728e-15;3.09770647282e-16;2.98661953331e-16;-1.19476354568e-12;-3.00876977238e-13;-6.94582729728e-15;1.89018687972e-08;-1.63803971707e-16;-3.25452097553e-12;-1.15311347957e-11;3.72797574929e-13;3.09770647282e-16;-1.63803971706e-16;4.37680609894e-08;-0.0119600611849;-0.00458412007465;-1.10315256609e-05;7.7748317304e-10;1.42447729255e-09;0.000265219158903;1.65949101758e-05;-3.40425291495e-10;-2.58168170168e-13;1.21234322143e-17;2.08363320783e-17;-5.33397037445e-10;-3.40425291495e-10;1.65050274623e-05;-6.75112549547e-11;3.16565108579e-15;5.48087866615e-15;-1.89060323067e-09;-2.58168170168e-13;-6.75112549547e-11;1.23459607862e-07;8.28333563766e-17;1.48225210094e-16;9.16997037531e-15;1.21234322143e-17;3.16565108579e-15;8.28333563766e-17;1.23460294449e-07;-1.07032847931e-20;1.35618864579e-18;2.08363320783e-17;5.48087866615e-15;1.48225210094e-16;-1.07032847925e-20;1.23460294449e-07;-8.23145573656e-18;-5.33397037445e-10;-1.89060323067e-09;9.1699703753e-15;1.35618864579e-18;-8.23145573652e-18;1.57555948999e-05
37843000000;29;37843000000;map;base_link;5.09342121957;-0.00259027624532;-0.0014820537999;-3.0311448963e-07;-5.52664428129e-07;0.00208140302195;0.999997833878;1.24303902071e-07;4.68862496446e-13;4.28646068065e-13;8.22702474147e-17;-1.0490715806e-14;5.64438623189e-12;4.68862496445e-13;1.22928521844e-07;-1.10627769621e-09;-5.42043277934e-13;-5.4664854961e-13;-4.38093564967e-11;4.28646068065e-13;-1.10627769621e-09;1.16659070799e-09;-5.84371200032e-12;1.44361374481e-11;2.2430177817e-13;8.22702474147e-17;-5.42043277934e-13;-5.84371200032e-12;1.90690213372e-08;-6.34862906544e-15;-9.09542290515e-14;-1.0490715806e-14;-5.4664854961e-13;1.44361374481e-11;-6.34862906545e-15;1.90690143861e-08;4.66658454284e-14;5.64438623189e-12;-4.38093564967e-11;2.2430177817e-13;-9.09542290515e-14;4.66658454284e-14;1.13674763954e-07;-0.0142270759957;-0.00477637236813;5.46770693779e-07;6.11699416143e-10;1.1249119554e-09;0.000281430495448;2.34985461244e-05;-2.49101248329e-10;4.32206373032e-13;1.08723188994e-17;6.65098043928e-18;-5.70949909421e-10;-2.49101248329e-10;2.34314110299e-05;1.03896425083e-10;2.78690108063e-15;1.94632348312e-15;-2.07185832692e-09;4.32206373032e-13;1.03896425083e-10;4.66665274346e-07;9.68681431344e-18;-9.81584714175e-18;-2.43798888991e-14;1.08723188994e-17;2.78690108063e-15;9.68681431344e-18;4.6666186462e-07;-6.19813132226e-21;1.06824797645e-15;6.65098043928e-18;1.94632348312e-15;-9.81584714175e-18;-6.19813132706e-21;4.6666186462e-07;-5.54594536953e-16;-5.70949909421e-10;-2.07185832692e-09;-2.43798888991e-14;1.06824797645e-15;-5.5459453696e-16;2.16496523877e-05
37843000000;30;37843000000;map;base_link;5.09342121989;-0.00259109414008;-0.00147862683303;-3.00270642219e-07;-5.12018467189e-07;0.00208140310488;0.999997833878;6.21519510352e-08;2.34549660251e-13;2.14074759962e-13;4.15836929552e-17;-5.15198391469e-15;2.82219309206e-12;2.34549660251e-13;6.14639552927e-08;-5.5249992997e-10;-2.69151275051e-13;-2.60631029768e-13;-2.19046162831e-11;2.14074759962e-13;-5.5249992997e-10;1.1587144881e-09;-5.61843199455e-12;1.38716289096e-11;1.12021172045e-13;4.15836929552e-17;-2.69151275051e-13;-5.61843199455e-12;1.83682935627e-08;-5.74065211263e-15;-4.46412857503e-14;-5.15198391469e-15;-2.60631029768e-13;1.38716289096e-11;-5.74065211264e-15;1.83682867967e-08;2.29028523133e-14;2.82219309206e-12;-2.19046162831e-11;1.12021172045e-13;-4.46412857503e-14;2.29028523133e-14;5.68373819772e-08;-0.0142270340722;-0.00476598632187;9.84494659532e-07;6.02408573904e-10;1.03437068426e-09;0.00028143047383;1.68061621157e-05;-2.1518730039e-10;1.21939005607e-13;-1.26266575561e-18;-6.22390791172e-17;-8.22875186146e-11;-2.1518730039e-10;1.67489846365e-05;2.91575464666e-11;-2.74392094018e-16;-2.31309734369e-15;-2.18930679255e-09;1.21939005607e-13;2.91575464666e-11;2.41378825173e-07;4.24074720174e-18;-2.94059891357e-18;-6.43409555567e-15;-1.26266575561e-18;-2.74392094018e-16;4.24074720174e-18;2.41377923737e-07;-6.32817048795e-21;-8.98909746689e-16;-6.22390791172e-17;-2.31309734369e-15;-2.94059891357e-18;-6.32817048941e-21;2.41377923737e-07;4.68773599045e-16;-8.22875186146e-11;-2.18930679255e-09;-6.43409555567e-15;-8.98909746689e-16;4.68773599043e-16;1.5671480258e-05
37843000000;31;37843000000;map;base_link;5.09342122004;-0.0025915016723;-0.00147521961223;-2.97595274062e-07;-4.74337026863e-07;0.00208140314621;0.999997833878;3.10759755176e-08;1.17304364847e-13;1.06913954263e-13;2.10023316766e-17;-2.53178136954e-15;1.41109654007e-12;1.17304364847e-13;3.07319014183e-08;-2.75931682778e-10;-1.33685328225e-13;-1.24319195501e-13;-1.09522926873e-11;1.06913954263e-13;-2.75931682778e-10;1.15349365534e-09;-5.40811120253e-12;1.33484362655e-11;5.59458503095e-14;2.10023316766e-17;-1.33685328225e-13;-5.40811120253e-12;1.77173545307e-08;-5.20124898316e-15;-2.19249019054e-14;-2.53178136954e-15;-1.24319195501e-13;1.33484362655e-11;-5.20124898317e-15;1.77173479427e-08;1.12478022368e-14;1.41109654007e-12;-1.09522926873e-11;5.59458503095e-14;-2.19249019054e-14;1.12478022368e-14;2.84186909886e-08;-0.0142269764386;-0.00475140872982;1.13501678615e-06;5.95484984458e-10;9.56239467946e-10;0.000281430148251;1.34599701106e-05;-1.98436208579e-10;4.22851853842e-14;-5.53346440583e-18;-8.56146224702e-17;1.62043682853e-10;-1.98436208579e-10;1.34077190159e-05;9.90138558237e-12;-1.3364201567e-15;-3.41012894111e-15;-2.24802951776e-09;4.22851853842e-14;9.90138558237e-12;1.62790426075e-07;1.42100206828e-18;1.38411966367e-18;-2.18959973449e-15;-5.53346440583e-18;-1.3364201567e-15;1.42100206828e-18;1.62790023937e-07;-5.73438179671e-21;-1.10344718403e-15;-8.56146224702e-17;-3.41012894111e-15;1.38411966367e-18;-5.73438179731e-21;1.62790023937e-07;5.74760362163e-16;1.62043682853e-10;-2.24802951776e-09;-2.18959973449e-15;-1.10344718403e-15;5.74760362163e-16;1.26823941931e-05
37843000000;32;37843000000;map;base_link;5.09342122012;-0.00259170473565;-0.00147182995178;-2.95070748233e-07;-4.39315211119e-07;0.00208140316681;0.999997833878;1.55379877588e-08;5.86595491233e-14;5.33955446872e-14;1.06000781311e-17;-1.24491771763e-15;7.05548268548e-13;5.86595491233e-14;1.53659316961e-08;-1.37807339099e-10;-6.64179660454e-14;-5.9321511336e-14;-5.47614248905e-12;5.33955446872e-14;-1.37807339099e-10;1.14956991933e-09;-5.21170692658e-12;1.28617395777e-11;2.7940676909e-14;1.06000781311e-17;-6.64179660454e-14;-5.21170692658e-12;1.71110008831e-08;-4.72109870494e-15;-1.0774733048e-14;-1.24491771763e-15;-5.9321511336e-14;1.28617395777e-11;-4.72109870495e-15;1.71109944661e-08;5.52731405031e-15;7.05548268548e-13;-5.47614248905e-12;2.7940676909e-14;-1.0774733048e-14;5.5273140503e-15;1.42093454943e-08;-0.0142269111454;-0.00473478571285;1.2099686726e-06;5.89422202741e-10;8.8509829435e-10;0.000281429672655;1.17868741073e-05;-1.90265091487e-10;1.3208949761e-14;-7.35566793001e-18;-9.42146203437e-17;2.84209290907e-10;-1.90265091487e-10;1.17370337748e-05;2.853516295e-12;-1.78567468834e-15;-3.66451916607e-15;-2.27738901095e-09;1.3208949761e-14;2.853516295e-12;1.22806834146e-07;-8.75090695072e-20;3.76208055165e-18;-8.03071253246e-16;-7.35566793001e-18;-1.78567468834e-15;-8.75090695072e-20;1.22806611298e-07;-5.15854294585e-21;-1.01267373991e-15;-9.42146203437e-17;-3.66451916607e-15;3.76208055165e-18;-5.15854294621e-21;1.22806611298e-07;5.27215977837e-16;2.84209290907e-10;-2.27738901095e-09;-8.03071253246e-16;-1.01267373991e-15;5.27215977837e-16;1.11878511607e-05
37995000000;33;37995000000;map;base_link;5.0907285401;-0.00333948989984;-0.00144711644629;-3.05912426705e-07;-3.16662790183e-07;0.0021047965345;0.999997784913;3.16698142316e-07;4.50350139652e-13;-1.40864916656e-14;1.31725320735e-16;1.54948294536e-14;2.22081744011e-11;4.50350139653e-13;3.15089722803e-07;7.08953012373e-10;5.18132219407e-13;-2.63090719218e-13;-1.02032284097e-10;-1.40864916656e-14;7.08953012373e-10;6.7339952448e-09;-1.62966380273e-11;4.63124372215e-11;2.14898842699e-14;1.31725320735e-16;5.18132219407e-13;-1.62966380273e-11;2.13011486911e-08;-1.71405688503e-15;-2.36438298149e-13;1.54948294536e-14;-2.63090719218e-13;4.63124372215e-11;-1.71405688507e-15;2.13011374325e-08;1.61298840494e-13;2.22081744011e-11;-1.02032284097e-10;2.14898842699e-14;-2.36438298149e-13;1.61298840494e-13;2.73740399519e-07;-0.0181388935838;-0.00502742373297;1.5258041008e-06;6.00354093252e-10;6.42936986878e-10;0.000305763171327;2.94361609634e-05;-2.5354009528e-10;-2.49605462011e-13;-1.51885182133e-17;-8.57013896237e-17;3.72905945208e-10;-2.5354009528e-10;2.9370827473e-05;-5.26251738969e-11;-3.42766663869e-15;6.66909002028e-16;-2.45294512146e-09;-2.49605462011e-13;-5.26251738969e-11;4.8417741297e-07;-1.90074983289e-17;5.43520524408e-17;1.19012096911e-14;-1.51885182133e-17;-3.42766663869e-15;-1.90074983289e-17;4.84175368894e-07;-2.29004802304e-21;1.3755986475e-15;-8.57013896237e-17;6.66909002028e-16;5.43520524408e-17;-2.29004803951e-21;4.84175368894e-07;-9.55071590976e-16;3.72905945208e-10;-2.45294512146e-09;1.19012096911e-14;1.3755986475e-15;-9.55071590979e-16;2.5635072577e-05
37995000000;34;37995000000;map;base_link;5.09072854009;-0.00333898373446;-0.00142789039655;-3.15627182812e-07;-2.41018129692e-07;0.00210479654218;0.999997784913;1.58349071158e-07;2.25177540148e-13;-6.99556515896e-15;6.44085214451e-17;7.58944259883e-15;1.11040872e-11;2.25177540149e-13;1.57544736565e-07;3.52123441285e-10;2.592415917e-13;-1.44397272028e-13;-5.10161457849e-11;-6.99556515895e-15;3.52123441285e-10;6.64351367457e-09;-1.54258296145e-11;4.38364887805e-11;1.06676692485e-14;6.44085214451e-17;2.592415917e-13;-1.54258296145e-11;2.04305564289e-08;-2.35904393081e-16;-1.15803835548e-13;7.58944259883e-15;-1.44397272028e-13;4.38364887805e-11;-2.3590439312e-16;2.0430542732e-08;7.90013332086e-14;1.11040872e-11;-5.10161457849e-11;1.06676692485e-14;-1.15803835548e-13;7.90013332086e-14;1.36870199759e-07;-0.0181388714574;-0.00502197194468;1.46189900573e-06;6.24344793712e-10;4.76571014493e-10;0.000305762545029;2.27718804318e-05;-1.34242923342e-10;-6.75247282192e-14;-6.64118794295e-18;-2.56370731261e-17;2.84395290796e-10;-1.34242923342e-10;2.27373272493e-05;-1.45500594391e-11;-1.55298932443e-15;3.27746630046e-16;-1.54904902165e-09;-6.75247282192e-14;-1.45500594391e-11;2.45980644243e-07;-1.86711035837e-17;5.35763399636e-17;3.23391935351e-15;-6.64118794295e-18;-1.55298932443e-15;-1.86711035837e-17;2.45980127662e-07;-6.43216810922e-22;-5.53521409575e-17;-2.56370731261e-17;3.27746630046e-16;5.35763399636e-17;-6.43216815692e-22;2.45980127662e-07;5.36203517173e-17;2.84395290796e-10;-1.54904902165e-09;3.23391935351e-15;-5.53521409575e-17;5.36203517165e-17;2.06083651365e-05
37995000000;35;37995000000;map;base_link;5.09072854009;-0.00333873563066;-0.00140916905555;-3.24031852664e-07;-1.72858021705e-07;0.00210479654594;0.999997784913;7.9174535579e-08;1.12589381195e-13;-3.47480262124e-15;3.15209983098e-17;3.72038297646e-15;5.55204359988e-12;1.12589381195e-13;7.87723374864e-08;1.74907806679e-10;1.29652068375e-13;-7.81003491042e-14;-2.55080738144e-11;-3.47480262124e-15;1.74907806679e-10;6.55594252216e-09;-1.46282052065e-11;4.15692230213e-11;5.29628869188e-15;3.15209983098e-17;1.29652068375e-13;-1.46282052065e-11;1.96284518615e-08;9.89391296374e-16;-5.67653406747e-14;3.72038297646e-15;-7.81003491042e-14;4.15692230213e-11;9.89391296338e-16;1.96284362136e-08;3.87251268119e-14;5.55204359988e-12;-2.55080738144e-11;5.29628869188e-15;-5.67653406747e-14;3.87251268119e-14;6.84350998796e-08;-0.01813885649;-0.00501825150424;1.42807033102e-06;6.41805400288e-10;3.36892420754e-10;0.000305761829382;1.94397401661e-05;-7.45729641367e-11;-2.50684183324e-14;-3.71244069113e-18;-6.07375500233e-18;2.4013996433e-10;-7.45729641366e-11;1.94205823148e-05;-5.59644823364e-12;-9.08574498471e-16;1.62510574702e-16;-1.09710078339e-09;-2.50684183324e-14;-5.59644823364e-12;1.64870611346e-07;-1.70244882189e-17;4.89046927878e-17;1.28206344723e-15;-3.71244069113e-18;-9.08574498471e-16;-1.70244882189e-17;1.64870386491e-07;7.66035220711e-22;-3.40698560511e-16;-6.07375500233e-18;1.62510574702e-16;4.89046927878e-17;7.66035218458e-22;1.64870386491e-07;2.51008364223e-16;2.4013996433e-10;-1.09710078339e-09;1.28206344723e-15;-3.40698560511e-16;2.51008364223e-16;1.80950114162e-05
37995000000;36;37995000000;map;base_link;5.09072854008;-0.00333861398711;-0.00139093255898;-3.31294300412e-07;-1.11279319591e-07;0.0021047965478;0.999997784913;3.95872677895e-08;5.62948415083e-14;-1.72618087652e-15;1.54386938705e-17;1.82512695674e-15;2.77602179991e-12;5.62948415085e-14;3.93861611443e-08;8.68880888912e-11;6.48168936883e-14;-4.17659222033e-14;-1.27540371346e-11;-1.72618087652e-15;8.68880888912e-11;6.47086764696e-09;-1.38954069655e-11;3.94865204888e-11;2.62982766012e-15;1.54386938705e-17;6.48168936883e-14;-1.38954069655e-11;1.88869775049e-08;2.00635286874e-15;-2.78465778623e-14;1.82512695674e-15;-4.17659222033e-14;3.94865204888e-11;2.00635286871e-15;1.88869603034e-08;1.89967639296e-14;2.77602179991e-12;-1.27540371346e-11;2.62982766012e-15;-2.78465778623e-14;1.89967639296e-14;3.42175499398e-08;-0.0181388451361;-0.00501540626732;1.40229534845e-06;6.56079371717e-10;2.13204272152e-10;0.00030576108041;1.77736700332e-05;-4.47325280206e-11;-1.13050940459e-14;-2.4672486923e-18;1.93219420622e-18;2.18012301591e-10;-4.47325280206e-11;1.77622111602e-05;-2.66110448749e-12;-6.33283740534e-16;9.3724676278e-17;-8.71126534112e-10;-1.13050940459e-14;-2.66110448749e-12;1.23986962242e-07;-1.56609692792e-17;4.50125498103e-17;6.68432863023e-16;-2.4672486923e-18;-6.33283740534e-16;-1.56609692792e-17;1.23986840248e-07;1.87172684605e-21;-3.8640832072e-16;1.93219420622e-18;9.3724676278e-17;4.50125498103e-17;1.87172684475e-21;1.23986840248e-07;2.80315750892e-16;2.18012301591e-10;-8.71126534112e-10;6.68432863023e-16;-3.8640832072e-16;2.80315750892e-16;1.68383345561e-05
38144000000;37;38144000000;map;base_link;5.08725788982;-0.00411810024402;-0.00133529637649;-3.56431496093e-07;6.11372593781e-08;0.0021274073791;0.999997737066;4.74312462644e-07;9.16175406585e-14;-7.9636384762e-14;1.68624211707e-16;3.05604121775e-15;3.33752221847e-11;9.16175406593e-14;4.7377935626e-07;1.10904725691e-10;2.44420932618e-13;-4.76853427039e-13;-1.23426341715e-10;-7.96363847619e-14;1.10904725691e-10;1.34966022356e-08;-2.52141205703e-11;8.1714669797e-11;-1.92337742573e-14;1.68624211707e-16;2.44420932618e-13;-2.52141205703e-11;2.44372068745e-08;7.11079997827e-15;-6.99911700862e-14;3.05604121775e-15;-4.76853427039e-13;8.1714669797e-11;7.11079997824e-15;2.44371769132e-08;2.60423185302e-13;3.33752221847e-11;-1.23426341715e-10;-1.92337742573e-14;-6.99911700862e-14;2.60423185302e-13;4.12821410241e-07;-0.0237227566304;-0.00531487316786;1.36124118748e-06;7.01075489129e-10;-1.01991141771e-10;0.000303829821873;3.57655359179e-05;-5.05650352331e-11;-8.81543759692e-14;-6.23037172874e-18;2.17435656605e-17;2.27902288389e-10;-5.05650352331e-11;3.57527129996e-05;-1.57689480352e-11;-1.28363525102e-15;2.5892247371e-15;-8.31882196968e-10;-8.81543759692e-14;-1.57689480352e-11;4.83872082827e-07;-2.36404732004e-17;7.66717204455e-17;2.4350883731e-15;-6.23037172874e-18;-1.28363525102e-15;-2.36404732004e-17;4.83869853359e-07;6.05187615839e-21;3.39418171445e-16;2.17435656605e-17;2.5892247371e-15;7.66717204455e-17;6.05187615867e-21;4.83869853359e-07;-1.55751741729e-15;2.27902288389e-10;-8.31882196968e-10;2.4350883731e-15;3.39418171445e-16;-1.55751741729e-15;3.10973161623e-05
38144000000;38;38144000000;map;base_link;5.08725788977;-0.0041180281413;-0.0013002011758;-3.70909973885e-07;1.58280010774e-07;0.00212740737285;0.999997737066;2.37156231322e-07;4.58109474342e-14;-3.92942187623e-14;8.14155270766e-17;1.49544221575e-15;1.66876110918e-11;4.58109474346e-14;2.36889675094e-07;5.47242399226e-11;1.20661708952e-13;-2.3708005139e-13;-6.17131702958e-11;-3.92942187623e-14;5.47242399226e-11;1.31416206798e-08;-2.34151674733e-11;7.58845371621e-11;-9.5013575216e-15;8.14155270766e-17;1.20661708952e-13;-2.34151674733e-11;2.32983122876e-08;1.00267503146e-14;-3.41804999176e-14;1.49544221575e-15;-2.3708005139e-13;7.58845371621e-11;1.00267503146e-14;2.32982746167e-08;1.27178743744e-13;1.66876110918e-11;-6.17131702958e-11;-9.50135752159e-15;-3.41804999176e-14;1.27178743744e-13;2.0641070512e-07;-0.0237227580466;-0.0053151536985;1.31518537456e-06;7.36713232894e-10;-3.21660763445e-10;0.000303829407828;2.6064027361e-05;-3.33528685929e-11;-2.17239460135e-14;-1.723376849e-18;2.44584306484e-17;3.73088349431e-10;-3.33528685929e-11;2.60557604892e-05;-3.87577461577e-12;-3.68425273205e-16;8.66577350822e-16;-1.37596648767e-09;-2.17239460135e-14;-3.87577461577e-12;2.45901815341e-07;-2.51658862845e-17;8.21896882063e-17;7.32875189825e-16;-1.723376849e-18;-3.68425273205e-16;-2.51658862845e-17;2.45901248842e-07;1.06356949854e-20;1.37618091772e-17;2.44584306484e-17;8.66577350822e-16;8.21896882063e-17;1.06356949859e-20;2.45901248842e-07;-1.0110681329e-16;3.73088349431e-10;-1.37596648767e-09;7.32875189825e-16;1.37618091772e-17;-1.0110681329e-16;2.34248129858e-05
