%time;field.header.seq;field.header.stamp;field.header.frame_id;field.child_frame_id;field.pose.pose.position.x;field.pose.pose.position.y;field.pose.pose.position.z;field.pose.pose.orientation.x;field.pose.pose.orientation.y;field.pose.pose.orientation.z;field.pose.pose.orientation.w;field.pose.covariance0;field.pose.covariance1;field.pose.covariance2;field.pose.covariance3;field.pose.covariance4;field.pose.covariance5;field.pose.covariance6;field.pose.covariance7;field.pose.covariance8;field.pose.covariance9;field.pose.covariance10;field.pose.covariance11;field.pose.covariance12;field.pose.covariance13;field.pose.covariance14;field.pose.covariance15;field.pose.covariance16;field.pose.covariance17;field.pose.covariance18;field.pose.covariance19;field.pose.covariance20;field.pose.covariance21;field.pose.covariance22;field.pose.covariance23;field.pose.covariance24;field.pose.covariance25;field.pose.covariance26;field.pose.covariance27;field.pose.covariance28;field.pose.covariance29;field.pose.covariance30;field.pose.covariance31;field.pose.covariance32;field.pose.covariance33;field.pose.covariance34;field.pose.covariance35;field.twist.twist.linear.x;field.twist.twist.linear.y;field.twist.twist.linear.z;field.twist.twist.angular.x;field.twist.twist.angular.y;field.twist.twist.angular.z;field.twist.covariance0;field.twist.covariance1;field.twist.covariance2;field.twist.covariance3;field.twist.covariance4;field.twist.covariance5;field.twist.covariance6;field.twist.covariance7;field.twist.covariance8;field.twist.covariance9;field.twist.covariance10;field.twist.covariance11;field.twist.covariance12;field.twist.covariance13;field.twist.covariance14;field.twist.covariance15;field.twist.covariance16;field.twist.covariance17;field.twist.covariance18;field.twist.covariance19;field.twist.covariance20;field.twist.covariance21;field.twist.covariance22;field.twist.covariance23;field.twist.covariance24;field.twist.covariance25;field.twist.covariance26;field.twist.covariance27;field.twist.covariance28;field.twist.covariance29;field.twist.covariance30;field.twist.covariance31;field.twist.covariance32;field.twist.covariance33;field.twist.covariance34;field.twist.covariance35
102808000000;4976;102808000000;odom;base_link;0.000307756402197;7.03482570561e-08;0.0;0.0;0.0;0.000127527872646;0.999999991868;5.12961467423;-3.7108711754e-11;0.0;0.0;0.0;-2.0145398305e-07;-3.7108711754e-11;5.12961483119;0.0;0.0;0.0;0.000843754826849;0.0;0.0;9.97923155445e-07;-3.44189176705e-28;-9.04029796327e-20;0.0;0.0;0.0;-3.44189176705e-28;9.95859201936e-07;-6.03625853222e-39;0.0;0.0;0.0;-9.04029796327e-20;-2.39903985726e-38;9.95859201936e-07;0.0;-2.0145398305e-07;0.000843754826849;0.0;0.0;0.0;6.1529492844;2.63168926961e-06;0.0;0.0;0.0;0.0;4.73388013707e-07;0.000506229320536;0.0;0.0;0.0;0.0;0.0;0.0;0.000506229320536;0.0;0.0;0.0;0.0;0.0;0.0;9.96889575377e-07;-1.38947768639e-32;-5.44773927268e-29;0.0;0.0;0.0;-1.38947768639e-32;9.87729751524e-07;-1.94234013751e-37;0.0;0.0;0.0;-5.44773927268e-29;1.94234013751e-37;9.87729751524e-07;0.0;0.0;0.0;0.0;0.0;0.0;0.00015915218301
102828000000;4977;102828000000;odom;base_link;0.000307809035995;7.03616817375e-08;0.0;0.0;0.0;0.000127533178558;0.999999991868;5.13061509543;-3.71306465311e-11;0.0;0.0;0.0;-2.01536588306e-07;-3.71306465311e-11;5.13061525248;0.0;0.0;0.0;0.000844078695117;0.0;0.0;9.97923155445e-07;-4.07086044085e-28;-9.04030358926e-20;0.0;0.0;0.0;-4.07086044085e-28;9.95859201936e-07;-1.36989793623e-35;0.0;0.0;0.0;-9.04030358926e-20;1.36642566781e-35;9.95859201936e-07;0.0;-2.01536588306e-07;0.000844078695117;0.0;0.0;0.0;6.15414929818;2.63169090399e-06;0.0;0.0;0.0;0.0;5.59894007615e-07;0.00050622931933;0.0;0.0;0.0;0.0;0.0;0.0;0.00050622931933;0.0;0.0;0.0;0.0;0.0;0.0;9.96889575377e-07;-1.38953638448e-32;-5.44774266292e-29;0.0;0.0;0.0;-1.38953638448e-32;9.87729751524e-07;-1.79245106549e-38;0.0;0.0;0.0;-5.44774266292e-29;1.79245106549e-38;9.87729751524e-07;0.0;0.0;0.0;0.0;0.0;0.0;0.00015915218301
102848000000;4978;102848000000;odom;base_link;0.000307861669825;7.03751069638e-08;0.0;0.0;0.0;0.000127536561069;0.999999991867;5.13161551663;-3.71525904713e-11;0.0;0.0;0.0;-2.01619213024e-07;-3.71525904713e-11;5.13161567377;0.0;0.0;0.0;0.000844402626747;0.0;0.0;9.97923155445e-07;-1.54166945558e-28;-9.04030919979e-20;0.0;0.0;0.0;-1.54166945558e-28;9.95859201936e-07;-1.57607712112e-37;0.0;0.0;0.0;-9.04030919979e-20;1.44158353218e-37;9.95859201936e-07;0.0;-2.01619213024e-07;0.000844402626747;0.0;0.0;0.0;6.15534931196;2.63169254357e-06;0.0;0.0;0.0;0.0;2.12038271194e-07;0.000506229318155;0.0;0.0;0.0;0.0;0.0;0.0;0.000506229318155;0.0;0.0;0.0;0.0;0.0;0.0;9.96889575377e-07;-1.38957393012e-32;-5.44774604385e-29;0.0;0.0;0.0;-1.38957393012e-32;9.87729751524e-07;6.18194150777e-38;0.0;0.0;0.0;-5.44774604385e-29;-6.18194150777e-38;9.87729751524e-07;0.0;0.0;0.0;0.0;0.0;0.0;0.00015915218301
102868000000;4979;102868000000;odom;base_link;0.000307914303689;7.03885325539e-08;0.0;0.0;0.0;0.000127541998527;0.999999991867;5.13261593784;-3.71745434239e-11;0.0;0.0;0.0;-2.01701856092e-07;-3.71745434239e-11;5.13261609507;0.0;0.0;0.0;0.000844726621741;0.0;0.0;9.97923155445e-07;-5.2864213072e-28;-9.04031482839e-20;0.0;0.0;0.0;-5.2864213072e-28;9.95859201936e-07;2.69669393252e-35;0.0;0.0;0.0;-9.04031482839e-20;-2.70130575261e-35;9.95859201936e-07;0.0;-2.01701856092e-07;0.000844726621741;0.0;0.0;0.0;6.15654932574;2.63169418204e-06;0.0;0.0;0.0;0.0;7.2707780109e-07;0.000506229317009;0.0;0.0;0.0;0.0;0.0;0.0;0.000506229317009;0.0;0.0;0.0;0.0;0.0;0.0;9.96889575377e-07;-1.3896342203e-32;-5.44774943567e-29;0.0;0.0;0.0;-1.3896342203e-32;9.87729751524e-07;-2.85240343492e-37;0.0;0.0;0.0;-5.44774943567e-29;2.85240343492e-37;9.87729751524e-07;0.0;0.0;0.0;0.0;0.0;0.0;0.00015915218301
102888000000;4980;102888000000;odom;base_link;0.000307966937585;7.04019587847e-08;0.0;0.0;0.0;0.000127548138906;0.999999991866;5.13361635904;-3.71965056252e-11;0.0;0.0;0.0;-2.01784519216e-07;-3.71965056252e-11;5.13361651636;0.0;0.0;0.0;0.000845050680097;0.0;0.0;9.97923155445e-07;-3.97951383572e-28;-9.04032045318e-20;0.0;0.0;0.0;-3.97951383572e-28;9.95859201936e-07;4.03985290358e-35;0.0;0.0;0.0;-9.04032045318e-20;-4.04332459307e-35;9.95859201936e-07;0.0;-2.01784519216e-07;0.000845050680097;0.0;0.0;0.0;6.15774933952;2.63169581255e-06;0.0;0.0;0.0;0.0;5.47328439193e-07;0.000506229315892;0.0;0.0;0.0;0.0;0.0;0.0;0.000506229315892;0.0;0.0;0.0;0.0;0.0;0.0;9.96889575377e-07;-1.38970205275e-32;-5.44775282518e-29;0.0;0.0;0.0;-1.38970205275e-32;9.87729751524e-07;1.10898863609e-37;0.0;0.0;0.0;-5.44775282518e-29;-1.10898863609e-37;9.87729751524e-07;0.0;0.0;0.0;0.0;0.0;0.0;0.00015915218301
102908000000;4981;102908000000;odom;base_link;0.000308019571514;7.04153856343e-08;0.0;0.0;0.0;0.000127553087968;0.999999991865;5.13461678024;-3.72184770588e-11;0.0;0.0;0.0;-2.01867202263e-07;-3.72184770588e-11;5.13461693765;0.0;0.0;0.0;0.000845374801816;0.0;0.0;9.97923155445e-07;-3.3653400019e-28;-9.0403260504e-20;0.0;0.0;0.0;-3.3653400019e-28;9.95859201936e-07;-3.37770195336e-35;0.0;0.0;0.0;-9.0403260504e-20;3.37476606138e-35;9.95859201936e-07;0.0;-2.01867202263e-07;0.000845374801816;0.0;0.0;0.0;6.1589493533;2.63169744279e-06;0.0;0.0;0.0;0.0;4.62857962446e-07;0.000506229314802;0.0;0.0;0.0;0.0;0.0;0.0;0.000506229314802;0.0;0.0;0.0;0.0;0.0;0.0;9.96889575377e-07;-1.3897567287e-32;-5.44775619809e-29;0.0;0.0;0.0;-1.3897567287e-32;9.87729751524e-07;2.51441337518e-37;0.0;0.0;0.0;-5.44775619809e-29;-2.51441337518e-37;9.87729751524e-07;0.0;0.0;0.0;0.0;0.0;0.0;0.00015915218301
102928000000;4982;102928000000;odom;base_link;0.000308072205475;7.04288130139e-08;0.0;0.0;0.0;0.00012755858799;0.999999991864;5.13561720144;-3.72404576518e-11;0.0;0.0;0.0;-2.01949904686e-07;-3.72404576518e-11;5.13561735894;0.0;0.0;0.0;0.000845698986897;0.0;0.0;9.97923155445e-07;-4.33346752515e-28;-9.04033164674e-20;0.0;0.0;0.0;-4.33346752515e-28;9.95859201936e-07;-6.89028290178e-36;0.0;0.0;0.0;-9.04033164674e-20;6.85247810225e-36;9.95859201936e-07;0.0;-2.01949904686e-07;0.000845698986897;0.0;0.0;0.0;6.16014936708;2.6316990729e-06;0.0;0.0;0.0;0.0;5.96010173501e-07;0.00050622931374;0.0;0.0;0.0;0.0;0.0;0.0;0.00050622931374;0.0;0.0;0.0;0.0;0.0;0.0;9.96889575377e-07;-1.38981756324e-32;-5.44775957046e-29;0.0;0.0;0.0;-1.38981756324e-32;9.87729751524e-07;1.86007475974e-37;0.0;0.0;0.0;-5.44775957046e-29;-1.86007475974e-37;9.87729751524e-07;0.0;0.0;0.0;0.0;0.0;0.0;0.00015915218301
102948000000;4983;102948000000;odom;base_link;0.000308124839469;7.04422410039e-08;0.0;0.0;0.0;0.000127564755658;0.999999991864;5.13661762265;-3.72624474747e-11;0.0;0.0;0.0;-2.02032626983e-07;-3.72624474747e-11;5.13661778023;0.0;0.0;0.0;0.00084602323534;0.0;0.0;9.97923155445e-07;-4.54536299138e-28;-9.0403372427e-20;0.0;0.0;0.0;-4.54536299138e-28;9.95859201936e-07;-3.38063831521e-35;0.0;0.0;0.0;-9.0403372427e-20;3.37667297701e-35;9.95859201936e-07;0.0;-2.02032626983e-07;0.00084602323534;0.0;0.0;0.0;6.16134938086;2.63170069926e-06;0.0;0.0;0.0;0.0;6.25152415844e-07;0.000506229312705;0.0;0.0;0.0;0.0;0.0;0.0;0.000506229312705;0.0;0.0;0.0;0.0;0.0;0.0;9.96889575377e-07;-1.38988568368e-32;-5.4477629426e-29;0.0;0.0;0.0;-1.38988568368e-32;9.87729751524e-07;3.64499925516e-37;0.0;0.0;0.0;-5.4477629426e-29;-3.64499925516e-37;9.87729751524e-07;0.0;0.0;0.0;0.0;0.0;0.0;0.00015915218301
102968000000;4984;102968000000;odom;base_link;0.000308177473495;7.04556696549e-08;0.0;0.0;0.0;0.000127570960984;0.999999991863;5.13761804385;-3.72844465724e-11;0.0;0.0;0.0;-2.02115369466e-07;-3.72844465724e-11;5.13761820152;0.0;0.0;0.0;0.000846347547144;0.0;0.0;9.97923155445e-07;-4.46902583374e-28;-9.04034282563e-20;0.0;0.0;0.0;-4.46902583374e-28;9.95859201936e-07;-6.76060534423e-36;0.0;0.0;0.0;-9.04034282563e-20;6.72161789741e-36;9.95859201936e-07;0.0;-2.02115369466e-07;0.000846347547144;0.0;0.0;0.0;6.16254939464;2.63170232559e-06;0.0;0.0;0.0;0.0;6.14652831808e-07;0.000506229311695;0.0;0.0;0.0;0.0;0.0;0.0;0.000506229311695;0.0;0.0;0.0;0.0;0.0;0.0;9.96889575377e-07;-1.38995415586e-32;-5.4477663069e-29;0.0;0.0;0.0;-1.38995415586e-32;9.87729751524e-07;-1.39529393161e-39;0.0;0.0;0.0;-5.4477663069e-29;1.3952939316e-39;9.87729751524e-07;0.0;0.0;0.0;0.0;0.0;0.0;0.00015915218301
102988000000;4985;102988000000;odom;base_link;0.000308230107554;7.04690989197e-08;0.0;0.0;0.0;0.000127574201912;0.999999991862;5.13861846505;-3.73064549073e-11;0.0;0.0;0.0;-2.02198131847e-07;-3.73064549073e-11;5.13861862282;0.0;0.0;0.0;0.000846671922311;0.0;0.0;9.97923155445e-07;-1.15798491357e-28;-9.04034840857e-20;0.0;0.0;0.0;-1.15798491357e-28;9.95859201936e-07;1.34561954825e-35;0.0;0.0;0.0;-9.04034840857e-20;-1.34662976624e-35;9.95859201936e-07;0.0;-2.02198131847e-07;0.000846671922311;0.0;0.0;0.0;6.16374940842;2.63170395193e-06;0.0;0.0;0.0;0.0;1.59266878516e-07;0.00050622931071;0.0;0.0;0.0;0.0;0.0;0.0;0.00050622931071;0.0;0.0;0.0;0.0;0.0;0.0;9.96889575377e-07;-1.38999006182e-32;-5.4477696712e-29;0.0;0.0;0.0;-1.38999006182e-32;9.87729751524e-07;1.85092954424e-37;0.0;0.0;0.0;-5.4477696712e-29;-1.85092954424e-37;9.87729751524e-07;0.0;0.0;0.0;0.0;0.0;0.0;0.00015915218301
103008000000;4986;103008000000;odom;base_link;0.000308282741645;7.0482528491e-08;0.0;0.0;0.0;0.000127577468532;0.999999991862;5.13961888626;-3.73284722216e-11;0.0;0.0;0.0;-2.02280912232e-07;-3.73284722216e-11;5.13961904411;0.0;0.0;0.0;0.00084699636084;0.0;0.0;9.97923155445e-07;-3.04576552442e-28;-9.04035399156e-20;0.0;0.0;0.0;-3.04576552442e-28;9.95859201936e-07;1.02454091499e-35;0.0;0.0;0.0;-9.04035399156e-20;-1.02719802131e-35;9.95859201936e-07;0.0;-2.02280912232e-07;0.00084699636084;0.0;0.0;0.0;6.1649494222;2.63170557085e-06;0.0;0.0;0.0;0.0;4.18905389273e-07;0.00050622930975;0.0;0.0;0.0;0.0;0.0;0.0;0.00050622930975;0.0;0.0;0.0;0.0;0.0;0.0;9.96889575377e-07;-1.39002651173e-32;-5.44777303554e-29;0.0;0.0;0.0;-1.39002651173e-32;9.87729751524e-07;-2.48152111276e-37;0.0;0.0;0.0;-5.44777303554e-29;2.48152111276e-37;9.87729751524e-07;0.0;0.0;0.0;0.0;0.0;0.0;0.00015915218301
103028000000;4987;103028000000;odom;base_link;0.000308335375769;7.04959584971e-08;0.0;0.0;0.0;0.000127584410776;0.999999991861;5.14061930746;-3.73504986257e-11;0.0;0.0;0.0;-2.02363711414e-07;-3.73504986257e-11;5.1406194654;0.0;0.0;0.0;0.00084732086273;0.0;0.0;9.97923155445e-07;-6.14459922313e-28;-9.04035954886e-20;0.0;0.0;0.0;-6.14459922313e-28;9.95859201936e-07;-2.02048857722e-35;0.0;0.0;0.0;-9.04035954886e-20;2.01512806494e-35;9.95859201936e-07;0.0;-2.02363711414e-07;0.00084732086273;0.0;0.0;0.0;6.16614943598;2.63170719164e-06;0.0;0.0;0.0;0.0;8.45103090695e-07;0.000506229308814;0.0;0.0;0.0;0.0;0.0;0.0;0.000506229308814;0.0;0.0;0.0;0.0;0.0;0.0;9.96889575377e-07;-1.39010333452e-32;-5.44777638438e-29;0.0;0.0;0.0;-1.39010333452e-32;9.87729751524e-07;-9.52694548666e-38;0.0;0.0;0.0;-5.44777638438e-29;9.52694548666e-38;9.87729751524e-07;0.0;0.0;0.0;0.0;0.0;0.0;0.00015915218301
103048000000;4988;103048000000;odom;base_link;0.000308388009925;7.0509389265e-08;0.0;0.0;0.0;0.000127590227017;0.99999999186;5.14161972866;-3.73725343992e-11;0.0;0.0;0.0;-2.02446531409e-07;-3.73725343992e-11;5.14161988669;0.0;0.0;0.0;0.000847645427982;0.0;0.0;9.97923155445e-07;-3.13107179703e-28;-9.0403651127e-20;0.0;0.0;0.0;-3.13107179703e-28;9.95859201936e-07;3.36393101335e-35;0.0;0.0;0.0;-9.0403651127e-20;-3.36658343934e-35;9.95859201936e-07;0.0;-2.02446531409e-07;0.000847645427982;0.0;0.0;0.0;6.16734944976;2.63170880966e-06;0.0;0.0;0.0;0.0;4.30634556913e-07;0.000506229307902;0.0;0.0;0.0;0.0;0.0;0.0;0.000506229307902;0.0;0.0;0.0;0.0;0.0;0.0;9.96889575377e-07;-1.39016746321e-32;-5.44777973717e-29;0.0;0.0;0.0;-1.39016746321e-32;9.87729751524e-07;3.81814188743e-38;0.0;0.0;0.0;-5.44777973717e-29;-3.81814188743e-38;9.87729751524e-07;0.0;0.0;0.0;0.0;0.0;0.0;0.00015915218301
103068000000;4989;103068000000;odom;base_link;0.000308440644113;7.05228206128e-08;0.0;0.0;0.0;0.000127595969152;0.99999999186;5.14262014986;-3.73945793902e-11;0.0;0.0;0.0;-2.02529371098e-07;-3.73945793902e-11;5.14262030798;0.0;0.0;0.0;0.000847970056594;0.0;0.0;9.97923155445e-07;-4.73893523012e-28;-9.04037066698e-20;0.0;0.0;0.0;-4.73893523012e-28;9.95859201936e-07;-6.65333013146e-36;0.0;0.0;0.0;-9.04037066698e-20;6.61198788795e-36;9.95859201936e-07;0.0;-2.02529371098e-07;0.000847970056594;0.0;0.0;0.0;6.16854946354;2.63171042816e-06;0.0;0.0;0.0;0.0;6.51773797461e-07;0.000506229307012;0.0;0.0;0.0;0.0;0.0;0.0;0.000506229307012;0.0;0.0;0.0;0.0;0.0;0.0;9.96889575377e-07;-1.39023087234e-32;-5.44778308419e-29;0.0;0.0;0.0;-1.39023087234e-32;9.87729751524e-07;2.8463342928e-37;0.0;0.0;0.0;-5.44778308419e-29;-2.8463342928e-37;9.87729751524e-07;0.0;0.0;0.0;0.0;0.0;0.0;0.00015915218301
103088000000;4990;103088000000;odom;base_link;0.000308493278334;7.05362525787e-08;0.0;0.0;0.0;0.000127600711609;0.999999991859;5.14362057106;-3.74166336332e-11;0.0;0.0;0.0;-2.02612230718e-07;-3.74166336332e-11;5.14362072927;0.0;0.0;0.0;0.000848294748568;0.0;0.0;9.97923155445e-07;-2.70529969518e-28;-9.04037622297e-20;0.0;0.0;0.0;-2.70529969518e-28;9.95859201936e-07;-6.74766401956e-36;0.0;0.0;0.0;-9.04037622297e-20;6.72406310036e-36;9.95859201936e-07;0.0;-2.02612230718e-07;0.000848294748568;0.0;0.0;0.0;6.16974947732;2.63171205062e-06;0.0;0.0;0.0;0.0;3.72076262379e-07;0.000506229306144;0.0;0.0;0.0;0.0;0.0;0.0;0.000506229306144;0.0;0.0;0.0;0.0;0.0;0.0;9.96889575377e-07;-1.39028331066e-32;-5.44778643226e-29;0.0;0.0;0.0;-1.39028331066e-32;9.87729751524e-07;3.02098901508e-39;0.0;0.0;0.0;-5.44778643226e-29;-3.02098901506e-39;9.87729751524e-07;0.0;0.0;0.0;0.0;0.0;0.0;0.00015915218301
103108000000;4991;103108000000;odom;base_link;0.000308545912588;7.05496850171e-08;0.0;0.0;0.0;0.000127604917679;0.999999991858;5.14462099227;-3.74386970071e-11;0.0;0.0;0.0;-2.02695109371e-07;-3.7438697007e-11;5.14462115057;0.0;0.0;0.0;0.000848619503904;0.0;0.0;9.97923155445e-07;-3.24005512045e-28;-9.04038179274e-20;0.0;0.0;0.0;-3.24005512045e-28;9.95859201936e-07;-5.62828652899e-38;0.0;0.0;0.0;-9.04038179274e-20;2.80167451367e-38;9.95859201936e-07;0.0;-2.02695109371e-07;0.000848619503904;0.0;0.0;0.0;6.1709494911;2.63171366765e-06;0.0;0.0;0.0;0.0;4.45624803531e-07;0.000506229305299;0.0;0.0;0.0;0.0;0.0;0.0;0.000506229305299;0.0;0.0;0.0;0.0;0.0;0.0;9.96889575377e-07;-1.39032994554e-32;-5.44778978862e-29;0.0;0.0;0.0;-1.39032994554e-32;9.87729751524e-07;-9.04655950977e-38;0.0;0.0;0.0;-5.44778978862e-29;9.04655950977e-38;9.87729751524e-07;0.0;0.0;0.0;0.0;0.0;0.0;0.00015915218301
103128000000;4992;103128000000;odom;base_link;0.000308598546874;7.05631178875e-08;0.0;0.0;0.0;0.000127607476167;0.999999991858;5.14562141347;-3.74607694796e-11;0.0;0.0;0.0;-2.0277800681e-07;-3.74607694796e-11;5.14562157186;0.0;0.0;0.0;0.000848944322602;0.0;0.0;9.97923155445e-07;-1.07579054742e-28;-9.04038734372e-20;0.0;0.0;0.0;-1.07579054742e-28;9.95859201936e-07;-2.04319456142e-35;0.0;0.0;0.0;-9.04038734372e-20;2.04225604518e-35;9.95859201936e-07;0.0;-2.0277800681e-07;0.000848944322602;0.0;0.0;0.0;6.17214950488;2.63171528939e-06;0.0;0.0;0.0;0.0;1.47962319422e-07;0.000506229304474;0.0;0.0;0.0;0.0;0.0;0.0;0.000506229304474;0.0;0.0;0.0;0.0;0.0;0.0;9.96889575377e-07;-1.39035852911e-32;-5.44779313367e-29;0.0;0.0;0.0;-1.39035852911e-32;9.87729751524e-07;3.68161319052e-37;0.0;0.0;0.0;-5.44779313367e-29;-3.68161319052e-37;9.87729751524e-07;0.0;0.0;0.0;0.0;0.0;0.0;0.00015915218301
103148000000;4993;103148000000;odom;base_link;0.000308651181191;7.05765509941e-08;0.0;0.0;0.0;0.000127609208769;0.999999991858;5.14662183467;-3.74828508868e-11;0.0;0.0;0.0;-2.02860921826e-07;-3.74828508868e-11;5.14662199315;0.0;0.0;0.0;0.000849269204661;0.0;0.0;9.97923155445e-07;-1.35633453185e-28;-9.0403929111e-20;0.0;0.0;0.0;-1.35633453185e-28;9.95859201936e-07;3.20340974943e-35;0.0;0.0;0.0;-9.0403929111e-20;-3.20451390773e-35;9.95859201936e-07;0.0;-2.02860921826e-07;0.000849269204661;0.0;0.0;0.0;6.17334951866;2.63171689679e-06;0.0;0.0;0.0;0.0;1.8654806324e-07;0.00050622930367;0.0;0.0;0.0;0.0;0.0;0.0;0.00050622930367;0.0;0.0;0.0;0.0;0.0;0.0;9.96889575377e-07;-1.39037818795e-32;-5.4477964886e-29;0.0;0.0;0.0;-1.39037818795e-32;9.87729751524e-07;1.15724230146e-37;0.0;0.0;0.0;-5.4477964886e-29;-1.15724230145e-37;9.87729751524e-07;0.0;0.0;0.0;0.0;0.0;0.0;0.00015915218301
103180000000;4994;103180000000;odom;base_link;0.000308735396169;7.059804467e-08;0.0;0.0;0.0;0.000127618922024;0.999999991857;5.14822270613;-3.75181999081e-11;0.0;0.0;0.0;-2.02993623346e-07;-3.7518199908e-11;5.14822286475;0.0;0.0;0.0;0.000849789146229;0.0;0.0;4.99653498725e-07;-2.78976995276e-28;-3.01454171803e-20;0.0;0.0;0.0;-2.78976995276e-28;4.99308429416e-07;1.51557276199e-35;0.0;0.0;0.0;-3.01454171803e-20;-1.52043415242e-35;4.99308429416e-07;0.0;-2.02993623346e-07;0.000849789146229;0.0;0.0;0.0;6.17526954622;2.63171955104e-06;0.0;0.0;0.0;0.0;5.44245847755e-07;0.000816084181328;0.0;0.0;0.0;0.0;0.0;0.0;0.000816084181328;0.0;0.0;0.0;0.0;0.0;0.0;4.99480785999e-07;-1.85367301492e-32;-7.26249820923e-29;0.0;0.0;0.0;-1.85367301492e-32;4.97942179006e-07;2.47523776798e-37;0.0;0.0;0.0;-7.26249820923e-29;-2.47523776798e-37;4.97942179006e-07;0.0;0.0;0.0;0.0;0.0;0.0;9.99957496497e-10
103200000000;4995;103200000000;odom;base_link;0.000308788030571;7.0611479099e-08;0.0;0.0;0.0;0.000127624441182;0.999999991856;5.14922312733;-3.75403051561e-11;0.0;0.0;0.0;-2.03076588441e-07;-3.75403051561e-11;5.14922328604;0.0;0.0;0.0;0.000850114193026;0.0;0.0;4.99653498725e-07;-1.95836238558e-28;-3.01454355816e-20;0.0;0.0;0.0;-1.95836238558e-28;4.99308429416e-07;1.06343775965e-35;0.0;0.0;0.0;-3.01454355816e-20;-1.06684578531e-35;4.99308429416e-07;0.0;-2.03076588441e-07;0.000850114193026;0.0;0.0;0.0;6.17646956;2.63172115706e-06;0.0;0.0;0.0;0.0;5.80651654103e-07;0.000816084179371;0.0;0.0;0.0;0.0;0.0;0.0;0.000816084179371;0.0;0.0;0.0;0.0;0.0;0.0;4.99480785999e-07;-1.85374485267e-32;-7.26250264236e-29;0.0;0.0;0.0;-1.85374485267e-32;4.97942179006e-07;1.02163079838e-37;0.0;0.0;0.0;-7.26250264236e-29;-1.02163079838e-37;4.97942179006e-07;0.0;0.0;0.0;0.0;0.0;0.0;9.99957496497e-10
103208000000;4996;103208000000;odom;base_link;0.000308809084339;7.061685305e-08;0.0;0.0;0.0;0.000127626763789;0.999999991856;5.14962309828;-3.75491498557e-11;0.0;0.0;0.0;-2.03109780491e-07;-3.75491498556e-11;5.14962325702;0.0;0.0;0.0;0.000850244231004;0.0;0.0;9.97923155445e-07;-4.19947968159e-28;-9.04040950846e-20;0.0;0.0;0.0;-4.19947968159e-28;9.95859201936e-07;-1.34173200312e-35;0.0;0.0;0.0;-9.04040950846e-20;1.33814748581e-35;9.95859201936e-07;0.0;-2.03109780491e-07;0.000850244231004;0.0;0.0;0.0;6.17694956;2.63172174475e-06;0.0;0.0;0.0;0.0;5.77576743015e-07;0.000506229301376;0.0;0.0;0.0;0.0;0.0;0.0;0.000506229301376;0.0;0.0;0.0;0.0;0.0;0.0;9.96889575377e-07;-1.39057236554e-32;-5.44780649023e-29;0.0;0.0;0.0;-1.39057236554e-32;9.87729751524e-07;-3.23617328171e-38;0.0;0.0;0.0;-5.44780649023e-29;3.23617328171e-38;9.87729751524e-07;0.0;0.0;0.0;0.0;0.0;0.0;0.00015915218301
103228000000;4997;103228000000;odom;base_link;0.000308861718786;7.06302882866e-08;0.0;0.0;0.0;0.000127630131319;0.999999991855;5.15062351948;-3.75712680286e-11;0.0;0.0;0.0;-2.03192773144e-07;-3.75712680286e-11;5.15062367832;0.0;0.0;0.0;0.000850569366508;0.0;0.0;9.97923155445e-07;-1.45256290306e-28;-9.04041507141e-20;0.0;0.0;0.0;-1.45256290306e-28;9.95859201936e-07;-5.76779527595e-38;0.0;0.0;0.0;-9.04041507141e-20;4.50058014653e-38;9.95859201936e-07;0.0;-2.03192773144e-07;0.000850569366508;0.0;0.0;0.0;6.17814957379;2.63172335152e-06;0.0;0.0;0.0;0.0;1.99780485756e-07;0.000506229300649;0.0;0.0;0.0;0.0;0.0;0.0;0.000506229300649;0.0;0.0;0.0;0.0;0.0;0.0;9.96889575377e-07;-1.39060970813e-32;-5.44780984249e-29;0.0;0.0;0.0;-1.39060970813e-32;9.87729751524e-07;-2.01085431513e-38;0.0;0.0;0.0;-5.44780984249e-29;2.01085431513e-38;9.87729751524e-07;0.0;0.0;0.0;0.0;0.0;0.0;0.00015915218301
103260000000;4998;103260000000;odom;base_link;0.00030894593397;7.06517852747e-08;0.0;0.0;0.0;0.000127634360634;0.999999991855;5.15222439093;-3.76066758116e-11;0.0;0.0;0.0;-2.033255983e-07;-3.76066758116e-11;5.15222454991;0.0;0.0;0.0;0.000851089713587;0.0;0.0;4.99653498725e-07;-8.68118926201e-29;-3.01454909674e-20;0.0;0.0;0.0;-8.68118926201e-29;4.99308429416e-07;8.19934997826e-36;0.0;0.0;0.0;-3.01454909674e-20;-8.21452356281e-36;4.99308429416e-07;0.0;-2.033255983e-07;0.000851089713587;0.0;0.0;0.0;6.18006960135;2.63172599108e-06;0.0;0.0;0.0;0.0;4.60060935993e-07;0.000816084173789;0.0;0.0;0.0;0.0;0.0;0.0;0.000816084173789;0.0;0.0;0.0;0.0;0.0;0.0;4.99480785999e-07;-1.85388578367e-32;-7.26251598562e-29;0.0;0.0;0.0;-1.85388578367e-32;4.97942179006e-07;1.3523463814e-37;0.0;0.0;0.0;-7.26251598562e-29;-1.3523463814e-37;4.97942179006e-07;0.0;0.0;0.0;0.0;0.0;0.0;9.99957496497e-10
103280000000;4999;103280000000;odom;base_link;0.000308998568501;7.06652213406e-08;0.0;0.0;0.0;0.000127639542436;0.999999991854;5.15322481213;-3.76288174286e-11;0.0;0.0;0.0;-2.03408637997e-07;-3.76288174286e-11;5.1532249712;0.0;0.0;0.0;0.000851415013829;0.0;0.0;4.99653498725e-07;-1.65544654928e-28;-3.0145509389e-20;0.0;0.0;0.0;-1.65544654928e-28;4.99308429416e-07;2.86027790859e-38;0.0;0.0;0.0;-3.0145509389e-20;-5.7278295385e-38;4.99308429416e-07;0.0;-2.03408637997e-07;0.00085141501383;0.0;0.0;0.0;6.18126961513;2.6317275989e-06;0.0;0.0;0.0;0.0;7.06669456918e-07;0.000816084172021;0.0;0.0;0.0;0.0;0.0;0.0;0.000816084172021;0.0;0.0;0.0;0.0;0.0;0.0;4.99480785999e-07;-1.85396137301e-32;-7.26252042367e-29;0.0;0.0;0.0;-1.85396137301e-32;4.97942179006e-07;9.42127597112e-38;0.0;0.0;0.0;-7.26252042367e-29;-9.42127597112e-38;4.97942179006e-07;0.0;0.0;0.0;0.0;0.0;0.0;9.99957496497e-10
103300000000;5000;103300000000;odom;base_link;0.000309051203064;7.06786580225e-08;0.0;0.0;0.0;0.000127646297159;0.999999991853;5.15422523333;-3.76509683191e-11;0.0;0.0;0.0;-2.03491697626e-07;-3.76509683191e-11;5.15422539248;0.0;0.0;0.0;0.000851740377432;0.0;0.0;4.99653498725e-07;-2.5428138766e-28;-3.01455277647e-20;0.0;0.0;0.0;-2.5428138766e-28;4.99308429416e-07;-3.08433510052e-36;0.0;0.0;0.0;-3.01455277647e-20;3.04018508522e-36;4.99308429416e-07;0.0;-2.03491697626e-07;0.000851740377432;0.0;0.0;0.0;6.18246962891;2.63172920269e-06;0.0;0.0;0.0;0.0;5.81911542257e-07;0.000816084170297;0.0;0.0;0.0;0.0;0.0;0.0;0.000816084170297;0.0;0.0;0.0;0.0;0.0;0.0;4.99480785999e-07;-1.85407369707e-32;-7.26252485061e-29;0.0;0.0;0.0;-1.85407369707e-32;4.97942179006e-07;-1.49417393699e-37;0.0;0.0;0.0;-7.26252485061e-29;1.49417393699e-37;4.97942179006e-07;0.0;0.0;0.0;0.0;0.0;0.0;9.99957496497e-10
103320000000;5001;103320000000;odom;base_link;0.000309103837659;7.06920953922e-08;0.0;0.0;0.0;0.000127651948603;0.999999991852;5.15522565453;-3.76731285467e-11;0.0;0.0;0.0;-2.03574777631e-07;-3.76731285467e-11;5.15522581377;0.0;0.0;0.0;0.000852065804396;0.0;0.0;4.99653498725e-07;-2.09390134561e-28;-3.01455462028e-20;0.0;0.0;0.0;-2.09390134561e-28;4.99308429416e-07;2.91535919017e-36;0.0;0.0;0.0;-3.01455462028e-20;-2.95169815883e-36;4.99308429416e-07;0.0;-2.03574777631e-07;0.000852065804396;0.0;0.0;0.0;6.18366964269;2.63173081196e-06;0.0;0.0;0.0;0.0;5.16472924715e-07;0.000816084168615;0.0;0.0;0.0;0.0;0.0;0.0;0.000816084168615;0.0;0.0;0.0;0.0;0.0;0.0;4.99480785999e-07;-1.85415476804e-32;-7.26252929262e-29;0.0;0.0;0.0;-1.85415476804e-32;4.97942179006e-07;-2.66832696032e-37;0.0;0.0;0.0;-7.26252929262e-29;2.66832696032e-37;4.97942179006e-07;0.0;0.0;0.0;0.0;0.0;0.0;9.99957496497e-10
103340000000;5002;103340000000;odom;base_link;0.000309156472286;7.07055333483e-08;0.0;0.0;0.0;0.000127655908097;0.999999991852;5.15622607573;-3.76952980273e-11;0.0;0.0;0.0;-2.03657877388e-07;-3.76952980273e-11;5.15622623506;0.0;0.0;0.0;0.00085239129472;0.0;0.0;4.99653498725e-07;-1.85843590528e-28;-3.01455644374e-20;0.0;0.0;0.0;-1.85843590528e-28;4.99308429416e-07;-8.95985895028e-36;0.0;0.0;0.0;-3.01455644374e-20;8.92745102988e-36;4.99308429416e-07;0.0;-2.03657877388e-07;0.00085239129472;0.0;0.0;0.0;6.18486965647;2.63173240341e-06;0.0;0.0;0.0;0.0;1.68130831183e-08;0.000816084166977;0.0;0.0;0.0;0.0;0.0;0.0;0.000816084166977;0.0;0.0;0.0;0.0;0.0;0.0;4.99480785999e-07;-1.85422844354e-32;-7.26253368561e-29;0.0;0.0;0.0;-1.85422844354e-32;4.97942179006e-07;3.33452531315e-38;0.0;0.0;0.0;-7.26253368561e-29;-3.33452531315e-38;4.97942179006e-07;0.0;0.0;0.0;0.0;0.0;0.0;9.99957496497e-10
103360000000;5003;103360000000;odom;base_link;0.000309209106945;7.07189716033e-08;0.0;0.0;0.0;0.000127656759723;0.999999991852;5.15722649692;-3.7717476518e-11;0.0;0.0;0.0;-2.03740995119e-07;-3.7717476518e-11;5.15722665635;0.0;0.0;0.0;0.000852716848404;0.0;0.0;4.99653498725e-07;-6.0518125801e-30;-3.01455828906e-20;0.0;0.0;0.0;-6.0518125801e-30;4.99308429416e-07;-1.68224643223e-36;0.0;0.0;0.0;-3.01455828906e-20;1.68122621797e-36;4.99308429416e-07;0.0;-2.03740995119e-07;0.000852716848404;0.0;0.0;0.0;6.18606967025;2.63173401402e-06;0.0;0.0;0.0;0.0;3.02637537648e-07;0.000816084165379;0.0;0.0;0.0;0.0;0.0;0.0;0.000816084165379;0.0;0.0;0.0;0.0;0.0;0.0;4.99480785999e-07;-1.85421429575e-32;-7.26253813127e-29;0.0;0.0;0.0;-1.85421429575e-32;4.97942179006e-07;-3.38747839876e-38;0.0;0.0;0.0;-7.26253813127e-29;3.38747839876e-38;4.97942179006e-07;0.0;0.0;0.0;0.0;0.0;0.0;9.99957496497e-10
103380000000;5004;103380000000;odom;base_link;0.000309261741636;7.07324100282e-08;0.0;0.0;0.0;0.000127660370128;0.999999991851;5.15822691812;-3.77396639108e-11;0.0;0.0;0.0;-2.03824130027e-07;-3.77396639108e-11;5.15822707764;0.0;0.0;0.0;0.000853042465448;0.0;0.0;4.99653498725e-07;-1.0889968614e-28;-3.01456011118e-20;0.0;0.0;0.0;-1.0889968614e-28;4.99308429416e-07;-4.53893802356e-36;0.0;0.0;0.0;-3.01456011118e-20;4.52005294768e-36;4.99308429416e-07;0.0;-2.03824130027e-07;0.000853042465448;0.0;0.0;0.0;6.18726968403;2.6317356043e-06;0.0;0.0;0.0;0.0;5.49172288288e-07;0.00081608416382;0.0;0.0;0.0;0.0;0.0;0.0;0.00081608416382;0.0;0.0;0.0;0.0;0.0;0.0;4.99480785999e-07;-1.85426942787e-32;-7.26254252103e-29;0.0;0.0;0.0;-1.85426942787e-32;4.97942179006e-07;-1.36074645408e-37;0.0;0.0;0.0;-7.26254252103e-29;1.36074645408e-37;4.97942179006e-07;0.0;0.0;0.0;0.0;0.0;0.0;9.99957496497e-10
103400000000;5005;103400000000;odom;base_link;0.000309314376359;7.07458489039e-08;0.0;0.0;0.0;0.000127665265469;0.999999991851;5.15922733932;-3.7761860447e-11;0.0;0.0;0.0;-2.0390728385e-07;-3.7761860447e-11;5.15922749893;0.0;0.0;0.0;0.000853368145854;0.0;0.0;4.99653498725e-07;-1.9761011019e-28;-3.01456195799e-20;0.0;0.0;0.0;-1.9761011019e-28;4.99308429416e-07;6.08840025793e-36;0.0;0.0;0.0;-3.01456195799e-20;-6.12275528833e-36;4.99308429416e-07;0.0;-2.0390728385e-07;0.000853368145854;0.0;0.0;0.0;6.18846969781;2.63173721622e-06;0.0;0.0;0.0;0.0;3.04272138461e-07;0.000816084162301;0.0;0.0;0.0;0.0;0.0;0.0;0.000816084162301;0.0;0.0;0.0;0.0;0.0;0.0;4.99480785999e-07;-1.85435892268e-32;-7.26254697025e-29;0.0;0.0;0.0;-1.85435892268e-32;4.97942179006e-07;6.62349510913e-38;0.0;0.0;0.0;-7.26254697025e-29;-6.62349510913e-38;4.97942179006e-07;0.0;0.0;0.0;0.0;0.0;0.0;9.99957496497e-10
103420000000;5006;103420000000;odom;base_link;0.000309367011114;7.0759288241e-08;0.0;0.0;0.0;0.000127669616324;0.99999999185;5.16022776052;-3.77840661382e-11;0.0;0.0;0.0;-2.03990456656e-07;-3.77840661382e-11;5.16022792022;0.0;0.0;0.0;0.000853693889619;0.0;0.0;4.99653498725e-07;-1.09487996081e-28;-3.01456377874e-20;0.0;0.0;0.0;-1.09487996081e-28;4.99308429416e-07;-2.95516958874e-36;0.0;0.0;0.0;-3.01456377874e-20;2.93621656907e-36;4.99308429416e-07;0.0;-2.03990456656e-07;0.000853693889619;0.0;0.0;0.0;6.18966971159;2.63173880531e-06;0.0;0.0;0.0;0.0;8.53492256415e-07;0.00081608416082;0.0;0.0;0.0;0.0;0.0;0.0;0.00081608416082;0.0;0.0;0.0;0.0;0.0;0.0;4.99480785999e-07;-1.85439546878e-32;-7.26255135671e-29;0.0;0.0;0.0;-1.85439546878e-32;4.97942179006e-07;-7.1347542458e-38;0.0;0.0;0.0;-7.26255135671e-29;7.1347542458e-38;4.97942179006e-07;0.0;0.0;0.0;0.0;0.0;0.0;9.99957496497e-10
103428000000;5007;103428000000;odom;base_link;0.000309388065023;7.07646641302e-08;0.0;0.0;0.0;0.000127673030293;0.99999999185;5.1606277315;-3.77929510004e-11;0.0;0.0;0.0;-2.0402373164e-07;-3.77929510004e-11;5.16062789123;0.0;0.0;0.0;0.000853824206383;0.0;0.0;9.97923155445e-07;-6.17278619723e-28;-9.04047012296e-20;0.0;0.0;0.0;-6.17278619723e-28;9.95859201936e-07;1.34748880978e-35;0.0;0.0;0.0;-9.04047012296e-20;-1.35287397808e-35;9.95859201936e-07;0.0;-2.0402373164e-07;0.000853824206383;0.0;0.0;0.0;6.19014971159;2.63173938617e-06;0.0;0.0;0.0;0.0;8.4896990288e-07;0.000506229294309;0.0;0.0;0.0;0.0;0.0;0.0;0.000506229294309;0.0;0.0;0.0;0.0;0.0;0.0;9.96889575377e-07;-1.39108587179e-32;-5.44784301677e-29;0.0;0.0;0.0;-1.39108587179e-32;9.87729751524e-07;3.49419512891e-40;0.0;0.0;0.0;-5.44784301677e-29;-3.49419512893e-40;9.87729751524e-07;0.0;0.0;0.0;0.0;0.0;0.0;0.00015915218301
103460000000;5008;103460000000;odom;base_link;0.00030947228072;7.0786168827e-08;0.0;0.0;0.0;0.000127681162175;0.999999991849;5.16222860292;-3.78285054444e-11;0.0;0.0;0.0;-2.04156862486e-07;-3.78285054444e-11;5.1622287628;0.0;0.0;0.0;0.00085434556723;0.0;0.0;4.99653498725e-07;-1.62246196585e-28;-3.01456743893e-20;0.0;0.0;0.0;-1.62246196585e-28;4.99308429416e-07;-1.98146710837e-38;0.0;0.0;0.0;-3.01456743893e-20;-8.32069942395e-39;4.99308429416e-07;0.0;-2.04156862486e-07;0.00085434556723;0.0;0.0;0.0;6.19206973915;2.63174199989e-06;0.0;0.0;0.0;0.0;2.37758058388e-07;0.000816084157967;0.0;0.0;0.0;0.0;0.0;0.0;0.000816084157967;0.0;0.0;0.0;0.0;0.0;0.0;4.99480785999e-07;-1.85459202155e-32;-7.26256017464e-29;0.0;0.0;0.0;-1.85459202155e-32;4.97942179006e-07;-6.71270343684e-38;0.0;0.0;0.0;-7.26256017464e-29;6.71270343684e-38;4.97942179006e-07;0.0;0.0;0.0;0.0;0.0;0.0;9.99957496497e-10
103480000000;5009;103480000000;odom;base_link;0.000309524915571;7.07996098452e-08;0.0;0.0;0.0;0.000127683903612;0.999999991848;5.16322902412;-3.78507388669e-11;0.0;0.0;0.0;-2.04240094084e-07;-3.78507388669e-11;5.16322918409;0.0;0.0;0.0;0.000854671501076;0.0;0.0;4.99653498725e-07;-8.5554439632e-29;-3.01456926255e-20;0.0;0.0;0.0;-8.5554439632e-29;4.99308429416e-07;6.78557503156e-36;0.0;0.0;0.0;-3.01456926255e-20;-6.80056416375e-36;4.99308429416e-07;0.0;-2.04240094084e-07;0.000854671501076;0.0;0.0;0.0;6.19326975293;2.63174359151e-06;0.0;0.0;0.0;0.0;3.91742281116e-07;0.000816084156594;0.0;0.0;0.0;0.0;0.0;0.0;0.000816084156594;0.0;0.0;0.0;0.0;0.0;0.0;4.99480785999e-07;-1.85462005344e-32;-7.26256456801e-29;0.0;0.0;0.0;-1.85462005344e-32;4.97942179006e-07;-1.64671289194e-38;0.0;0.0;0.0;-7.26256456801e-29;1.64671289194e-38;4.97942179006e-07;0.0;0.0;0.0;0.0;0.0;0.0;9.99957496497e-10
103500000000;5010;103500000000;odom;base_link;0.000309577550453;7.08130511991e-08;0.0;0.0;0.0;0.000127687842139;0.999999991848;5.16422944532;-3.78729813455e-11;0.0;0.0;0.0;-2.04323343891e-07;-3.78729813455e-11;5.16422960538;0.0;0.0;0.0;0.000854997498281;0.0;0.0;4.99653498725e-07;-1.40962652353e-28;-3.0145710931e-20;0.0;0.0;0.0;-1.40962652353e-28;4.99308429416e-07;3.09505181453e-36;0.0;0.0;0.0;-3.0145710931e-20;-3.11961595127e-36;4.99308429416e-07;0.0;-2.04323343891e-07;0.000854997498281;0.0;0.0;0.0;6.19446976671;2.6317451892e-06;0.0;0.0;0.0;0.0;4.03689408558e-07;0.000816084155256;0.0;0.0;0.0;0.0;0.0;0.0;0.000816084155256;0.0;0.0;0.0;0.0;0.0;0.0;4.99480785999e-07;-1.85468343323e-32;-7.26256897806e-29;0.0;0.0;0.0;-1.85468343323e-32;4.97942179006e-07;-1.50638711081e-38;0.0;0.0;0.0;-7.26256897806e-29;1.50638711081e-38;4.97942179006e-07;0.0;0.0;0.0;0.0;0.0;0.0;9.99957496497e-10
103520000000;5011;103520000000;odom;base_link;0.000309630185368;7.08264929787e-08;0.0;0.0;0.0;0.000127691980966;0.999999991847;5.16522986652;-3.78952329593e-11;0.0;0.0;0.0;-2.04406612465e-07;-3.78952329593e-11;5.16523002667;0.0;0.0;0.0;0.000855323558847;0.0;0.0;4.99653498725e-07;-1.45261674913e-28;-3.01457291432e-20;0.0;0.0;0.0;-1.45261674913e-28;4.99308429416e-07;1.30473444391e-36;0.0;0.0;0.0;-3.01457291432e-20;-1.33001330042e-36;4.99308429416e-07;0.0;-2.04406612465e-07;0.000855323558847;0.0;0.0;0.0;6.19566978049;2.63174677873e-06;0.0;0.0;0.0;0.0;4.4951807696e-07;0.00081608415395;0.0;0.0;0.0;0.0;0.0;0.0;0.00081608415395;0.0;0.0;0.0;0.0;0.0;0.0;4.99480785999e-07;-1.85474350197e-32;-7.26257336565e-29;0.0;0.0;0.0;-1.85474350197e-32;4.97942179006e-07;2.118559946e-37;0.0;0.0;0.0;-7.26257336565e-29;-2.118559946e-37;4.97942179006e-07;0.0;0.0;0.0;0.0;0.0;0.0;9.99957496497e-10
103540000000;5012;103540000000;odom;base_link;0.000309682820314;7.08399352138e-08;0.0;0.0;0.0;0.00012769716157;0.999999991847;5.16623028772;-3.79174937358e-11;0.0;0.0;0.0;-2.04489899991e-07;-3.79174937358e-11;5.16623044795;0.0;0.0;0.0;0.000855649682772;0.0;0.0;4.99653498725e-07;-1.61752318232e-28;-3.01457473942e-20;0.0;0.0;0.0;-1.61752318232e-28;4.99308429416e-07;7.48080494205e-36;0.0;0.0;0.0;-3.01457473942e-20;-7.50881967462e-36;4.99308429416e-07;0.0;-2.04489899991e-07;0.000855649682772;0.0;0.0;0.0;6.19686979427;2.63174837167e-06;0.0;0.0;0.0;0.0;7.39610281312e-07;0.000816084152678;0.0;0.0;0.0;0.0;0.0;0.0;0.000816084152678;0.0;0.0;0.0;0.0;0.0;0.0;4.99480785999e-07;-1.85481141874e-32;-7.2625777626e-29;0.0;0.0;0.0;-1.85481141874e-32;4.97942179006e-07;-6.87652006407e-39;0.0;0.0;0.0;-7.2625777626e-29;6.87652006407e-39;4.97942179006e-07;0.0;0.0;0.0;0.0;0.0;0.0;9.99957496497e-10
103560000000;5013;103560000000;odom;base_link;0.000309735455292;7.08533780755e-08;0.0;0.0;0.0;0.00012770419581;0.999999991846;5.16723070892;-3.79397638238e-11;0.0;0.0;0.0;-2.04573207532e-07;-3.79397638238e-11;5.16723086924;0.0;0.0;0.0;0.000855975870057;0.0;0.0;4.99653498725e-07;-2.66136513988e-28;-3.01457655582e-20;0.0;0.0;0.0;-2.66136513988e-28;4.99308429416e-07;6.02933338588e-36;0.0;0.0;0.0;-3.01457655582e-20;-6.07584822025e-36;4.99308429416e-07;0.0;-2.04573207532e-07;0.000855975870057;0.0;0.0;0.0;6.19806980805;2.63174995698e-06;0.0;0.0;0.0;0.0;5.94261774222e-07;0.000816084151437;0.0;0.0;0.0;0.0;0.0;0.0;0.000816084151437;0.0;0.0;0.0;0.0;0.0;0.0;4.99480785999e-07;-1.85493004887e-32;-7.26258213855e-29;0.0;0.0;0.0;-1.85493004887e-32;4.97942179006e-07;-1.6372188861e-37;0.0;0.0;0.0;-7.26258213855e-29;1.6372188861e-37;4.97942179006e-07;0.0;0.0;0.0;0.0;0.0;0.0;9.99957496497e-10
103568000000;5014;103568000000;odom;base_link;0.000309756509291;7.08587554436e-08;0.0;0.0;0.0;0.000127706572857;0.999999991846;5.16763067991;-3.79486745082e-11;0.0;0.0;0.0;-2.04606536839e-07;-3.79486745081e-11;5.16763084028;0.0;0.0;0.0;0.000856106364229;0.0;0.0;9.97923155445e-07;-4.29796559536e-28;-9.04050842435e-20;0.0;0.0;0.0;-4.29796559536e-28;9.95859201936e-07;1.33506486871e-35;0.0;0.0;0.0;-9.04050842435e-20;-1.3388144504e-35;9.95859201936e-07;0.0;-2.04606536839e-07;0.000856106364229;0.0;0.0;0.0;6.19854980805;2.63175053235e-06;0.0;0.0;0.0;0.0;5.91114657041e-07;0.000506229290735;0.0;0.0;0.0;0.0;0.0;0.0;0.000506229290735;0.0;0.0;0.0;0.0;0.0;0.0;9.96889575377e-07;-1.39145722998e-32;-5.44786609733e-29;0.0;0.0;0.0;-1.39145722998e-32;9.87729751524e-07;-2.0112092496e-37;0.0;0.0;0.0;-5.44786609733e-29;2.0112092496e-37;9.87729751524e-07;0.0;0.0;0.0;0.0;0.0;0.0;0.00015915218301
103600000000;5015;103600000000;odom;base_link;0.000309840725344;7.08802656669e-08;0.0;0.0;0.0;0.000127712526184;0.999999991845;5.16923155132;-3.79843319329e-11;0.0;0.0;0.0;-2.04739882586e-07;-3.79843319329e-11;5.16923171182;0.0;0.0;0.0;0.000856628434706;0.0;0.0;4.99653498725e-07;-7.93471686708e-29;-3.01458019269e-20;0.0;0.0;0.0;-7.93471686708e-29;4.99308429416e-07;4.41858128029e-36;0.0;0.0;0.0;-3.01458019269e-20;-4.43252314787e-36;4.99308429416e-07;0.0;-2.04739882586e-07;0.000856628434706;0.0;0.0;0.0;6.20046983561;2.63175313119e-06;0.0;0.0;0.0;0.0;6.77126789979e-07;0.000816084149047;0.0;0.0;0.0;0.0;0.0;0.0;0.000816084149047;0.0;0.0;0.0;0.0;0.0;0.0;4.99480785999e-07;-1.85503199712e-32;-7.2625909003e-29;0.0;0.0;0.0;-1.85503199712e-32;4.97942179006e-07;-5.78347658772e-38;0.0;0.0;0.0;-7.2625909003e-29;5.78347658772e-38;4.97942179006e-07;0.0;0.0;0.0;0.0;0.0;0.0;9.99957496497e-10
103620000000;5016;103620000000;odom;base_link;0.000309893360418;7.08937101547e-08;0.0;0.0;0.0;0.000127718264126;0.999999991844;5.17023197252;-3.80066297514e-11;0.0;0.0;0.0;-2.04823248604e-07;-3.80066297514e-11;5.17023213311;0.0;0.0;0.0;0.00085695481207;0.0;0.0;4.99653498725e-07;-2.43653473109e-28;-3.01458201325e-20;0.0;0.0;0.0;-2.43653473109e-28;4.99308429416e-07;5.98425418947e-36;0.0;0.0;0.0;-3.01458201325e-20;-6.02665603176e-36;4.99308429416e-07;0.0;-2.04823248604e-07;0.00085695481207;0.0;0.0;0.0;6.20166984939;2.63175472016e-06;0.0;0.0;0.0;0.0;2.50609749793e-07;0.000816084147897;0.0;0.0;0.0;0.0;0.0;0.0;0.000816084147897;0.0;0.0;0.0;0.0;0.0;0.0;4.99480785999e-07;-1.85514747768e-32;-7.26259528628e-29;0.0;0.0;0.0;-1.85514747768e-32;4.97942179006e-07;1.33183342349e-37;0.0;0.0;0.0;-7.26259528628e-29;-1.33183342349e-37;4.97942179006e-07;0.0;0.0;0.0;0.0;0.0;0.0;9.99957496497e-10
103640000000;5017;103640000000;odom;base_link;0.000309945995523;7.09071551469e-08;0.0;0.0;0.0;0.000127720974161;0.999999991844;5.17123239372;-3.80289367856e-11;0.0;0.0;0.0;-2.04906633884e-07;-3.80289367856e-11;5.1712325544;0.0;0.0;0.0;0.000857281252793;0.0;0.0;4.99653498725e-07;-9.01792986687e-29;-3.01458382954e-20;0.0;0.0;0.0;-9.01792986687e-29;4.99308429416e-07;-8.24768456556e-36;0.0;0.0;0.0;-3.01458382954e-20;8.23192385959e-36;4.99308429416e-07;0.0;-2.04906633884e-07;0.000857281252793;0.0;0.0;0.0;6.20286986317;2.63175630541e-06;0.0;0.0;0.0;0.0;3.37851188403e-07;0.000816084146776;0.0;0.0;0.0;0.0;0.0;0.0;0.000816084146776;0.0;0.0;0.0;0.0;0.0;0.0;4.99480785999e-07;-1.85516980094e-32;-7.26259966202e-29;0.0;0.0;0.0;-1.85516980094e-32;4.97942179006e-07;9.51472860961e-39;0.0;0.0;0.0;-7.26259966202e-29;-9.51472860961e-39;4.97942179006e-07;0.0;0.0;0.0;0.0;0.0;0.0;9.99957496497e-10
103660000000;5018;103660000000;odom;base_link;0.000309998630659;7.09206004544e-08;0.0;0.0;0.0;0.000127724741211;0.999999991843;5.17223281492;-3.80512528757e-11;0.0;0.0;0.0;-2.04990037255e-07;-3.80512528757e-11;5.17223297569;0.0;0.0;0.0;0.000857607756875;0.0;0.0;4.99653498725e-07;-1.21571600377e-28;-3.0145856416e-20;0.0;0.0;0.0;-1.21571600377e-28;4.99308429416e-07;-4.91317825168e-38;0.0;0.0;0.0;-3.0145856416e-20;2.77743244679e-38;4.99308429416e-07;0.0;-2.04990037255e-07;0.000857607756875;0.0;0.0;0.0;6.20406987695;2.63175788694e-06;0.0;0.0;0.0;0.0;5.02953009167e-07;0.000816084145682;0.0;0.0;0.0;0.0;0.0;0.0;0.000816084145682;0.0;0.0;0.0;0.0;0.0;0.0;4.99480785999e-07;-1.85522299009e-32;-7.26260402753e-29;0.0;0.0;0.0;-1.85522299009e-32;4.97942179006e-07;-1.92486031721e-37;0.0;0.0;0.0;-7.26260402753e-29;1.92486031721e-37;4.97942179006e-07;0.0;0.0;0.0;0.0;0.0;0.0;9.99957496497e-10
103688000000;5019;103688000000;odom;base_link;0.000310072319903;7.09394246371e-08;0.0;0.0;0.0;0.000127729539732;0.999999991843;5.17363320713;-3.80825108105e-11;0.0;0.0;0.0;-2.05106834136e-07;-3.80825108105e-11;5.17363336803;0.0;0.0;0.0;0.000858064970552;0.0;0.0;9.97923155445e-07;-1.11089287573e-28;-9.04054110538e-20;0.0;0.0;0.0;-1.11089287573e-28;9.95859201936e-07;2.87197109126e-35;0.0;0.0;0.0;-9.04054110538e-20;-2.87294024715e-35;9.95859201936e-07;0.0;-2.05106834136e-07;0.000858064970552;0.0;0.0;0.0;6.20574989073;2.63176003384e-06;0.0;0.0;0.0;0.0;1.5278727813e-07;0.000506229288137;0.0;0.0;0.0;0.0;0.0;0.0;0.000506229288137;0.0;0.0;0.0;0.0;0.0;0.0;9.96889575377e-07;-1.39171217409e-32;-5.44788579106e-29;0.0;0.0;0.0;-1.39171217409e-32;9.87729751524e-07;-1.00225504827e-37;0.0;0.0;0.0;-5.44788579106e-29;1.00225504827e-37;9.87729751524e-07;0.0;0.0;0.0;0.0;0.0;0.0;0.00015915218301
103708000000;5020;103708000000;odom;base_link;0.000310124955115;7.0952870848e-08;0.0;0.0;0.0;0.000127732901571;0.999999991842;5.17463362833;-3.81048487684e-11;0.0;0.0;0.0;-2.05190281835e-07;-3.81048487684e-11;5.17463378932;0.0;0.0;0.0;0.000858391626696;0.0;0.0;9.97923155445e-07;-3.18001111008e-28;-9.04054651171e-20;0.0;0.0;0.0;-3.18001111008e-28;9.95859201936e-07;3.36302961062e-35;0.0;0.0;0.0;-9.04054651171e-20;-3.36572478667e-35;9.95859201936e-07;0.0;-2.05190281835e-07;0.000858391626696;0.0;0.0;0.0;6.20694990451;2.63176161808e-06;0.0;0.0;0.0;0.0;4.37359615806e-07;0.000506229287741;0.0;0.0;0.0;0.0;0.0;0.0;0.000506229287741;0.0;0.0;0.0;0.0;0.0;0.0;9.96889575377e-07;-1.39174968561e-32;-5.44788904894e-29;0.0;0.0;0.0;-1.39174968561e-32;9.87729751524e-07;-4.60579043818e-39;0.0;0.0;0.0;-5.44788904894e-29;4.60579043818e-39;9.87729751524e-07;0.0;0.0;0.0;0.0;0.0;0.0;0.00015915218301
103740000000;5021;103740000000;odom;base_link;0.000310209171523;7.09743855273e-08;0.0;0.0;0.0;0.000127737426254;0.999999991842;5.17623449971;-3.81406084257e-11;0.0;0.0;0.0;-2.05323835932e-07;-3.81406084256e-11;5.17623466085;0.0;0.0;0.0;0.000858914406796;0.0;0.0;4.99653498725e-07;-7.16919933084e-29;-3.0145928719e-20;0.0;0.0;0.0;-7.16919933084e-29;4.99308429416e-07;2.19406334217e-36;0.0;0.0;0.0;-3.0145928719e-20;-2.20637285117e-36;4.99308429416e-07;0.0;-2.05323835932e-07;0.000858914406796;0.0;0.0;0.0;6.20886993207;2.63176419742e-06;0.0;0.0;0.0;0.0;4.00577371991e-07;0.000816084141575;0.0;0.0;0.0;0.0;0.0;0.0;0.000816084141575;0.0;0.0;0.0;0.0;0.0;0.0;4.99480785999e-07;-1.85541033436e-32;-7.2626214464e-29;0.0;0.0;0.0;-1.85541033436e-32;4.97942179006e-07;1.03582741899e-38;0.0;0.0;0.0;-7.2626214464e-29;-1.03582741899e-38;4.97942179006e-07;0.0;0.0;0.0;0.0;0.0;0.0;9.99957496497e-10
103748000000;5022;103748000000;odom;base_link;0.000310230225635;7.09797643237e-08;0.0;0.0;0.0;0.000127739028563;0.999999991841;5.17663447073;-3.8149551967e-11;0.0;0.0;0.0;-2.05357232184e-07;-3.8149551967e-11;5.1766346319;0.0;0.0;0.0;0.000859045129062;0.0;0.0;9.97923155445e-07;-2.89716022312e-28;-9.04055733432e-20;0.0;0.0;0.0;-2.89716022312e-28;9.95859201936e-07;-2.70615805211e-35;0.0;0.0;0.0;-9.04055733432e-20;2.70363053125e-35;9.95859201936e-07;0.0;-2.05357232184e-07;0.000859045129062;0.0;0.0;0.0;6.20934993207;2.63176476945e-06;0.0;0.0;0.0;0.0;3.98457762331e-07;0.000506229286978;0.0;0.0;0.0;0.0;0.0;0.0;0.000506229286978;0.0;0.0;0.0;0.0;0.0;0.0;9.96889575377e-07;-1.39181810268e-32;-5.44789557069e-29;0.0;0.0;0.0;-1.39181810268e-32;9.87729751524e-07;2.91892528331e-37;0.0;0.0;0.0;-5.44789557069e-29;-2.91892528331e-37;9.87729751524e-07;0.0;0.0;0.0;0.0;0.0;0.0;0.00015915218301
103780000000;5023;103780000000;odom;base_link;0.000310314442143;7.10012802221e-08;0.0;0.0;0.0;0.000127747301639;0.99999999184;5.17823534211;-3.81853408171e-11;0.0;0.0;0.0;-2.05490845487e-07;-3.81853408171e-11;5.17823550343;0.0;0.0;0.0;0.000859568111909;0.0;0.0;4.99653498725e-07;-1.97296340838e-28;-3.01459648214e-20;0.0;0.0;0.0;-1.97296340838e-28;4.99308429416e-07;7.42765389858e-36;0.0;0.0;0.0;-3.01459648214e-20;-7.46195463245e-36;4.99308429416e-07;0.0;-2.05490845487e-07;0.000859568111909;0.0;0.0;0.0;6.21126995963;2.63176734837e-06;0.0;0.0;0.0;0.0;5.69778694025e-07;0.000816084139672;0.0;0.0;0.0;0.0;0.0;0.0;0.000816084139672;0.0;0.0;0.0;0.0;0.0;0.0;4.99480785999e-07;-1.85556249895e-32;-7.26263014397e-29;0.0;0.0;0.0;-1.85556249895e-32;4.97942179006e-07;1.19144343311e-37;0.0;0.0;0.0;-7.26263014397e-29;-1.19144343311e-37;4.97942179006e-07;0.0;0.0;0.0;0.0;0.0;0.0;9.99957496497e-10
103800000000;5024;103800000000;odom;base_link;0.000310367077501;7.10147284162e-08;0.0;0.0;0.0;0.000127753045489;0.99999999184;5.17923576331;-3.82077209381e-11;0.0;0.0;0.0;-2.05574379729e-07;-3.82077209381e-11;5.17923592472;0.0;0.0;0.0;0.000859895059504;0.0;0.0;4.99653498725e-07;-2.05027362188e-28;-3.01459828916e-20;0.0;0.0;0.0;-2.05027362188e-28;4.99308429416e-07;9.08232075924e-36;0.0;0.0;0.0;-3.01459828916e-20;-9.11789981109e-36;4.99308429416e-07;0.0;-2.05574379729e-07;0.000859895059504;0.0;0.0;0.0;6.21246997341;2.63176892553e-06;0.0;0.0;0.0;0.0;5.93582618433e-07;0.000816084138756;0.0;0.0;0.0;0.0;0.0;0.0;0.000816084138756;0.0;0.0;0.0;0.0;0.0;0.0;4.99480785999e-07;-1.85564697696e-32;-7.26263449734e-29;0.0;0.0;0.0;-1.85564697696e-32;4.97942179006e-07;8.05567764702e-39;0.0;0.0;0.0;-7.26263449734e-29;-8.05567764702e-39;4.97942179006e-07;0.0;0.0;0.0;0.0;0.0;0.0;9.99957496497e-10
103820000000;5025;103820000000;odom;base_link;0.00031041971289;7.1028177229e-08;0.0;0.0;0.0;0.000127758776269;0.999999991839;5.18023618451;-3.82301103925e-11;0.0;0.0;0.0;-2.05657933953e-07;-3.82301103925e-11;5.18023634601;0.0;0.0;0.0;0.000860222070457;0.0;0.0;4.99653498725e-07;-2.13592935445e-28;-3.01460009027e-20;0.0;0.0;0.0;-2.13592935445e-28;4.99308429416e-07;7.43481396043e-36;0.0;0.0;0.0;-3.01460009027e-20;-7.47185141951e-36;4.99308429416e-07;0.0;-2.05657933953e-07;0.000860222070457;0.0;0.0;0.0;6.21366998719;2.63177049751e-06;0.0;0.0;0.0;0.0;5.12614658936e-07;0.000816084137863;0.0;0.0;0.0;0.0;0.0;0.0;0.000816084137863;0.0;0.0;0.0;0.0;0.0;0.0;4.99480785999e-07;-1.85573498466e-32;-7.26263883649e-29;0.0;0.0;0.0;-1.85573498466e-32;4.97942179006e-07;-7.8289188673e-38;0.0;0.0;0.0;-7.26263883649e-29;7.82891886731e-38;4.97942179006e-07;0.0;0.0;0.0;0.0;0.0;0.0;9.99957496497e-10
103848000000;5026;103848000000;odom;base_link;0.000310493402487;7.10470065325e-08;0.0;0.0;0.0;0.000127764216656;0.999999991838;5.18163657674;-3.82614712497e-11;0.0;0.0;0.0;-2.0577494337e-07;-3.82614712497e-11;5.18163673837;0.0;0.0;0.0;0.000860679993752;0.0;0.0;9.97923155445e-07;-1.75416714944e-28;-9.04058438859e-20;0.0;0.0;0.0;-1.75416714944e-28;9.95859201936e-07;-3.71993179619e-35;0.0;0.0;0.0;-9.04058438859e-20;3.71840143301e-35;9.95859201936e-07;0.0;-2.0577494337e-07;0.000860679993752;0.0;0.0;0.0;6.21535000097;2.6317726383e-06;0.0;0.0;0.0;0.0;2.41257230175e-07;0.000506229285233;0.0;0.0;0.0;0.0;0.0;0.0;0.000506229285233;0.0;0.0;0.0;0.0;0.0;0.0;9.96889575377e-07;-1.39209672459e-32;-5.44791187369e-29;0.0;0.0;0.0;-1.39209672459e-32;9.87729751524e-07;-2.63084248336e-37;0.0;0.0;0.0;-5.44791187369e-29;2.63084248336e-37;9.87729751524e-07;0.0;0.0;0.0;0.0;0.0;0.0;0.00015915218301
103868000000;5027;103868000000;odom;base_link;0.000310546037951;7.1060456501e-08;0.0;0.0;0.0;0.000127769764629;0.999999991837;5.18263699794;-3.82838828298e-11;0.0;0.0;0.0;-2.05858543511e-07;-3.82838828298e-11;5.18263715966;0.0;0.0;0.0;0.000861007156766;0.0;0.0;9.97923155445e-07;-5.29235725003e-28;-9.04058978091e-20;0.0;0.0;0.0;-5.29235725003e-28;9.95859201936e-07;-2.01994411996e-35;0.0;0.0;0.0;-9.04058978091e-20;2.01532698099e-35;9.95859201936e-07;0.0;-2.05858543511e-07;0.000861007156766;0.0;0.0;0.0;6.21655001475;2.63177420569e-06;0.0;0.0;0.0;0.0;7.27871936388e-07;0.000506229284909;0.0;0.0;0.0;0.0;0.0;0.0;0.000506229284909;0.0;0.0;0.0;0.0;0.0;0.0;9.96889575377e-07;-1.39215819549e-32;-5.44791512312e-29;0.0;0.0;0.0;-1.39215819549e-32;9.87729751524e-07;-2.1672015349e-37;0.0;0.0;0.0;-5.44791512312e-29;2.1672015349e-37;9.87729751524e-07;0.0;0.0;0.0;0.0;0.0;0.0;0.00015915218301
103888000000;5028;103888000000;odom;base_link;0.000310598673447;7.10739070984e-08;0.0;0.0;0.0;0.00012777471593;0.999999991837;5.18363741914;-3.83063037596e-11;0.0;0.0;0.0;-2.05942163701e-07;-3.83063037596e-11;5.18363758095;0.0;0.0;0.0;0.000861334383139;0.0;0.0;9.97923155445e-07;-2.63104360826e-28;-9.04059516141e-20;0.0;0.0;0.0;-2.63104360826e-28;9.95859201936e-07;-3.04826410551e-35;0.0;0.0;0.0;-9.04059516141e-20;3.04596873869e-35;9.95859201936e-07;0.0;-2.05942163701e-07;0.000861334383139;0.0;0.0;0.0;6.21775002854;2.63177577695e-06;0.0;0.0;0.0;0.0;3.61854347578e-07;0.000506229284594;0.0;0.0;0.0;0.0;0.0;0.0;0.000506229284594;0.0;0.0;0.0;0.0;0.0;0.0;9.96889575377e-07;-1.39221292201e-32;-5.44791836543e-29;0.0;0.0;0.0;-1.39221292201e-32;9.87729751524e-07;1.0478251858e-37;0.0;0.0;0.0;-5.44791836543e-29;-1.0478251858e-37;9.87729751524e-07;0.0;0.0;0.0;0.0;0.0;0.0;0.00015915218301
103908000000;5029;103908000000;odom;base_link;0.000310651308974;7.10873581726e-08;0.0;0.0;0.0;0.000127778548083;0.999999991836;5.18463784034;-3.83287339104e-11;0.0;0.0;0.0;-2.06025802998e-07;-3.83287339104e-11;5.18463800224;0.0;0.0;0.0;0.00086166167287;0.0;0.0;9.97923155445e-07;-2.85879920243e-28;-9.04060055542e-20;0.0;0.0;0.0;-2.85879920243e-28;9.95859201936e-07;2.04273935336e-35;0.0;0.0;0.0;-9.04060055542e-20;-2.04523341949e-35;9.95859201936e-07;0.0;-2.06025802998e-07;0.00086166167287;0.0;0.0;0.0;6.21895004232;2.6317773316e-06;0.0;0.0;0.0;0.0;3.93179301981e-07;0.000506229284286;0.0;0.0;0.0;0.0;0.0;0.0;0.000506229284286;0.0;0.0;0.0;0.0;0.0;0.0;9.96889575377e-07;-1.39225540561e-32;-5.44792161589e-29;0.0;0.0;0.0;-1.39225540561e-32;9.87729751524e-07;-2.35202594392e-37;0.0;0.0;0.0;-5.44792161589e-29;2.35202594392e-37;9.87729751524e-07;0.0;0.0;0.0;0.0;0.0;0.0;0.00015915218301
103928000000;5030;103928000000;odom;base_link;0.000310703944533;7.11008096563e-08;0.0;0.0;0.0;0.000127782069029;0.999999991836;5.18563826154;-3.83511732261e-11;0.0;0.0;0.0;-2.06109460982e-07;-3.83511732261e-11;5.18563842353;0.0;0.0;0.0;0.000861989025957;0.0;0.0;9.97923155445e-07;-2.3788329995e-28;-9.04060589181e-20;0.0;0.0;0.0;-2.3788329995e-28;9.95859201936e-07;6.66756581991e-36;0.0;0.0;0.0;-9.04060589181e-20;-6.6883191848e-36;9.95859201936e-07;0.0;-2.06109460982e-07;0.000861989025957;0.0;0.0;0.0;6.2201500561;2.63177890764e-06;0.0;0.0;0.0;0.0;3.27168431109e-07;0.000506229283987;0.0;0.0;0.0;0.0;0.0;0.0;0.000506229283987;0.0;0.0;0.0;0.0;0.0;0.0;9.96889575377e-07;-1.39229456356e-32;-5.44792483162e-29;0.0;0.0;0.0;-1.39229456356e-32;9.87729751524e-07;-4.3155116807e-37;0.0;0.0;0.0;-5.44792483162e-29;4.3155116807e-37;9.87729751524e-07;0.0;0.0;0.0;0.0;0.0;0.0;0.00015915218301
103948000000;5031;103948000000;odom;base_link;0.000310756580123;7.11142615297e-08;0.0;0.0;0.0;0.000127786690453;0.999999991835;5.18663868275;-3.83736216921e-11;0.0;0.0;0.0;-2.06193137532e-07;-3.83736216921e-11;5.18663884483;0.0;0.0;0.0;0.000862316442404;0.0;0.0;9.97923155445e-07;-3.8933819203e-28;-9.04061130249e-20;0.0;0.0;0.0;-3.8933819203e-28;9.95859201936e-07;7.95127421059e-38;0.0;0.0;0.0;-9.04061130249e-20;-1.13479323213e-37;9.95859201936e-07;0.0;-2.06193137532e-07;0.000862316442404;0.0;0.0;0.0;6.22135006988;2.63178046469e-06;0.0;0.0;0.0;0.0;5.35466680247e-07;0.000506229283694;0.0;0.0;0.0;0.0;0.0;0.0;0.000506229283694;0.0;0.0;0.0;0.0;0.0;0.0;9.96889575377e-07;-1.39234584887e-32;-5.44792809211e-29;0.0;0.0;0.0;-1.39234584887e-32;9.87729751524e-07;1.20407592077e-37;0.0;0.0;0.0;-5.44792809211e-29;-1.20407592077e-37;9.87729751524e-07;0.0;0.0;0.0;0.0;0.0;0.0;0.00015915218301
103968000000;5032;103968000000;odom;base_link;0.000310809215744;7.11277139198e-08;0.0;0.0;0.0;0.000127791457004;0.999999991835;5.18763910395;-3.83960794196e-11;0.0;0.0;0.0;-2.06276833439e-07;-3.83960794196e-11;5.18763926612;0.0;0.0;0.0;0.000862643922208;0.0;0.0;9.97923155445e-07;-3.20736681546e-28;-9.0406166473e-20;0.0;0.0;0.0;-3.20736681546e-28;9.95859201936e-07;3.44710421629e-36;0.0;0.0;0.0;-9.0406166473e-20;-3.47508589178e-36;9.95859201936e-07;0.0;-2.06276833439e-07;0.000862643922208;0.0;0.0;0.0;6.22255008366;2.63178203453e-06;0.0;0.0;0.0;0.0;4.41116851226e-07;0.000506229283409;0.0;0.0;0.0;0.0;0.0;0.0;0.000506229283409;0.0;0.0;0.0;0.0;0.0;0.0;9.96889575377e-07;-1.39239862173e-32;-5.44793131291e-29;0.0;0.0;0.0;-1.39239862173e-32;9.87729751524e-07;2.02601287234e-39;0.0;0.0;0.0;-5.44793131291e-29;-2.02601287234e-39;9.87729751524e-07;0.0;0.0;0.0;0.0;0.0;0.0;0.00015915218301
103988000000;5033;103988000000;odom;base_link;0.000310861851396;7.11411667969e-08;0.0;0.0;0.0;0.000127795359237;0.999999991834;5.18863952515;-3.84185463857e-11;0.0;0.0;0.0;-2.06360548521e-07;-3.84185463857e-11;5.18863968741;0.0;0.0;0.0;0.000862971465371;0.0;0.0;9.97923155445e-07;-2.61456607167e-28;-9.04062203656e-20;0.0;0.0;0.0;-2.61456607167e-28;9.95859201936e-07;6.70977859186e-36;0.0;0.0;0.0;-9.04062203656e-20;-6.732588575e-36;9.95859201936e-07;0.0;-2.06360548521e-07;0.000862971465371;0.0;0.0;0.0;6.22375009744;2.63178359221e-06;0.0;0.0;0.0;0.0;3.59588321656e-07;0.000506229283132;0.0;0.0;0.0;0.0;0.0;0.0;0.000506229283132;0.0;0.0;0.0;0.0;0.0;0.0;9.96889575377e-07;-1.3924418925e-32;-5.4479345605e-29;0.0;0.0;0.0;-1.3924418925e-32;9.87729751524e-07;-1.67547933836e-37;0.0;0.0;0.0;-5.4479345605e-29;1.67547933836e-37;9.87729751524e-07;0.0;0.0;0.0;0.0;0.0;0.0;0.00015915218301
104008000000;5034;104008000000;odom;base_link;0.00031091448708;7.11546201349e-08;0.0;0.0;0.0;0.000127802414332;0.999999991833;5.18963994635;-3.84410225696e-11;0.0;0.0;0.0;-2.06444282614e-07;-3.84410225696e-11;5.1896401087;0.0;0.0;0.0;0.000863299071891;0.0;0.0;9.97923155445e-07;-6.51458162311e-28;-9.04062738366e-20;0.0;0.0;0.0;-6.51458162311e-28;9.95859201936e-07;1.49124946138e-37;0.0;0.0;0.0;-9.04062738366e-20;-2.05959457422e-37;9.95859201936e-07;0.0;-2.06444282614e-07;0.000863299071891;0.0;0.0;0.0;6.22495011122;2.63178515681e-06;0.0;0.0;0.0;0.0;8.95962435813e-07;0.000506229282861;0.0;0.0;0.0;0.0;0.0;0.0;0.000506229282861;0.0;0.0;0.0;0.0;0.0;0.0;9.96889575377e-07;-1.39251986789e-32;-5.44793778268e-29;0.0;0.0;0.0;-1.39251986789e-32;9.87729751524e-07;2.85085993043e-37;0.0;0.0;0.0;-5.44793778268e-29;-2.85085993043e-37;9.87729751524e-07;0.0;0.0;0.0;0.0;0.0;0.0;0.00015915218301
104028000000;5035;104028000000;odom;base_link;0.000310967122795;7.11680742682e-08;0.0;0.0;0.0;0.000127809073491;0.999999991832;5.19064036755;-3.84635082626e-11;0.0;0.0;0.0;-2.06528037803e-07;-3.84635082626e-11;5.19064053;0.0;0.0;0.0;0.00086362674177;0.0;0.0;9.97923155445e-07;-3.87727136445e-28;-9.04063275479e-20;0.0;0.0;0.0;-3.87727136445e-28;9.95859201936e-07;-6.70563452319e-36;0.0;0.0;0.0;-9.04063275479e-20;6.67180841327e-36;9.95859201936e-07;0.0;-2.06528037803e-07;0.00086362674177;0.0;0.0;0.0;6.226150125;2.63178671559e-06;0.0;0.0;0.0;0.0;5.33247272525e-07;0.000506229282597;0.0;0.0;0.0;0.0;0.0;0.0;0.000506229282597;0.0;0.0;0.0;0.0;0.0;0.0;9.96889575377e-07;-1.39259322017e-32;-5.44794101934e-29;0.0;0.0;0.0;-1.39259322017e-32;9.87729751524e-07;-5.31035129598e-38;0.0;0.0;0.0;-5.44794101934e-29;5.31035129598e-38;9.87729751524e-07;0.0;0.0;0.0;0.0;0.0;0.0;0.00015915218301
104048000000;5036;104048000000;odom;base_link;0.000311019758541;7.11815290436e-08;0.0;0.0;0.0;0.000127813677507;0.999999991832;5.19164078875;-3.84860033346e-11;0.0;0.0;0.0;-2.06611813135e-07;-3.84860033346e-11;5.19164095129;0.0;0.0;0.0;0.000863954475006;0.0;0.0;9.97923155445e-07;-3.03253583662e-28;-9.04063810584e-20;0.0;0.0;0.0;-3.03253583662e-28;9.95859201936e-07;-9.43218649698e-38;0.0;0.0;0.0;-9.04063810584e-20;6.78653852438e-38;9.95859201936e-07;0.0;-2.06611813135e-07;0.000863954475006;0.0;0.0;0.0;6.22735013878;2.63178826592e-06;0.0;0.0;0.0;0.0;4.17071120051e-07;0.000506229282339;0.0;0.0;0.0;0.0;0.0;0.0;0.000506229282339;0.0;0.0;0.0;0.0;0.0;0.0;9.96889575377e-07;-1.39264402432e-32;-5.4479442439e-29;0.0;0.0;0.0;-1.39264402432e-32;9.87729751524e-07;2.23100809622e-37;0.0;0.0;0.0;-5.4479442439e-29;-2.23100809622e-37;9.87729751524e-07;0.0;0.0;0.0;0.0;0.0;0.0;0.00015915218301
104068000000;5037;104068000000;odom;base_link;0.000311072394318;7.11949843054e-08;0.0;0.0;0.0;0.00012781858087;0.999999991831;5.19264120995;-3.85085076534e-11;0.0;0.0;0.0;-2.06695607641e-07;-3.85085076534e-11;5.19264137258;0.0;0.0;0.0;0.000864282271599;0.0;0.0;9.97923155445e-07;-3.84542998119e-28;-9.04064342756e-20;0.0;0.0;0.0;-3.84542998119e-28;9.95859201936e-07;6.69077068358e-36;0.0;0.0;0.0;-9.04064342756e-20;-6.72431904235e-36;9.95859201936e-07;0.0;-2.06695607641e-07;0.000864282271599;0.0;0.0;0.0;6.22855015256;2.63178983058e-06;0.0;0.0;0.0;0.0;5.28869515895e-07;0.000506229282088;0.0;0.0;0.0;0.0;0.0;0.0;0.000506229282088;0.0;0.0;0.0;0.0;0.0;0.0;9.96889575377e-07;-1.39269829667e-32;-5.44794745079e-29;0.0;0.0;0.0;-1.39269829667e-32;9.87729751524e-07;7.74305491719e-38;0.0;0.0;0.0;-5.44794745079e-29;-7.74305491719e-38;9.87729751524e-07;0.0;0.0;0.0;0.0;0.0;0.0;0.00015915218301
104088000000;5038;104088000000;odom;base_link;0.000311125030127;7.12084400896e-08;0.0;0.0;0.0;0.000127822707812;0.999999991831;5.19364163116;-3.85310212524e-11;0.0;0.0;0.0;-2.06779421549e-07;-3.85310212524e-11;5.19364179387;0.0;0.0;0.0;0.00086461013155;0.0;0.0;9.97923155445e-07;-2.5106323572e-28;-9.04064879906e-20;0.0;0.0;0.0;-2.5106323572e-28;9.95859201936e-07;1.34565371144e-35;0.0;0.0;0.0;-9.04064879906e-20;-1.34784404244e-35;9.95859201936e-07;0.0;-2.06779421549e-07;0.00086461013155;0.0;0.0;0.0;6.22975016634;2.631791382e-06;0.0;0.0;0.0;0.0;3.45292782575e-07;0.000506229281843;0.0;0.0;0.0;0.0;0.0;0.0;0.000506229281843;0.0;0.0;0.0;0.0;0.0;0.0;9.96889575377e-07;-1.39274402233e-32;-5.44795068767e-29;0.0;0.0;0.0;-1.39274402233e-32;9.87729751524e-07;8.15686132314e-38;0.0;0.0;0.0;-5.44795068767e-29;-8.15686132314e-38;9.87729751524e-07;0.0;0.0;0.0;0.0;0.0;0.0;0.00015915218301
104108000000;5039;104108000000;odom;base_link;0.000311177665966;7.12218962946e-08;0.0;0.0;0.0;0.000127826560102;0.99999999183;5.19464205236;-3.85535440458e-11;0.0;0.0;0.0;-2.06863254224e-07;-3.85535440457e-11;5.19464221516;0.0;0.0;0.0;0.000864938054858;0.0;0.0;9.97923155445e-07;-2.94919946111e-28;-9.04065412465e-20;0.0;0.0;0.0;-2.94919946111e-28;9.95859201936e-07;-3.25877262823e-36;0.0;0.0;0.0;-9.04065412465e-20;3.23225210353e-36;9.95859201936e-07;0.0;-2.06863254224e-07;0.000864938054858;0.0;0.0;0.0;6.23095018012;2.63179294351e-06;0.0;0.0;0.0;0.0;4.05609865223e-07;0.000506229281604;0.0;0.0;0.0;0.0;0.0;0.0;0.000506229281604;0.0;0.0;0.0;0.0;0.0;0.0;9.96889575377e-07;-1.39278679152e-32;-5.4479538969e-29;0.0;0.0;0.0;-1.39278679152e-32;9.87729751524e-07;1.93370375882e-37;0.0;0.0;0.0;-5.4479538969e-29;-1.93370375882e-37;9.87729751524e-07;0.0;0.0;0.0;0.0;0.0;0.0;0.00015915218301
104128000000;5040;104128000000;odom;base_link;0.000311230301837;7.12353529175e-08;0.0;0.0;0.0;0.000127830334042;0.99999999183;5.19564247356;-3.85760760333e-11;0.0;0.0;0.0;-2.06947105651e-07;-3.85760760333e-11;5.19564263646;0.0;0.0;0.0;0.000865266041525;0.0;0.0;9.97923155445e-07;-2.61435402108e-28;-9.04065948533e-20;0.0;0.0;0.0;-2.61435402108e-28;9.95859201936e-07;-1.70094103918e-35;0.0;0.0;0.0;-9.04065948533e-20;1.69866021641e-35;9.95859201936e-07;0.0;-2.06947105651e-07;0.000865266041525;0.0;0.0;0.0;6.2321501939;2.63179449522e-06;0.0;0.0;0.0;0.0;3.59557820178e-07;0.000506229281372;0.0;0.0;0.0;0.0;0.0;0.0;0.000506229281372;0.0;0.0;0.0;0.0;0.0;0.0;9.96889575377e-07;-1.39282873125e-32;-5.44795712727e-29;0.0;0.0;0.0;-1.39282873125e-32;9.87729751524e-07;3.12283825799e-37;0.0;0.0;0.0;-5.44795712727e-29;-3.12283825798e-37;9.87729751524e-07;0.0;0.0;0.0;0.0;0.0;0.0;0.00015915218301
