%time;field.header.seq;field.header.stamp;field.header.frame_id;field.child_frame_id;field.pose.pose.position.x;field.pose.pose.position.y;field.pose.pose.position.z;field.pose.pose.orientation.x;field.pose.pose.orientation.y;field.pose.pose.orientation.z;field.pose.pose.orientation.w;field.pose.covariance0;field.pose.covariance1;field.pose.covariance2;field.pose.covariance3;field.pose.covariance4;field.pose.covariance5;field.pose.covariance6;field.pose.covariance7;field.pose.covariance8;field.pose.covariance9;field.pose.covariance10;field.pose.covariance11;field.pose.covariance12;field.pose.covariance13;field.pose.covariance14;field.pose.covariance15;field.pose.covariance16;field.pose.covariance17;field.pose.covariance18;field.pose.covariance19;field.pose.covariance20;field.pose.covariance21;field.pose.covariance22;field.pose.covariance23;field.pose.covariance24;field.pose.covariance25;field.pose.covariance26;field.pose.covariance27;field.pose.covariance28;field.pose.covariance29;field.pose.covariance30;field.pose.covariance31;field.pose.covariance32;field.pose.covariance33;field.pose.covariance34;field.pose.covariance35;field.twist.twist.linear.x;field.twist.twist.linear.y;field.twist.twist.linear.z;field.twist.twist.angular.x;field.twist.twist.angular.y;field.twist.twist.angular.z;field.twist.covariance0;field.twist.covariance1;field.twist.covariance2;field.twist.covariance3;field.twist.covariance4;field.twist.covariance5;field.twist.covariance6;field.twist.covariance7;field.twist.covariance8;field.twist.covariance9;field.twist.covariance10;field.twist.covariance11;field.twist.covariance12;field.twist.covariance13;field.twist.covariance14;field.twist.covariance15;field.twist.covariance16;field.twist.covariance17;field.twist.covariance18;field.twist.covariance19;field.twist.covariance20;field.twist.covariance21;field.twist.covariance22;field.twist.covariance23;field.twist.covariance24;field.twist.covariance25;field.twist.covariance26;field.twist.covariance27;field.twist.covariance28;field.twist.covariance29;field.twist.covariance30;field.twist.covariance31;field.twist.covariance32;field.twist.covariance33;field.twist.covariance34;field.twist.covariance35
32489000000;1587;32489000000;odom;base_link;0.000122917151924;3.2175181147e-08;0.0;0.0;0.0;0.000135466111608;0.999999990824;1.61217506602;-1.9062860632e-12;0.0;0.0;0.0;-2.57177189868e-08;-1.90628606319e-12;1.61217507325;0.0;0.0;0.0;9.71263503563e-05;0.0;0.0;9.98153276781e-07;-2.91081787884e-28;-7.94397484946e-20;0.0;0.0;0.0;-2.91081787884e-28;9.96316749061e-07;5.46913347713e-36;0.0;0.0;0.0;-7.94397484946e-20;-5.49302171607e-36;9.96316749061e-07;0.0;-2.57177189868e-08;9.71263503563e-05;0.0;0.0;0.0;1.93375698481;2.59924673028e-06;0.0;0.0;0.0;0.0;4.04713459479e-07;0.000506229573226;0.0;0.0;0.0;0.0;0.0;0.0;0.000506229573226;0.0;0.0;0.0;0.0;0.0;0.0;9.97233744246e-07;-1.298738579e-32;-4.79359093668e-29;0.0;0.0;0.0;-1.298738579e-32;9.89070770402e-07;-4.73234313495e-38;0.0;0.0;0.0;-4.79359093668e-29;4.73234313495e-38;9.89070770402e-07;0.0;0.0;0.0;0.0;0.0;0.0;0.000178927429417
32509000000;1588;32509000000;odom;base_link;0.000122969137123;3.21892657156e-08;0.0;0.0;0.0;0.00013547006343;0.999999990824;1.6131754888;-1.90899240446e-12;0.0;0.0;0.0;-2.5744959321e-08;-1.90899240446e-12;1.61317549604;0.0;0.0;0.0;9.72268926055e-05;0.0;0.0;9.98153276781e-07;-2.79575907358e-28;-7.94406339837e-20;0.0;0.0;0.0;-2.79575907358e-28;9.96316749061e-07;5.3128319616e-36;0.0;0.0;0.0;-7.94406339837e-20;-5.33572875344e-36;9.96316749061e-07;0.0;-2.5744959321e-08;9.72268926055e-05;0.0;0.0;0.0;1.93495699675;2.59927569002e-06;0.0;0.0;0.0;0.0;3.88711295302e-07;0.000506229570793;0.0;0.0;0.0;0.0;0.0;0.0;0.000506229570793;0.0;0.0;0.0;0.0;0.0;0.0;9.97233744246e-07;-1.29879098933e-32;-4.79364436927e-29;0.0;0.0;0.0;-1.29879098933e-32;9.89070770402e-07;2.85016936506e-37;0.0;0.0;0.0;-4.79364436927e-29;-2.85016936506e-37;9.89070770402e-07;0.0;0.0;0.0;0.0;0.0;0.0;0.000178927429417
32540000000;1589;32540000000;odom;base_link;0.000123049715343;3.22110980489e-08;0.0;0.0;0.0;0.000135479184708;0.999999990823;1.61472631728;-1.91319298378e-12;0.0;0.0;0.0;-2.57872174455e-08;-1.91319298378e-12;1.61472632453;0.0;0.0;0.0;9.7382857813e-05;0.0;0.0;4.99622070064e-07;-2.33086305673e-28;-3.24774797975e-20;0.0;0.0;0.0;-2.33086305673e-28;4.99245844078e-07;-3.59790009809e-36;0.0;0.0;0.0;-3.24774797975e-20;3.55772250286e-36;4.99245844078e-07;0.0;-2.57872174455e-08;9.7382857813e-05;0.0;0.0;0.0;1.93681702063;2.59932117638e-06;0.0;0.0;0.0;0.0;5.63736322326e-07;0.000790086439909;0.0;0.0;0.0;0.0;0.0;0.0;0.000790086439909;0.0;0.0;0.0;0.0;0.0;0.0;4.99433745189e-07;-2.12212733061e-32;-7.83191633006e-29;0.0;0.0;0.0;-2.12212733061e-32;4.97757627729e-07;-3.42011629878e-38;0.0;0.0;0.0;-7.83191633006e-29;3.42011629878e-38;4.97757627729e-07;0.0;0.0;0.0;0.0;0.0;0.0;9.99957495085e-10
32560000000;1590;32560000000;odom;base_link;0.000123101702017;3.22251844189e-08;0.0;0.0;0.0;0.000135484740111;0.999999990822;1.61572674005;-1.91590676671e-12;0.0;0.0;0.0;-2.58145043687e-08;-1.91590676671e-12;1.61572674731;0.0;0.0;0.0;9.74835619968e-05;0.0;0.0;4.99622070064e-07;-2.00201464019e-28;-3.24778409461e-20;0.0;0.0;0.0;-2.00201464019e-28;4.99245844078e-07;-3.73993926083e-36;0.0;0.0;0.0;-3.24778409461e-20;3.70551501318e-36;4.99245844078e-07;0.0;-2.58145043687e-08;9.74835619968e-05;0.0;0.0;0.0;1.93801703257;2.59935007661e-06;0.0;0.0;0.0;0.0;5.34632802866e-07;0.000790086434353;0.0;0.0;0.0;0.0;0.0;0.0;0.000790086434353;0.0;0.0;0.0;0.0;0.0;0.0;4.99433745189e-07;-2.12223543601e-32;-7.83200342072e-29;0.0;0.0;0.0;-2.12223543601e-32;4.97757627729e-07;-2.71579684862e-38;0.0;0.0;0.0;-7.83200342072e-29;2.71579684862e-38;4.97757627729e-07;0.0;0.0;0.0;0.0;0.0;0.0;9.99957495085e-10
32580000000;1591;32580000000;odom;base_link;0.000123153689269;3.22392715154e-08;0.0;0.0;0.0;0.000135490498323;0.999999990821;1.61672716282;-1.91862347348e-12;0.0;0.0;0.0;-2.58418096043e-08;-1.91862347347e-12;1.61672717009;0.0;0.0;0.0;9.75843296851e-05;0.0;0.0;4.99622070064e-07;-1.89868146618e-28;-3.24782017336e-20;0.0;0.0;0.0;-1.89868146618e-28;4.99245844078e-07;-1.8949662759e-36;0.0;0.0;0.0;-3.24782017336e-20;1.86225197582e-36;4.99245844078e-07;0.0;-2.58418096043e-08;9.75843296851e-05;0.0;0.0;0.0;1.93921704451;2.59937894788e-06;0.0;0.0;0.0;0.0;7.05505291299e-07;0.000790086428935;0.0;0.0;0.0;0.0;0.0;0.0;0.000790086428935;0.0;0.0;0.0;0.0;0.0;0.0;4.99433745189e-07;-2.1223414632e-32;-7.8320904243e-29;0.0;0.0;0.0;-2.1223414632e-32;4.97757627729e-07;1.49990577656e-37;0.0;0.0;0.0;-7.8320904243e-29;-1.49990577656e-37;4.97757627729e-07;0.0;0.0;0.0;0.0;0.0;0.0;9.99957495085e-10
32600000000;1592;32600000000;odom;base_link;0.000123205677097;3.22533594109e-08;0.0;0.0;0.0;0.000135496970967;0.99999999082;1.61772758559;-1.92134311315e-12;0.0;0.0;0.0;-2.58691332944e-08;-1.92134311315e-12;1.61772759288;0.0;0.0;0.0;9.7685160878e-05;0.0;0.0;4.99622070064e-07;-2.50552911525e-28;-3.24785621094e-20;0.0;0.0;0.0;-2.50552911525e-28;4.99245844078e-07;3.65506891301e-36;0.0;0.0;0.0;-3.24785621094e-20;-3.69811749978e-36;4.99245844078e-07;0.0;-2.58691332944e-08;9.7685160878e-05;0.0;0.0;0.0;1.94041705645;2.59940778614e-06;0.0;0.0;0.0;0.0;4.74575050634e-07;0.000790086423653;0.0;0.0;0.0;0.0;0.0;0.0;0.000790086423653;0.0;0.0;0.0;0.0;0.0;0.0;4.99433745189e-07;-2.12248203694e-32;-7.83217732857e-29;0.0;0.0;0.0;-2.12248203694e-32;4.97757627729e-07;-1.34176996507e-37;0.0;0.0;0.0;-7.83217732857e-29;1.34176996507e-37;4.97757627729e-07;0.0;0.0;0.0;0.0;0.0;0.0;9.99957495085e-10
32620000000;1593;32620000000;odom;base_link;0.000123257665501;3.22674480761e-08;0.0;0.0;0.0;0.000135502633017;0.99999999082;1.61872800837;-1.92406568492e-12;0.0;0.0;0.0;-2.58964753841e-08;-1.92406568492e-12;1.61872801566;0.0;0.0;0.0;9.77860555758e-05;0.0;0.0;4.99622070064e-07;-1.68543559301e-28;-3.24789222342e-20;0.0;0.0;0.0;-1.68543559301e-28;4.99245844078e-07;-2.33814289931e-35;0.0;0.0;0.0;-3.24789222342e-20;2.33525808246e-35;4.99245844078e-07;0.0;-2.58964753841e-08;9.77860555758e-05;0.0;0.0;0.0;1.94161706839;2.5994366043e-06;0.0;0.0;0.0;0.0;8.49481728954e-07;0.000790086418503;0.0;0.0;0.0;0.0;0.0;0.0;0.000790086418503;0.0;0.0;0.0;0.0;0.0;0.0;4.99433745189e-07;-2.12257070736e-32;-7.83226417235e-29;0.0;0.0;0.0;-2.12257070736e-32;4.97757627729e-07;1.81880439559e-37;0.0;0.0;0.0;-7.83226417235e-29;-1.81880439559e-37;4.97757627729e-07;0.0;0.0;0.0;0.0;0.0;0.0;9.99957495085e-10
32640000000;1594;32640000000;odom;base_link;0.000123309654482;3.22815375826e-08;0.0;0.0;0.0;0.000135510472648;0.999999990818;1.61972843114;-1.9267911978e-12;0.0;0.0;0.0;-2.59238360142e-08;-1.9267911978e-12;1.61972843844;0.0;0.0;0.0;9.78870137792e-05;0.0;0.0;4.99622070064e-07;-3.01690549057e-28;-3.2479282049e-20;0.0;0.0;0.0;-3.01690549057e-28;4.99245844078e-07;7.04128576585e-36;0.0;0.0;0.0;-3.2479282049e-20;-7.09312898618e-36;4.99245844078e-07;0.0;-2.59238360142e-08;9.78870137792e-05;0.0;0.0;0.0;1.94281708033;2.59946539762e-06;0.0;0.0;0.0;0.0;5.90105482269e-07;0.000790086413482;0.0;0.0;0.0;0.0;0.0;0.0;0.000790086413482;0.0;0.0;0.0;0.0;0.0;0.0;4.99433745189e-07;-2.12274177528e-32;-7.83235094134e-29;0.0;0.0;0.0;-2.12274177528e-32;4.97757627729e-07;-8.59247694504e-38;0.0;0.0;0.0;-7.83235094134e-29;8.59247694504e-38;4.97757627729e-07;0.0;0.0;0.0;0.0;0.0;0.0;9.99957495085e-10
32660000000;1595;32660000000;odom;base_link;0.000123361644037;3.22956279933e-08;0.0;0.0;0.0;0.000135516992832;0.999999990818;1.62072885391;-1.92951966002e-12;0.0;0.0;0.0;-2.59512153092e-08;-1.92951966002e-12;1.62072886122;0.0;0.0;0.0;9.79880354885e-05;0.0;0.0;4.99622070064e-07;-2.09577456324e-28;-3.24796415242e-20;0.0;0.0;0.0;-2.09577456324e-28;4.99245844078e-07;8.90575419351e-36;0.0;0.0;0.0;-3.24796415242e-20;-8.94169137845e-36;4.99245844078e-07;0.0;-2.59512153092e-08;9.79880354885e-05;0.0;0.0;0.0;1.94401709227;2.5994941637e-06;0.0;0.0;0.0;0.0;8.45395632568e-07;0.000790086408585;0.0;0.0;0.0;0.0;0.0;0.0;0.000790086408585;0.0;0.0;0.0;0.0;0.0;0.0;4.99433745189e-07;-2.12284735476e-32;-7.83243762844e-29;0.0;0.0;0.0;-2.12284735476e-32;4.97757627729e-07;6.32761334495e-38;0.0;0.0;0.0;-7.83243762844e-29;-6.32761334495e-38;4.97757627729e-07;0.0;0.0;0.0;0.0;0.0;0.0;9.99957495085e-10
32680000000;1596;32680000000;odom;base_link;0.000123413634168;3.23097193036e-08;0.0;0.0;0.0;0.000135523478019;0.999999990817;1.62172927668;-1.93225107317e-12;0.0;0.0;0.0;-2.59786132619e-08;-1.93225107317e-12;1.62172928401;0.0;0.0;0.0;9.8089120704e-05;0.0;0.0;4.99622070064e-07;-3.00246044488e-28;-3.24800006915e-20;0.0;0.0;0.0;-3.00246044488e-28;4.99245844078e-07;-1.80101982952e-35;0.0;0.0;0.0;-3.24800006915e-20;1.79586026808e-35;4.99245844078e-07;0.0;-2.59786132619e-08;9.8089120704e-05;0.0;0.0;0.0;1.94521710421;2.59952290512e-06;0.0;0.0;0.0;0.0;5.35026071706e-08;0.000790086403812;0.0;0.0;0.0;0.0;0.0;0.0;0.000790086403812;0.0;0.0;0.0;0.0;0.0;0.0;4.99433745189e-07;-2.12301304913e-32;-7.83252424129e-29;0.0;0.0;0.0;-2.12301304913e-32;4.97757627729e-07;2.647467774e-37;0.0;0.0;0.0;-7.83252424129e-29;-2.647467774e-37;4.97757627729e-07;0.0;0.0;0.0;0.0;0.0;0.0;9.99957495085e-10
32700000000;1597;32700000000;odom;base_link;0.000123465624872;3.23238112399e-08;0.0;0.0;0.0;0.000135524787982;0.999999990817;1.62272969946;-1.93498541248e-12;0.0;0.0;0.0;-2.60060293426e-08;-1.93498541248e-12;1.62272970679;0.0;0.0;0.0;9.81902694259e-05;0.0;0.0;4.99622070064e-07;-1.90055227312e-29;-3.24803594503e-20;0.0;0.0;0.0;-1.90055227312e-29;4.99245844078e-07;7.48836706231e-36;0.0;0.0;0.0;-3.24803594503e-20;-7.49150189966e-36;4.99245844078e-07;0.0;-2.60060293426e-08;9.81902694259e-05;0.0;0.0;0.0;1.94641711615;2.5995516138e-06;0.0;0.0;0.0;0.0;3.68017687437e-07;0.000790086399157;0.0;0.0;0.0;0.0;0.0;0.0;0.000790086399157;0.0;0.0;0.0;0.0;0.0;0.0;4.99433745189e-07;-2.12301376257e-32;-7.83261075569e-29;0.0;0.0;0.0;-2.12301376257e-32;4.97757627729e-07;-3.83607974044e-38;0.0;0.0;0.0;-7.83261075569e-29;3.83607974044e-38;4.97757627729e-07;0.0;0.0;0.0;0.0;0.0;0.0;9.99957495085e-10
32720000000;1598;32720000000;odom;base_link;0.00012351761615;3.23379035489e-08;0.0;0.0;0.0;0.00013552878582;0.999999990816;1.62373012223;-1.93772265501e-12;0.0;0.0;0.0;-2.60334630595e-08;-1.93772265501e-12;1.62373012957;0.0;0.0;0.0;9.82914816547e-05;0.0;0.0;4.99622070064e-07;-1.30708197385e-28;-3.24807179137e-20;0.0;0.0;0.0;-1.30708197385e-28;4.99245844078e-07;-1.71074832348e-36;0.0;0.0;0.0;-3.24807179137e-20;1.68817256861e-36;4.99245844078e-07;0.0;-2.60334630595e-08;9.82914816547e-05;0.0;0.0;0.0;1.94761712809;2.5995802988e-06;0.0;0.0;0.0;0.0;4.99473152565e-07;0.000790086394619;0.0;0.0;0.0;0.0;0.0;0.0;0.000790086394619;0.0;0.0;0.0;0.0;0.0;0.0;4.99433745189e-07;-2.12310709373e-32;-7.83269719881e-29;0.0;0.0;0.0;-2.12310709373e-32;4.97757627729e-07;-2.1977942873e-38;0.0;0.0;0.0;-7.83269719881e-29;2.1977942873e-38;4.97757627729e-07;0.0;0.0;0.0;0.0;0.0;0.0;9.99957495085e-10
32740000000;1599;32740000000;odom;base_link;0.000123569608002;3.23519964629e-08;0.0;0.0;0.0;0.000135533910941;0.999999990815;1.624730545;-1.94046282552e-12;0.0;0.0;0.0;-2.60609148657e-08;-1.94046282552e-12;1.62473055236;0.0;0.0;0.0;9.83927573908e-05;0.0;0.0;4.99622070064e-07;-1.77397578805e-28;-3.24810761377e-20;0.0;0.0;0.0;-1.77397578805e-28;4.99245844078e-07;-7.13479211372e-36;0.0;0.0;0.0;-3.24810761377e-20;7.10415347213e-36;4.99245844078e-07;0.0;-2.60609148657e-08;9.83927573908e-05;0.0;0.0;0.0;1.94881714003;2.59960896463e-06;0.0;0.0;0.0;0.0;5.55978668603e-07;0.000790086390194;0.0;0.0;0.0;0.0;0.0;0.0;0.000790086390194;0.0;0.0;0.0;0.0;0.0;0.0;4.99433745189e-07;-2.12321377663e-32;-7.8327835842e-29;0.0;0.0;0.0;-2.12321377663e-32;4.97757627729e-07;-9.75969123898e-39;0.0;0.0;0.0;-7.8327835842e-29;9.75969123898e-39;4.97757627729e-07;0.0;0.0;0.0;0.0;0.0;0.0;9.99957495085e-10
32760000000;1600;32760000000;odom;base_link;0.000123621600426;3.23660900795e-08;0.0;0.0;0.0;0.000135539449648;0.999999990815;1.62573096778;-1.94320593563e-12;0.0;0.0;0.0;-2.60883849535e-08;-1.94320593562e-12;1.62573097514;0.0;0.0;0.0;9.84940966346e-05;0.0;0.0;4.99622070064e-07;-1.97468345869e-28;-3.24814339645e-20;0.0;0.0;0.0;-1.97468345869e-28;4.99245844078e-07;-1.08068115211e-35;0.0;0.0;0.0;-3.24814339645e-20;1.07728541455e-35;4.99245844078e-07;0.0;-2.60883849535e-08;9.84940966346e-05;0.0;0.0;0.0;1.95001715197;2.5996375986e-06;0.0;0.0;0.0;0.0;5.51497446509e-07;0.00079008638588;0.0;0.0;0.0;0.0;0.0;0.0;0.00079008638588;0.0;0.0;0.0;0.0;0.0;0.0;4.99433745189e-07;-2.1233263275e-32;-7.83286987379e-29;0.0;0.0;0.0;-2.1233263275e-32;4.97757627729e-07;1.01565084799e-37;0.0;0.0;0.0;-7.83286987379e-29;-1.01565084799e-37;4.97757627729e-07;0.0;0.0;0.0;0.0;0.0;0.0;9.99957495085e-10
32780000000;1601;32780000000;odom;base_link;0.000123673593422;3.2380184426e-08;0.0;0.0;0.0;0.000135545296977;0.999999990814;1.62673139055;-1.94595199e-12;0.0;0.0;0.0;-2.61158733774e-08;-1.94595199e-12;1.62673139792;0.0;0.0;0.0;9.85954993863e-05;0.0;0.0;4.99622070064e-07;-1.95878924297e-28;-3.24817914313e-20;0.0;0.0;0.0;-1.95878924297e-28;4.99245844078e-07;3.6535660442e-36;0.0;0.0;0.0;-3.24817914313e-20;-3.68728459371e-36;4.99245844078e-07;0.0;-2.61158733774e-08;9.85954993863e-05;0.0;0.0;0.0;1.95121716391;2.59966620374e-06;0.0;0.0;0.0;0.0;6.90255179625e-07;0.000790086381674;0.0;0.0;0.0;0.0;0.0;0.0;0.000790086381674;0.0;0.0;0.0;0.0;0.0;0.0;4.99433745189e-07;-2.12343576058e-32;-7.83295607659e-29;0.0;0.0;0.0;-2.12343576058e-32;4.97757627729e-07;-3.4974483345e-38;0.0;0.0;0.0;-7.83295607659e-29;3.4974483345e-38;4.97757627729e-07;0.0;0.0;0.0;0.0;0.0;0.0;9.99957495085e-10
32800000000;1602;32800000000;odom;base_link;0.00012372558699;3.23942795712e-08;0.0;0.0;0.0;0.000135551954574;0.999999990813;1.62773181332;-1.94870099746e-12;0.0;0.0;0.0;-2.61433802736e-08;-1.94870099745e-12;1.6277318207;0.0;0.0;0.0;9.86969656463e-05;0.0;0.0;4.99622070064e-07;-2.45164131353e-28;-3.24821486268e-20;0.0;0.0;0.0;-2.45164131353e-28;4.99245844078e-07;-3.55351889144e-36;0.0;0.0;0.0;-3.24821486268e-20;3.5113590673e-36;4.99245844078e-07;0.0;-2.61433802736e-08;9.86969656463e-05;0.0;0.0;0.0;1.95241717585;2.59969478713e-06;0.0;0.0;0.0;0.0;5.96006621226e-07;0.000790086377572;0.0;0.0;0.0;0.0;0.0;0.0;0.000790086377572;0.0;0.0;0.0;0.0;0.0;0.0;4.99433745189e-07;-2.12357250267e-32;-7.83304221395e-29;0.0;0.0;0.0;-2.12357250267e-32;4.97757627729e-07;2.63079897993e-37;0.0;0.0;0.0;-7.83304221395e-29;-2.63079897993e-37;4.97757627729e-07;0.0;0.0;0.0;0.0;0.0;0.0;9.99957495085e-10
32820000000;1603;32820000000;odom;base_link;0.000123777581129;3.24083755392e-08;0.0;0.0;0.0;0.000135557138129;0.999999990812;1.62873223609;-1.95145296242e-12;0.0;0.0;0.0;-2.61709056911e-08;-1.95145296241e-12;1.62873224349;0.0;0.0;0.0;9.87984954149e-05;0.0;0.0;4.99622070064e-07;-2.11691875491e-28;-3.24825054323e-20;0.0;0.0;0.0;-2.11691875491e-28;4.99245844078e-07;5.2708474894e-36;0.0;0.0;0.0;-3.24825054323e-20;-5.30715200488e-36;4.99245844078e-07;0.0;-2.61709056911e-08;9.87984954149e-05;0.0;0.0;0.0;1.95361718779;2.59972333926e-06;0.0;0.0;0.0;0.0;2.85589968682e-07;0.000790086373573;0.0;0.0;0.0;0.0;0.0;0.0;0.000790086373573;0.0;0.0;0.0;0.0;0.0;0.0;4.99433745189e-07;-2.1236853309e-32;-7.83312825725e-29;0.0;0.0;0.0;-2.1236853309e-32;4.97757627729e-07;-2.38544768005e-37;0.0;0.0;0.0;-7.83312825725e-29;2.38544768005e-37;4.97757627729e-07;0.0;0.0;0.0;0.0;0.0;0.0;9.99957495085e-10
32840000000;1604;32840000000;odom;base_link;0.000123829575838;3.24224721212e-08;0.0;0.0;0.0;0.000135561426742;0.999999990812;1.62973265887;-1.95420786625e-12;0.0;0.0;0.0;-2.61984492234e-08;-1.95420786625e-12;1.62973266627;0.0;0.0;0.0;9.89000886925e-05;0.0;0.0;4.99622070064e-07;-1.01440042195e-28;-3.24828619979e-20;0.0;0.0;0.0;-1.01440042195e-28;4.99245844078e-07;3.5769628765e-36;0.0;0.0;0.0;-3.24828619979e-20;-3.59437379952e-36;4.99245844078e-07;0.0;-2.61984492234e-08;9.89000886925e-05;0.0;0.0;0.0;1.95481719973;2.59975187219e-06;0.0;0.0;0.0;0.0;8.68449509645e-07;0.000790086369675;0.0;0.0;0.0;0.0;0.0;0.0;0.000790086369675;0.0;0.0;0.0;0.0;0.0;0.0;4.99433745189e-07;-2.12374111114e-32;-7.83321424272e-29;0.0;0.0;0.0;-2.12374111114e-32;4.97757627729e-07;5.73921406678e-38;0.0;0.0;0.0;-7.83321424272e-29;-5.73921406678e-38;4.97757627729e-07;0.0;0.0;0.0;0.0;0.0;0.0;9.99957495085e-10
32860000000;1605;32860000000;odom;base_link;0.000123881571118;3.24365694536e-08;0.0;0.0;0.0;0.000135569500958;0.99999999081;1.63073308164;-1.95696572447e-12;0.0;0.0;0.0;-2.62260111394e-08;-1.95696572447e-12;1.63073308905;0.0;0.0;0.0;9.90017454795e-05;0.0;0.0;4.99622070064e-07;-3.08464167822e-28;-3.24832182125e-20;0.0;0.0;0.0;-3.08464167822e-28;4.99245844078e-07;-7.10021078725e-36;0.0;0.0;0.0;-3.24832182125e-20;7.04722920913e-36;4.99245844078e-07;0.0;-2.62260111394e-08;9.90017454795e-05;0.0;0.0;0.0;1.95601721167;2.59978037698e-06;0.0;0.0;0.0;0.0;6.27416130002e-07;0.000790086365873;0.0;0.0;0.0;0.0;0.0;0.0;0.000790086365873;0.0;0.0;0.0;0.0;0.0;0.0;4.99433745189e-07;-2.12392310634e-32;-7.83330014355e-29;0.0;0.0;0.0;-2.12392310634e-32;4.97757627729e-07;-5.11902130323e-39;0.0;0.0;0.0;-7.83330014355e-29;5.11902130324e-39;4.97757627729e-07;0.0;0.0;0.0;0.0;0.0;0.0;9.99957495085e-10
32889000000;1606;32889000000;odom;base_link;0.000123956965265;3.24570121667e-08;0.0;0.0;0.0;0.000135576412545;0.99999999081;1.63218352163;-1.96096989601e-12;0.0;0.0;0.0;-2.62660092814e-08;-1.96096989601e-12;1.63218352906;0.0;0.0;0.0;9.91492614089e-05;0.0;0.0;9.98153276781e-07;-2.25461895741e-28;-7.94573055455e-20;0.0;0.0;0.0;-2.25461895741e-28;9.96316749061e-07;-1.33851594441e-35;0.0;0.0;0.0;-7.94573055455e-20;1.33657221209e-35;9.96316749061e-07;0.0;-2.62660092814e-08;9.91492614089e-05;0.0;0.0;0.0;1.95775722361;2.59982090664e-06;0.0;0.0;0.0;0.0;3.134085602e-07;0.000506229534552;0.0;0.0;0.0;0.0;0.0;0.0;0.000506229534552;0.0;0.0;0.0;0.0;0.0;0.0;9.97233744246e-07;-1.30008338232e-32;-4.7946503723e-29;0.0;0.0;0.0;-1.30008338232e-32;9.89070770402e-07;-4.494717303e-37;0.0;0.0;0.0;-4.7946503723e-29;4.494717303e-37;9.89070770402e-07;0.0;0.0;0.0;0.0;0.0;0.0;0.000178927429417
32909000000;1607;32909000000;odom;base_link;0.000124008961939;3.24711113237e-08;0.0;0.0;0.0;0.000135581416393;0.999999990809;1.63318394441;-1.96373499964e-12;0.0;0.0;0.0;-2.62936162171e-08;-1.96373499964e-12;1.63318395185;0.0;0.0;0.0;9.92510737953e-05;0.0;0.0;9.98153276781e-07;-4.16050407789e-28;-7.94581748654e-20;0.0;0.0;0.0;-4.16050407789e-28;9.96316749061e-07;2.14043124973e-35;0.0;0.0;0.0;-7.94581748654e-20;-2.14401810625e-35;9.96316749061e-07;0.0;-2.62936162171e-08;9.92510737953e-05;0.0;0.0;0.0;1.95895723555;2.59984934318e-06;0.0;0.0;0.0;0.0;5.7832794599e-07;0.000506229533085;0.0;0.0;0.0;0.0;0.0;0.0;0.000506229533085;0.0;0.0;0.0;0.0;0.0;0.0;9.97233744246e-07;-1.30014566723e-32;-4.7947028292e-29;0.0;0.0;0.0;-1.30014566723e-32;9.89070770402e-07;-4.51087488664e-38;0.0;0.0;0.0;-4.7947028292e-29;4.51087488664e-38;9.89070770402e-07;0.0;0.0;0.0;0.0;0.0;0.0;0.000178927429417
32920000000;1608;32920000000;odom;base_link;0.000124037560371;3.24788661557e-08;0.0;0.0;0.0;0.000135584475528;0.999999990808;1.63373434996;-1.96525706569e-12;0.0;0.0;0.0;-2.63088076013e-08;-1.96525706568e-12;1.6337343574;0.0;0.0;0.0;9.93070969003e-05;0.0;0.0;4.99622070064e-07;-2.06652732988e-28;-3.24842848382e-20;0.0;0.0;0.0;-2.06652732988e-28;4.99245844078e-07;7.13513188894e-36;0.0;0.0;0.0;-3.24842848382e-20;-7.17060503191e-36;4.99245844078e-07;0.0;-2.63088076013e-08;9.93070969003e-05;0.0;0.0;0.0;1.95961724749;2.59986572963e-06;0.0;0.0;0.0;0.0;5.29007399216e-07;0.000790086355029;0.0;0.0;0.0;0.0;0.0;0.0;0.000790086355029;0.0;0.0;0.0;0.0;0.0;0.0;4.99433745189e-07;-2.12421999908e-32;-7.83355735934e-29;0.0;0.0;0.0;-2.12421999908e-32;4.97757627729e-07;-3.44876910781e-37;0.0;0.0;0.0;-7.83355735934e-29;3.44876910781e-37;4.97757627729e-07;0.0;0.0;0.0;0.0;0.0;0.0;9.99957495085e-10
32949000000;1609;32949000000;odom;base_link;0.000124112956991;3.24993117532e-08;0.0;0.0;0.0;0.000135591608505;0.999999990807;1.63518478997;-1.96927407945e-12;0.0;0.0;0.0;-2.63488849926e-08;-1.96927407945e-12;1.63518479743;0.0;0.0;0.0;9.94548891003e-05;0.0;0.0;9.98153276781e-07;-3.24107345232e-28;-7.94599113702e-20;0.0;0.0;0.0;-3.24107345232e-28;9.96316749061e-07;-1.60952181575e-35;0.0;0.0;0.0;-7.94599113702e-20;1.60684762869e-35;9.96316749061e-07;0.0;-2.63488849926e-08;9.94548891003e-05;0.0;0.0;0.0;1.96135725943;2.59990613721e-06;0.0;0.0;0.0;0.0;4.50514714407e-07;0.00050622953026;0.0;0.0;0.0;0.0;0.0;0.0;0.00050622953026;0.0;0.0;0.0;0.0;0.0;0.0;9.97233744246e-07;-1.30027179882e-32;-4.79480761417e-29;0.0;0.0;0.0;-1.30027179882e-32;9.89070770402e-07;2.66483097178e-38;0.0;0.0;0.0;-4.79480761417e-29;-2.66483097178e-38;9.89070770402e-07;0.0;0.0;0.0;0.0;0.0;0.0;0.000178927429417
32969000000;1610;32969000000;odom;base_link;0.000124164955368;3.25134129278e-08;0.0;0.0;0.0;0.00013559437438;0.999999990807;1.63618521275;-1.97204804992e-12;0.0;0.0;0.0;-2.63765466441e-08;-1.97204804992e-12;1.63618522022;0.0;0.0;0.0;9.95568920196e-05;0.0;0.0;9.98153276781e-07;-1.43649906944e-28;-7.94607785189e-20;0.0;0.0;0.0;-1.43649906944e-28;9.96316749061e-07;2.95036026503e-35;0.0;0.0;0.0;-7.94607785189e-20;-2.95147867075e-35;9.96316749061e-07;0.0;-2.63765466441e-08;9.95568920196e-05;0.0;0.0;0.0;1.96255727137;2.59993449226e-06;0.0;0.0;0.0;0.0;1.9967888866e-07;0.0005062295289;0.0;0.0;0.0;0.0;0.0;0.0;0.0005062295289;0.0;0.0;0.0;0.0;0.0;0.0;9.97233744246e-07;-1.30031234223e-32;-4.79485994006e-29;0.0;0.0;0.0;-1.30031234223e-32;9.89070770402e-07;1.11388947361e-37;0.0;0.0;0.0;-4.79485994006e-29;-1.11388947361e-37;9.89070770402e-07;0.0;0.0;0.0;0.0;0.0;0.0;0.000178927429417
32980000000;1611;32980000000;odom;base_link;0.000124193554736;3.2521168755e-08;0.0;0.0;0.0;0.000135596000238;0.999999990807;1.63673561828;-1.97357498386e-12;0.0;0.0;0.0;-2.6391767899e-08;-1.97357498385e-12;1.63673562576;0.0;0.0;0.0;9.96130199179e-05;0.0;0.0;4.99622070064e-07;-7.13531821861e-29;-3.24853485669e-20;0.0;0.0;0.0;-7.13531821861e-29;4.99245844078e-07;-8.99500306766e-36;0.0;0.0;0.0;-3.24853485669e-20;8.98289852171e-36;4.99245844078e-07;0.0;-2.6391767899e-08;9.96130199179e-05;0.0;0.0;0.0;1.96321728331;2.59995085017e-06;0.0;0.0;0.0;0.0;4.13561777231e-07;0.000790086344977;0.0;0.0;0.0;0.0;0.0;0.0;0.000790086344977;0.0;0.0;0.0;0.0;0.0;0.0;4.99433745189e-07;-2.12445962189e-32;-7.83381387657e-29;0.0;0.0;0.0;-2.12445962189e-32;4.97757627729e-07;7.05009785219e-38;0.0;0.0;0.0;-7.83381387657e-29;-7.05009785219e-38;4.97757627729e-07;0.0;0.0;0.0;0.0;0.0;0.0;9.99957495085e-10
33009000000;1612;33009000000;odom;base_link;0.000124268953821;3.25416166868e-08;0.0;0.0;0.0;0.000135602164302;0.999999990806;1.63818605831;-1.97760481102e-12;0.0;0.0;0.0;-2.64319234804e-08;-1.97760481102e-12;1.6381860658;0.0;0.0;0.0;9.97610883931e-05;0.0;0.0;9.98153276781e-07;-3.13715313312e-28;-7.94625100895e-20;0.0;0.0;0.0;-3.13715313312e-28;9.96316749061e-07;5.48645060715e-36;0.0;0.0;0.0;-7.94625100895e-20;-5.51229742419e-36;9.96316749061e-07;0.0;-2.64319234804e-08;9.97610883931e-05;0.0;0.0;0.0;1.96495729525;2.59999112484e-06;0.0;0.0;0.0;0.0;4.3605601618e-07;0.000506229526282;0.0;0.0;0.0;0.0;0.0;0.0;0.000506229526282;0.0;0.0;0.0;0.0;0.0;0.0;9.97233744246e-07;-1.3004155143e-32;-4.7949644273e-29;0.0;0.0;0.0;-1.3004155143e-32;9.89070770402e-07;-9.89404008303e-38;0.0;0.0;0.0;-4.7949644273e-29;9.89404008303e-38;9.89070770402e-07;0.0;0.0;0.0;0.0;0.0;0.0;0.000178927429417
33029000000;1613;33029000000;odom;base_link;0.000124320953897;3.25557194593e-08;0.0;0.0;0.0;0.000135607387137;0.999999990805;1.63918648109;-1.98038762431e-12;0.0;0.0;0.0;-2.64596390372e-08;-1.98038762431e-12;1.63918648859;0.0;0.0;0.0;9.9863281848e-05;0.0;0.0;9.98153276781e-07;-4.00370422747e-28;-7.94633747217e-20;0.0;0.0;0.0;-4.00370422747e-28;9.96316749061e-07;-1.62379921507e-35;0.0;0.0;0.0;-7.94633747217e-20;1.62046738344e-35;9.96316749061e-07;0.0;-2.64596390372e-08;9.9863281848e-05;0.0;0.0;0.0;1.96615730719;2.60001940207e-06;0.0;0.0;0.0;0.0;5.56495602143e-07;0.000506229525022;0.0;0.0;0.0;0.0;0.0;0.0;0.000506229525022;0.0;0.0;0.0;0.0;0.0;0.0;9.97233744246e-07;-1.30047983018e-32;-4.79501660133e-29;0.0;0.0;0.0;-1.30047983018e-32;9.89070770402e-07;-2.55427375054e-38;0.0;0.0;0.0;-4.79501660133e-29;2.55427375054e-38;9.89070770402e-07;0.0;0.0;0.0;0.0;0.0;0.0;0.000178927429417
33049000000;1614;33049000000;odom;base_link;0.000124372954537;3.25698229191e-08;0.0;0.0;0.0;0.000135611393927;0.999999990805;1.64018690387;-1.98317340461e-12;0.0;0.0;0.0;-2.64873728693e-08;-1.9831734046e-12;1.64018691138;0.0;0.0;0.0;9.99655388154e-05;0.0;0.0;9.98153276781e-07;-2.38042940761e-28;-7.9464238529e-20;0.0;0.0;0.0;-2.38042940761e-28;9.96316749061e-07;2.67801775978e-35;0.0;0.0;0.0;-7.9464238529e-20;-2.68007013377e-35;9.96316749061e-07;0.0;-2.64873728693e-08;9.99655388154e-05;0.0;0.0;0.0;1.96735731913;2.60004765297e-06;0.0;0.0;0.0;0.0;3.30867977533e-07;0.000506229523793;0.0;0.0;0.0;0.0;0.0;0.0;0.000506229523793;0.0;0.0;0.0;0.0;0.0;0.0;9.97233744246e-07;-1.30053228907e-32;-4.79506872559e-29;0.0;0.0;0.0;-1.30053228907e-32;9.89070770402e-07;-1.43331826521e-37;0.0;0.0;0.0;-4.79506872559e-29;1.43331826521e-37;9.89070770402e-07;0.0;0.0;0.0;0.0;0.0;0.0;0.000178927429417
33069000000;1615;33069000000;odom;base_link;0.000124424955743;3.25839269414e-08;0.0;0.0;0.0;0.000135616202612;0.999999990804;1.64118732665;-1.9859621414e-12;0.0;0.0;0.0;-2.65151247325e-08;-1.9859621414e-12;1.64118733417;0.0;0.0;0.0;0.000100067859296;0.0;0.0;9.98153276781e-07;-3.90616010557e-28;-7.94651015292e-20;0.0;0.0;0.0;-3.90616010557e-28;9.96316749061e-07;2.12483625234e-35;0.0;0.0;0.0;-7.94651015292e-20;-2.12820412724e-35;9.96316749061e-07;0.0;-2.65151247325e-08;0.000100067859296;0.0;0.0;0.0;1.96855733107;2.60007588154e-06;0.0;0.0;0.0;0.0;5.42926214028e-07;0.000506229522595;0.0;0.0;0.0;0.0;0.0;0.0;0.000506229522595;0.0;0.0;0.0;0.0;0.0;0.0;9.97233744246e-07;-1.30059259736e-32;-4.79512080115e-29;0.0;0.0;0.0;-1.30059259736e-32;9.89070770402e-07;-2.9295454459e-37;0.0;0.0;0.0;-4.79512080115e-29;2.9295454459e-37;9.89070770402e-07;0.0;0.0;0.0;0.0;0.0;0.0;0.000178927429417
33089000000;1616;33089000000;odom;base_link;0.000124476957512;3.25980316174e-08;0.0;0.0;0.0;0.000135619870565;0.999999990804;1.64218774943;-1.9887538458e-12;0.0;0.0;0.0;-2.65428948078e-08;-1.9887538458e-12;1.64218775696;0.0;0.0;0.0;0.000100170243289;0.0;0.0;9.98153276781e-07;-2.07489435411e-28;-7.94659638455e-20;0.0;0.0;0.0;-2.07489435411e-28;9.96316749061e-07;-1.08464131018e-35;0.0;0.0;0.0;-7.94659638455e-20;1.08273225515e-35;9.96316749061e-07;0.0;-2.65428948078e-08;0.000100170243289;0.0;0.0;0.0;1.96975734301;2.60010408606e-06;0.0;0.0;0.0;0.0;2.88395022349e-07;0.000506229521427;0.0;0.0;0.0;0.0;0.0;0.0;0.000506229521427;0.0;0.0;0.0;0.0;0.0;0.0;9.97233744246e-07;-1.30064179085e-32;-4.79517283543e-29;0.0;0.0;0.0;-1.30064179085e-32;9.89070770402e-07;5.91671629318e-38;0.0;0.0;0.0;-4.79517283543e-29;-5.91671629319e-38;9.89070770402e-07;0.0;0.0;0.0;0.0;0.0;0.0;0.000178927429417
33109000000;1617;33109000000;odom;base_link;0.000124528959845;3.2612136815e-08;0.0;0.0;0.0;0.000135624182738;0.999999990803;1.64318817221;-1.99154850658e-12;0.0;0.0;0.0;-2.65706828368e-08;-1.99154850658e-12;1.64318817975;0.0;0.0;0.0;0.000100272690797;0.0;0.0;9.98153276781e-07;-3.52878736852e-28;-7.94668254252e-20;0.0;0.0;0.0;-3.52878736852e-28;9.96316749061e-07;-1.62321477331e-35;0.0;0.0;0.0;-7.94668254252e-20;1.620292272e-35;9.96316749061e-07;0.0;-2.65706828368e-08;0.000100272690797;0.0;0.0;0.0;1.97095735495;2.60013226012e-06;0.0;0.0;0.0;0.0;4.9046473155e-07;0.000506229520288;0.0;0.0;0.0;0.0;0.0;0.0;0.000506229520288;0.0;0.0;0.0;0.0;0.0;0.0;9.97233744246e-07;-1.30069730238e-32;-4.79522482527e-29;0.0;0.0;0.0;-1.30069730238e-32;9.89070770402e-07;-2.61472742193e-37;0.0;0.0;0.0;-4.79522482527e-29;2.61472742193e-37;9.89070770402e-07;0.0;0.0;0.0;0.0;0.0;0.0;0.000178927429417
33129000000;1618;33129000000;odom;base_link;0.000124580962741;3.26262426158e-08;0.0;0.0;0.0;0.000135627489965;0.999999990803;1.64418859499;-1.99434613385e-12;0.0;0.0;0.0;-2.65984889813e-08;-1.99434613385e-12;1.64418860254;0.0;0.0;0.0;0.000100375201818;0.0;0.0;9.98153276781e-07;-1.86797419887e-28;-7.94676860698e-20;0.0;0.0;0.0;-1.86797419887e-28;9.96316749061e-07;-2.9383933039e-35;0.0;0.0;0.0;-7.94676860698e-20;2.93678269198e-35;9.96316749061e-07;0.0;-2.65984889813e-08;0.000100375201818;0.0;0.0;0.0;1.97215736689;2.60016041163e-06;0.0;0.0;0.0;0.0;2.59630077314e-07;0.000506229519177;0.0;0.0;0.0;0.0;0.0;0.0;0.000506229519177;0.0;0.0;0.0;0.0;0.0;0.0;9.97233744246e-07;-1.30074302213e-32;-4.79527675869e-29;0.0;0.0;0.0;-1.30074302213e-32;9.89070770402e-07;-3.89381722424e-38;0.0;0.0;0.0;-4.79527675869e-29;3.89381722424e-38;9.89070770402e-07;0.0;0.0;0.0;0.0;0.0;0.0;0.000178927429417
33149000000;1619;33149000000;odom;base_link;0.0001246329662;3.2640348934e-08;0.0;0.0;0.0;0.000135633334858;0.999999990802;1.64518901777;-1.99714672098e-12;0.0;0.0;0.0;-2.66263130737e-08;-1.99714672098e-12;1.64518902533;0.0;0.0;0.0;0.000100477776353;0.0;0.0;9.98153276781e-07;-5.19191432691e-28;-7.94685460243e-20;0.0;0.0;0.0;-5.19191432691e-28;9.96316749061e-07;2.13992707767e-35;0.0;0.0;0.0;-7.94685460243e-20;-2.14440371851e-35;9.96316749061e-07;0.0;-2.66263130737e-08;0.000100477776353;0.0;0.0;0.0;1.97335737883;2.60018853714e-06;0.0;0.0;0.0;0.0;7.21601941606e-07;0.000506229518094;0.0;0.0;0.0;0.0;0.0;0.0;0.000506229518094;0.0;0.0;0.0;0.0;0.0;0.0;9.97233744246e-07;-1.30081337083e-32;-4.79532865046e-29;0.0;0.0;0.0;-1.30081337083e-32;9.89070770402e-07;-1.25444980024e-37;0.0;0.0;0.0;-4.79532865046e-29;1.25444980024e-37;9.89070770402e-07;0.0;0.0;0.0;0.0;0.0;0.0;0.000178927429417
33169000000;1620;33169000000;odom;base_link;0.000124684970221;3.26544560054e-08;0.0;0.0;0.0;0.000135636186302;0.999999990801;1.64618944055;-1.99995029365e-12;0.0;0.0;0.0;-2.66541555804e-08;-1.99995029365e-12;1.64618944812;0.0;0.0;0.0;0.000100580414404;0.0;0.0;9.98153276781e-07;-6.80392258299e-29;-7.94694051816e-20;0.0;0.0;0.0;-6.80392258299e-29;9.96316749061e-07;2.27503409356e-35;0.0;0.0;0.0;-7.94694051816e-20;-2.27574082708e-35;9.96316749061e-07;0.0;-2.66541555804e-08;0.000100580414404;0.0;0.0;0.0;1.97455739077;2.60021663862e-06;0.0;0.0;0.0;0.0;9.45707813923e-08;0.000506229517039;0.0;0.0;0.0;0.0;0.0;0.0;0.000506229517039;0.0;0.0;0.0;0.0;0.0;0.0;9.97233744246e-07;-1.3008545273e-32;-4.79538049413e-29;0.0;0.0;0.0;-1.3008545273e-32;9.89070770402e-07;-1.22002827645e-37;0.0;0.0;0.0;-4.79538049413e-29;1.22002827645e-37;9.89070770402e-07;0.0;0.0;0.0;0.0;0.0;0.0;0.000178927429417
33189000000;1621;33189000000;odom;base_link;0.000124736974804;3.26685634693e-08;0.0;0.0;0.0;0.000135639103425;0.999999990801;1.64718986333;-2.00275681756e-12;0.0;0.0;0.0;-2.66820157911e-08;-2.00275681756e-12;1.64718987091;0.0;0.0;0.0;0.000100683115969;0.0;0.0;9.98153276781e-07;-2.70029192378e-28;-7.9470263603e-20;0.0;0.0;0.0;-2.70029192378e-28;9.96316749061e-07;8.13185762648e-36;0.0;0.0;0.0;-7.9470263603e-20;-8.15394023892e-36;9.96316749061e-07;0.0;-2.66820157911e-08;0.000100683115969;0.0;0.0;0.0;1.97575740271;2.6002447115e-06;0.0;0.0;0.0;0.0;3.75299178459e-07;0.000506229516009;0.0;0.0;0.0;0.0;0.0;0.0;0.000506229516009;0.0;0.0;0.0;0.0;0.0;0.0;9.97233744246e-07;-1.30089655979e-32;-4.7954322934e-29;0.0;0.0;0.0;-1.30089655979e-32;9.89070770402e-07;-1.64185039643e-37;0.0;0.0;0.0;-4.7954322934e-29;1.64185039643e-37;9.89070770402e-07;0.0;0.0;0.0;0.0;0.0;0.0;0.000178927429417
33209000000;1622;33209000000;odom;base_link;0.000124788979947;3.26826714588e-08;0.0;0.0;0.0;0.000135644690105;0.9999999908;1.6481902861;-2.00556630804e-12;0.0;0.0;0.0;-2.67098939697e-08;-2.00556630803e-12;1.6481902937;0.0;0.0;0.0;0.000100785881049;0.0;0.0;9.98153276781e-07;-4.56681537509e-28;-7.94711211475e-20;0.0;0.0;0.0;-4.56681537509e-28;9.96316749061e-07;2.67281223712e-35;0.0;0.0;0.0;-7.94711211475e-20;-2.67675002449e-35;9.96316749061e-07;0.0;-2.67098939697e-08;0.000100785881049;0.0;0.0;0.0;1.97695741465;2.60027275721e-06;0.0;0.0;0.0;0.0;6.34702330549e-07;0.000506229515006;0.0;0.0;0.0;0.0;0.0;0.0;0.000506229515006;0.0;0.0;0.0;0.0;0.0;0.0;9.97233744246e-07;-1.30096440895e-32;-4.79548403974e-29;0.0;0.0;0.0;-1.30096440895e-32;9.89070770402e-07;4.69077040732e-37;0.0;0.0;0.0;-4.79548403974e-29;-4.69077040732e-37;9.89070770402e-07;0.0;0.0;0.0;0.0;0.0;0.0;0.000178927429417
33229000000;1623;33229000000;odom;base_link;0.000124840985651;3.26967802079e-08;0.0;0.0;0.0;0.000135650434909;0.999999990799;1.64919070888;-2.00837879064e-12;0.0;0.0;0.0;-2.67377905799e-08;-2.00837879064e-12;1.64919071649;0.0;0.0;0.0;0.000100888709646;0.0;0.0;9.98153276781e-07;-3.92144830673e-28;-7.94719778587e-20;0.0;0.0;0.0;-3.92144830673e-28;9.96316749061e-07;-2.14076513821e-35;0.0;0.0;0.0;-7.94719778587e-20;2.13738378932e-35;9.96316749061e-07;0.0;-2.67377905799e-08;0.000100888709646;0.0;0.0;0.0;1.97815742659;2.60030078573e-06;0.0;0.0;0.0;0.0;5.45002902095e-07;0.000506229514027;0.0;0.0;0.0;0.0;0.0;0.0;0.000506229514027;0.0;0.0;0.0;0.0;0.0;0.0;9.97233744246e-07;-1.301033547e-32;-4.7955357358e-29;0.0;0.0;0.0;-1.301033547e-32;9.89070770402e-07;-3.78650563712e-38;0.0;0.0;0.0;-4.7955357358e-29;3.78650563712e-38;9.89070770402e-07;0.0;0.0;0.0;0.0;0.0;0.0;0.000178927429417
33249000000;1624;33249000000;odom;base_link;0.000771295621353;2.07909767093e-07;0.0;0.0;0.0;0.000134831181505;0.99999999091;1.65019113166;-2.01119288471e-12;0.0;0.0;0.0;-2.67656785312e-08;-2.01119288471e-12;1.65019113928;0.0;0.0;0.0;0.000100991601758;0.0;0.0;9.98153276781e-07;8.42783988186e-26;-7.94728340224e-20;0.0;0.0;0.0;8.42783988186e-26;9.96316749061e-07;5.8160687238e-34;0.0;0.0;0.0;-7.94728340224e-20;-5.74353210004e-34;9.96316749061e-07;0.0;-2.67656785312e-08;0.000100991601758;0.0;0.0;0.0;1.97935743853;0.0218989191853;0.0;0.0;0.0;0.0;-0.000117529591355;0.000506229513073;0.0;0.0;0.0;0.0;0.0;0.0;0.000506229513073;0.0;0.0;0.0;0.0;0.0;0.0;9.97233744246e-07;-1.29311928957e-32;-4.79558740097e-29;0.0;0.0;0.0;-1.29311928957e-32;9.89070770402e-07;-9.86712194798e-38;0.0;0.0;0.0;-4.79558740097e-29;9.86712194798e-38;9.89070770402e-07;0.0;0.0;0.0;0.0;0.0;0.0;0.000178927429417
33269000000;1625;33269000000;odom;base_link;0.00242377730215;6.53885898424e-07;0.0;0.0;0.0;0.000133892096466;0.999999991036;1.65119155444;-1.29260741837e-10;0.0;0.0;0.0;-2.61583222597e-07;-1.29260741837e-10;1.65119203552;0.0;0.0;0.0;0.000973419614289;0.0;0.0;9.98153276781e-07;5.08571298786e-22;-6.75728556309e-16;0.0;0.0;0.0;5.08571298786e-22;9.96316749061e-07;1.86094141066e-28;0.0;0.0;0.0;-6.75728556309e-16;1.86096195746e-28;9.96316749061e-07;0.0;-2.61583222597e-07;0.000973419614289;0.0;0.0;0.0;1.98055745047;0.0632194403257;0.0;0.0;0.0;0.0;-8.32855974837e-05;0.000506229512143;0.0;0.0;0.0;0.0;0.0;0.0;0.000506229512143;0.0;0.0;0.0;0.0;0.0;0.0;9.97233744246e-07;-1.09182431985e-28;-4.07751140474e-25;0.0;0.0;0.0;-1.09182431985e-28;9.89070770402e-07;-1.55731651336e-34;0.0;0.0;0.0;-4.07751140474e-25;-1.55347156749e-34;9.89070770402e-07;0.0;0.0;0.0;0.0;0.0;0.0;0.000178927429417
33289000000;1626;33289000000;odom;base_link;0.00517928694598;1.39321145843e-06;0.0;0.0;0.0;0.000133417630191;0.9999999911;1.65219197722;-1.65078983113e-09;0.0;0.0;0.0;-9.35659436029e-07;-1.65078983113e-09;1.65219814083;0.0;0.0;0.0;0.00349347119522;0.0;0.0;9.98153276781e-07;5.5905266156e-22;-1.95066530934e-15;0.0;0.0;0.0;5.5905266156e-22;9.96316749061e-07;5.90546503075e-28;0.0;0.0;0.0;-1.95066530934e-15;5.90546417478e-28;9.96316749061e-07;0.0;-9.35659436029e-07;0.00349347119522;0.0;0.0;0.0;1.98175746241;0.114247896233;0.0;0.0;0.0;0.0;-3.17190057547e-05;0.000506229511236;0.0;0.0;0.0;0.0;0.0;0.0;0.000506229511236;0.0;0.0;0.0;0.0;0.0;0.0;9.97233744246e-07;-3.1407617445e-28;-1.17707916747e-24;0.0;0.0;0.0;-3.1407617445e-28;9.89070770402e-07;-1.29519987166e-33;0.0;0.0;0.0;-1.17707916747e-24;-1.29515218731e-33;9.89070770402e-07;0.0;0.0;0.0;0.0;0.0;0.0;0.000178927429417
33309000000;1627;33309000000;odom;base_link;0.00908633479408;2.43757732655e-06;0.0;0.0;0.0;0.000133230898042;0.999999991125;1.6531924;-8.73798453288e-09;0.0;0.0;0.0;-2.15103786057e-06;-8.73798453288e-09;1.65322510186;0.0;0.0;0.0;0.00805023878844;0.0;0.0;9.98153276782e-07;4.12225434115e-22;-3.52500743475e-15;0.0;0.0;0.0;4.12225434115e-22;9.96316749061e-07;7.86886343325e-28;0.0;0.0;0.0;-3.52500743475e-15;7.86886321971e-28;9.96316749061e-07;0.0;-2.15103786057e-06;0.00805023878844;0.0;0.0;0.0;1.98295747435;0.170126125294;0.0;0.0;0.0;0.0;-1.29432480862e-05;0.000506229510351;0.0;0.0;0.0;0.0;0.0;0.0;0.000506229510351;0.0;0.0;0.0;0.0;0.0;0.0;9.97233744246e-07;-5.66777280359e-28;-2.12707572489e-24;0.0;0.0;0.0;-5.66777280359e-28;9.89070770402e-07;-4.22359336855e-33;0.0;0.0;0.0;-2.12707572489e-24;-4.22339263198e-33;9.89070770402e-07;0.0;0.0;0.0;0.0;0.0;0.0;0.000178927429417
33329000000;1628;33329000000;odom;base_link;0.0141691790484;3.7936465304e-06;0.0;0.0;0.0;0.000133156902978;0.999999991135;1.65419282279;-2.96353548421e-08;0.0;0.0;0.0;-3.95982555832e-06;-2.96353548421e-08;1.65430388237;0.0;0.0;0.0;0.014839594072;0.0;0.0;9.98153276785e-07;2.35536063453e-22;-5.24881430203e-15;0.0;0.0;0.0;2.35536063453e-22;9.96316749061e-07;6.69478551153e-28;0.0;0.0;0.0;-5.24881430203e-15;6.69478508036e-28;9.96316749061e-07;0.0;-3.95982555832e-06;0.014839594072;0.0;0.0;0.0;1.98415748629;0.228424882667;0.0;0.0;0.0;0.0;-4.96781309359e-06;0.000506229509489;0.0;0.0;0.0;0.0;0.0;0.0;0.000506229509489;0.0;0.0;0.0;0.0;0.0;0.0;9.97233744246e-07;-8.43481656741e-28;-3.16726296918e-24;0.0;0.0;0.0;-8.43481656741e-28;9.89070770402e-07;-9.35993868047e-33;0.0;0.0;0.0;-3.16726296918e-24;-9.36001293483e-33;9.89070770402e-07;0.0;0.0;0.0;0.0;0.0;0.0;0.000178927429417
33360000000;1629;33360000000;odom;base_link;0.0236177131437;6.31121637694e-06;0.0;0.0;0.0;0.00013312258161;0.999999991139;1.65574365101;-1.23075671623e-07;0.0;0.0;0.0;-8.06857534286e-06;-1.23075671623e-07;1.65620537637;0.0;0.0;0.0;0.030269729295;0.0;0.0;4.9962207007e-07;7.0988513036e-23;-3.60954396254e-15;0.0;0.0;0.0;7.0988513036e-23;4.99245844078e-07;6.78001299076e-28;0.0;0.0;0.0;-3.60954396254e-15;6.78001291865e-28;4.99245844078e-07;0.0;-8.06857534286e-06;0.030269729295;0.0;0.0;0.0;1.98601751017;0.289845613315;0.0;0.0;0.0;0.0;-5.41399375788e-07;0.00079008629633;0.0;0.0;0.0;0.0;0.0;0.0;0.00079008629633;0.0;0.0;0.0;0.0;0.0;0.0;4.99433745189e-07;-2.31744062667e-27;-8.70436777574e-24;0.0;0.0;0.0;-2.31744062667e-27;4.97757627729e-07;-8.64486389499e-32;0.0;0.0;0.0;-8.70436777574e-24;-8.64485969432e-32;4.97757627729e-07;0.0;0.0;0.0;0.0;0.0;0.0;9.99957495085e-10
33380000000;1630;33380000000;odom;base_link;0.0317457375786;8.47659332072e-06;0.0;0.0;0.0;0.000133118277642;0.99999999114;1.65674407382;-2.49252516658e-07;0.0;0.0;0.0;-1.14831780723e-05;-2.49252516658e-07;1.6576794863;0.0;0.0;0.0;0.0430949005667;0.0;0.0;4.99622070073e-07;2.59429648822e-23;-4.36292605873e-15;0.0;0.0;0.0;2.59429648822e-23;4.99245844078e-07;2.99493719703e-28;0.0;0.0;0.0;-4.36292605873e-15;2.99493716074e-28;4.99245844078e-07;0.0;-1.14831780723e-05;0.0430949005667;0.0;0.0;0.0;1.98721752211;0.350335350687;0.0;0.0;0.0;0.0;-9.24538008131e-08;0.000790086294361;0.0;0.0;0.0;0.0;0.0;0.0;0.000790086294361;0.0;0.0;0.0;0.0;0.0;0.0;4.99433745189e-07;-2.80108882965e-27;-1.05211421563e-23;0.0;0.0;0.0;-2.80108882965e-27;4.97757627729e-07;-1.26300072675e-31;0.0;0.0;0.0;-1.05211421563e-23;-1.26299959632e-31;4.97757627729e-07;0.0;0.0;0.0;0.0;0.0;0.0;9.99957495085e-10
33389000000;1631;33389000000;odom;base_link;0.0365665032974;9.76123890141e-06;0.0;0.0;0.0;0.0001331178616;0.99999999114;1.6571940912;-3.27117860616e-07;0.0;0.0;0.0;-1.3155830823e-05;-3.27117860616e-07;1.65842185477;0.0;0.0;0.0;0.049377481501;0.0;0.0;9.98153276798e-07;8.93341094716e-24;-1.07359745412e-14;0.0;0.0;0.0;8.93341094716e-24;9.96316749061e-07;5.19392732883e-29;0.0;0.0;0.0;-1.07359745412e-14;5.19392344027e-29;9.96316749061e-07;0.0;-1.3155830823e-05;0.049377481501;0.0;0.0;0.0;1.98775752211;0.40843057555;0.0;0.0;0.0;0.0;-9.31157733568e-08;0.000506229507029;0.0;0.0;0.0;0.0;0.0;0.0;0.000506229507029;0.0;0.0;0.0;0.0;0.0;0.0;9.97233744246e-07;-1.7247679115e-27;-6.47834975784e-24;0.0;0.0;0.0;-1.7247679115e-27;9.89070770402e-07;-3.91481783919e-32;0.0;0.0;0.0;-6.47834975784e-24;-3.91482321285e-32;9.89070770402e-07;0.0;0.0;0.0;0.0;0.0;0.0;0.000178927429417
33420000000;1632;33420000000;odom;base_link;0.0511250722562;1.36426408716e-05;0.0;0.0;0.0;0.00013395075094;0.999999991029;1.6587449195;-7.69411507861e-07;0.0;0.0;0.0;-2.0185969687e-05;-7.69411507861e-07;1.66163221138;0.0;0.0;0.0;0.0757498257251;0.0;0.0;4.99622070079e-07;-3.19649450803e-21;-5.73123172532e-15;0.0;0.0;0.0;-3.19649450803e-21;4.99245844078e-07;-4.84743980776e-26;0.0;0.0;0.0;-5.73123172532e-15;-4.8474397819e-26;4.99245844077e-07;0.0;-2.0185969687e-05;0.0757498257251;0.0;0.0;0.0;1.98961754599;0.460188495301;0.0;0.0;0.0;0.0;0.00013296116125;0.00079008629057;0.0;0.0;0.0;0.0;0.0;0.0;0.00079008629057;0.0;0.0;0.0;0.0;0.0;0.0;4.99433745189e-07;-3.6970821581e-27;-1.38208029171e-23;0.0;0.0;0.0;-3.6970821581e-27;4.97757627729e-07;-2.1898105116e-31;0.0;0.0;0.0;-1.38208029171e-23;-2.18980928998e-31;4.97757627729e-07;0.0;0.0;0.0;0.0;0.0;0.0;9.99957495085e-10
33440000000;1633;33440000000;odom;base_link;0.0611503827071;1.6334524911e-05;0.0;0.0;0.0;0.00013505827297;0.99999999088;1.65974534239;-1.20100161647e-06;0.0;0.0;0.0;-2.52454447332e-05;-1.20100161647e-06;1.66424519135;0.0;0.0;0.0;0.094588163751;0.0;0.0;4.9962207008e-07;-8.79017426914e-21;-6.03625956579e-15;0.0;0.0;0.0;-8.79017426914e-21;4.99245844078e-07;-1.40396450542e-25;0.0;0.0;0.0;-6.03625956579e-15;-1.40396449293e-25;4.99245844077e-07;0.0;-2.52454447332e-05;0.094588163751;0.0;0.0;0.0;1.99081755793;0.48466571605;0.0;0.0;0.0;0.0;4.36422641799e-05;0.000790086288744;0.0;0.0;0.0;0.0;0.0;0.0;0.000790086288744;0.0;0.0;0.0;0.0;0.0;0.0;4.99433745189e-07;-3.93850640241e-27;-1.45563819194e-23;0.0;0.0;0.0;-3.93850640241e-27;4.97757627729e-07;-2.45696512189e-31;0.0;0.0;0.0;-1.45563819194e-23;-2.45696933462e-31;4.97757627729e-07;0.0;0.0;0.0;0.0;0.0;0.0;9.99957495085e-10
33460000000;1634;33460000000;odom;base_link;0.0711628805136;1.90409119134e-05;0.0;0.0;0.0;0.00013543062568;0.999999990829;1.66074576531;-1.75200320193e-06;0.0;0.0;0.0;-3.05319921006e-05;-1.75200320193e-06;1.66729564331;0.0;0.0;0.0;0.11414374485;0.0;0.0;4.99622070081e-07;-2.95897722871e-21;-6.18819749727e-15;0.0;0.0;0.0;-2.95897722871e-21;4.99245844078e-07;-4.8450318467e-26;0.0;0.0;0.0;-6.18819749727e-15;-4.84503183521e-26;4.99245844077e-07;0.0;-3.05319921006e-05;0.11414374485;0.0;0.0;0.0;1.99201756987;0.49684803442;0.0;0.0;0.0;0.0;1.78827839323e-05;0.000790086286965;0.0;0.0;0.0;0.0;0.0;0.0;0.000790086286965;0.0;0.0;0.0;0.0;0.0;0.0;4.99433745189e-07;-4.04395930109e-27;-1.49227824267e-23;0.0;0.0;0.0;-4.04395930109e-27;4.97757627729e-07;-2.58625925278e-31;0.0;0.0;0.0;-1.49227824267e-23;-2.58625977025e-31;4.97757627729e-07;0.0;0.0;0.0;0.0;0.0;0.0;9.99957495085e-10
33480000000;1635;33480000000;odom;base_link;0.0811689767734;2.17520524945e-05;0.0;0.0;0.0;0.00013558477431;0.999999990808;1.66174618827;-2.420399649e-06;0.0;0.0;0.0;-3.59288703644e-05;-2.420399649e-06;1.67077751287;0.0;0.0;0.0;0.134062096726;0.0;0.0;4.99622070082e-07;-1.22725302645e-21;-6.26359048796e-15;0.0;0.0;0.0;-1.22725302645e-21;4.99245844078e-07;-2.03398791712e-26;0.0;0.0;0.0;-6.26359048796e-15;-2.03398791139e-26;4.99245844077e-07;0.0;-3.59288703644e-05;0.134062096726;0.0;0.0;0.0;1.99321758181;0.502883028527;0.0;0.0;0.0;0.0;7.96539173182e-06;0.00079008628523;0.0;0.0;0.0;0.0;0.0;0.0;0.00079008628523;0.0;0.0;0.0;0.0;0.0;0.0;4.99433745189e-07;-4.09666957585e-27;-1.51045937161e-23;0.0;0.0;0.0;-4.09666957585e-27;4.97757627729e-07;-2.65188155941e-31;0.0;0.0;0.0;-1.51045937161e-23;-2.65188080664e-31;4.97757627729e-07;0.0;0.0;0.0;0.0;0.0;0.0;9.99957495085e-10
33500000000;1636;33500000000;odom;base_link;0.0911718763164;2.44650048084e-05;0.0;0.0;0.0;0.000135653414439;0.999999990799;1.66274661125;-3.20437282017e-06;0.0;0.0;0.0;-4.13811983099e-05;-3.20437282017e-06;1.67468458451;0.0;0.0;0.0;0.15416588416;0.0;0.0;4.99622070082e-07;-5.49822731211e-22;-6.30071467139e-15;0.0;0.0;0.0;-5.49822731211e-22;4.99245844078e-07;-9.16649765261e-27;0.0;0.0;0.0;-6.30071467139e-15;-9.16649771e-27;4.99245844077e-07;0.0;-4.13811983099e-05;0.15416588416;0.0;0.0;0.0;1.99441759375;0.505844779242;0.0;0.0;0.0;0.0;3.54052412494e-06;0.000790086283538;0.0;0.0;0.0;0.0;0.0;0.0;0.000790086283538;0.0;0.0;0.0;0.0;0.0;0.0;4.99433745189e-07;-4.12261104994e-27;-1.51941192303e-23;0.0;0.0;0.0;-4.12261104994e-27;4.97757627729e-07;-2.68449620161e-31;0.0;0.0;0.0;-1.51941192303e-23;-2.68449536082e-31;4.97757627729e-07;0.0;0.0;0.0;0.0;0.0;0.0;9.99957495085e-10
33520000000;1637;33520000000;odom;base_link;0.101173181026;2.71786815982e-05;0.0;0.0;0.0;0.00013568456304;0.999999990795;1.66374703427;-4.10254543433e-06;0.0;0.0;0.0;-4.68620905886e-05;-4.10254543433e-06;1.67901204781;0.0;0.0;0.0;0.174366402247;0.0;0.0;4.99622070082e-07;-2.45076647653e-22;-6.31870983137e-15;0.0;0.0;0.0;-2.45076647653e-22;4.99245844078e-07;-4.09752191914e-27;0.0;0.0;0.0;-6.31870983137e-15;-4.09752194809e-27;4.99245844077e-07;0.0;-4.68620905886e-05;0.174366402247;0.0;0.0;0.0;1.99561760569;0.507270463337;0.0;0.0;0.0;0.0;1.83289413504e-06;0.000790086281889;0.0;0.0;0.0;0.0;0.0;0.0;0.000790086281889;0.0;0.0;0.0;0.0;0.0;0.0;4.99433745189e-07;-4.1351244313e-27;-1.52375148312e-23;0.0;0.0;0.0;-4.1351244313e-27;4.97757627729e-07;-2.7003370903e-31;0.0;0.0;0.0;-1.52375148312e-23;-2.70033591573e-31;4.97757627729e-07;0.0;0.0;0.0;0.0;0.0;0.0;9.99957495085e-10
33540000000;1638;33540000000;odom;base_link;0.111173691524;2.98926671217e-05;0.0;0.0;0.0;0.000135700994614;0.999999990793;1.66474745732;-5.11398698475e-06;0.0;0.0;0.0;-5.23582831288e-05;-5.11398698475e-06;1.68375661934;0.0;0.0;0.0;0.194619291902;0.0;0.0;4.99622070082e-07;-1.27018116454e-22;-6.32714667779e-15;0.0;0.0;0.0;-1.27018116454e-22;4.99245844078e-07;-2.12649574089e-27;0.0;0.0;0.0;-6.32714667779e-15;-2.12649575531e-27;4.99245844077e-07;0.0;-5.23582831288e-05;0.194619291902;0.0;0.0;0.0;1.99681761763;0.507928733345;0.0;0.0;0.0;0.0;1.07345906385e-06;0.000790086280281;0.0;0.0;0.0;0.0;0.0;0.0;0.000790086280281;0.0;0.0;0.0;0.0;0.0;0.0;4.99433745189e-07;-4.14107344399e-27;-1.52578604223e-23;0.0;0.0;0.0;-4.14107344399e-27;4.97757627729e-07;-2.70782548118e-31;0.0;0.0;0.0;-1.52578604223e-23;-2.70783050632e-31;4.97757627729e-07;0.0;0.0;0.0;0.0;0.0;0.0;9.99957495085e-10
33560000000;1639;33560000000;odom;base_link;0.121173807931;3.26068239036e-05;0.0;0.0;0.0;0.000135711756905;0.999999990791;1.66574788039;-6.23811580154e-06;0.0;0.0;0.0;-5.7863261876e-05;-6.23811580154e-06;1.68891621265;0.0;0.0;0.0;0.214902382164;0.0;0.0;4.99622070082e-07;-7.44195496199e-23;-6.33081094034e-15;0.0;0.0;0.0;-7.44195496199e-23;4.99245844078e-07;-1.24662932943e-27;0.0;0.0;0.0;-6.33081094034e-15;-1.24662933668e-27;4.99245844077e-07;0.0;-5.7863261876e-05;0.214902382164;0.0;0.0;0.0;1.99801762957;0.508203944109;0.0;0.0;0.0;0.0;1.09060543856e-06;0.000790086278713;0.0;0.0;0.0;0.0;0.0;0.0;0.000790086278713;0.0;0.0;0.0;0.0;0.0;0.0;4.99433745189e-07;-4.14374077338e-27;-1.5266696859e-23;0.0;0.0;0.0;-4.14374077338e-27;4.97757627729e-07;-2.71113820884e-31;0.0;0.0;0.0;-1.5266696859e-23;-2.71114420043e-31;4.97757627729e-07;0.0;0.0;0.0;0.0;0.0;0.0;9.99957495085e-10
33580000000;1640;33580000000;odom;base_link;0.131173730185;3.53211359107e-05;0.0;0.0;0.0;0.000135720633697;0.99999999079;1.6667483035;-7.47459122442e-06;0.0;0.0;0.0;-6.33738716707e-05;-7.47459122442e-06;1.69448956263;0.0;0.0;0.0;0.235204603622;0.0;0.0;4.99622070082e-07;-7.5580286965e-23;-6.33209563342e-15;0.0;0.0;0.0;-7.5580286965e-23;4.99245844078e-07;-1.26633018507e-27;0.0;0.0;0.0;-6.33209563342e-15;-1.26633017808e-27;4.99245844077e-07;0.0;-6.33738716707e-05;0.235204603622;0.0;0.0;0.0;1.99921764151;0.508288283549;0.0;0.0;0.0;0.0;2.74780440916e-07;0.000790086277184;0.0;0.0;0.0;0.0;0.0;0.0;0.000790086277184;0.0;0.0;0.0;0.0;0.0;0.0;4.99433745189e-07;-4.14491548603e-27;-1.52697949298e-23;0.0;0.0;0.0;-4.14491548603e-27;4.97757627729e-07;-2.712465533e-31;0.0;0.0;0.0;-1.52697949298e-23;-2.71246363852e-31;4.97757627729e-07;0.0;0.0;0.0;0.0;0.0;0.0;9.99957495085e-10
33600000000;1641;33600000000;odom;base_link;0.141173558166;3.8035554031e-05;0.0;0.0;0.0;0.000135724464068;0.999999990789;1.66774872664;-8.82320641048e-06;0.0;0.0;0.0;-6.88884561096e-05;-8.82320641048e-06;1.70047592854;0.0;0.0;0.0;0.255520441262;0.0;0.0;4.99622070082e-07;-1.9077783894e-23;-6.3321972985e-15;0.0;0.0;0.0;-1.9077783894e-23;4.99245844078e-07;-3.19648974072e-28;0.0;0.0;0.0;-6.3321972985e-15;-3.19648963237e-28;4.99245844077e-07;0.0;-6.88884561096e-05;0.255520441262;0.0;0.0;0.0;2.00041765345;0.508277846895;0.0;0.0;0.0;0.0;7.14711990456e-07;0.000790086275693;0.0;0.0;0.0;0.0;0.0;0.0;0.000790086275693;0.0;0.0;0.0;0.0;0.0;0.0;4.99433745189e-07;-4.14500338756e-27;-1.52700401115e-23;0.0;0.0;0.0;-4.14500338756e-27;4.97757627729e-07;-2.71256939689e-31;0.0;0.0;0.0;-1.52700401115e-23;-2.71256884664e-31;4.97757627729e-07;0.0;0.0;0.0;0.0;0.0;0.0;9.99957495085e-10
33620000000;1642;33620000000;odom;base_link;0.151173341741;4.07500550936e-05;0.0;0.0;0.0;0.000135731417602;0.999999990788;1.66874914981;-1.02838454853e-05;0.0;0.0;0.0;-7.44061937355e-05;-1.02838454853e-05;1.70687489001;0.0;0.0;0.0;0.275847158942;0.0;0.0;4.99622070082e-07;-4.95276538484e-23;-6.33171418211e-15;0.0;0.0;0.0;-4.95276538484e-23;4.99245844078e-07;-8.29774363324e-28;0.0;0.0;0.0;-6.33171418211e-15;-8.29774377751e-28;4.99245844077e-07;0.0;-7.44061937355e-05;0.275847158942;0.0;0.0;0.0;2.00161766539;0.508220678339;0.0;0.0;0.0;0.0;6.40675014465e-07;0.00079008627424;0.0;0.0;0.0;0.0;0.0;0.0;0.00079008627424;0.0;0.0;0.0;0.0;0.0;0.0;4.99433745189e-07;-4.14493874382e-27;-1.52688750841e-23;0.0;0.0;0.0;-4.14493874382e-27;4.97757627729e-07;-2.71231462901e-31;0.0;0.0;0.0;-1.52688750841e-23;-2.71231777189e-31;4.97757627729e-07;0.0;0.0;0.0;0.0;0.0;0.0;9.99957495085e-10
33649000000;1643;33649000000;odom;base_link;0.165600037759;4.46665227258e-05;0.0;0.0;0.0;0.000135741255696;0.999999990787;1.67019959064;-1.26028456484e-05;0.0;0.0;0.0;-8.24191547467e-05;-1.26028456484e-05;1.71689368565;0.0;0.0;0.0;0.305364184177;0.0;0.0;9.98153276816e-07;-1.00978297688e-22;-1.55663447159e-14;0.0;0.0;0.0;-1.00978297688e-22;9.96316749061e-07;-8.51182735595e-28;0.0;0.0;0.0;-1.55663447159e-14;-8.51182682043e-28;9.9631674906e-07;0.0;-8.24191547467e-05;0.305364184177;0.0;0.0;0.0;2.00335767733;0.505190731733;0.0;0.0;0.0;0.0;7.17078586162e-07;0.000506229498287;0.0;0.0;0.0;0.0;0.0;0.0;0.000506229498287;0.0;0.0;0.0;0.0;0.0;0.0;9.97233744246e-07;-2.55006738447e-27;-9.39311386504e-24;0.0;0.0;0.0;-2.55006738447e-27;9.89070770402e-07;-8.39219262509e-32;0.0;0.0;0.0;-9.39311386504e-24;-8.39219703687e-32;9.89070770402e-07;0.0;0.0;0.0;0.0;0.0;0.0;0.000178927429417
33669000000;1644;33669000000;odom;base_link;0.175600644629;4.73815699374e-05;0.0;0.0;0.0;0.000135745589488;0.999999990787;1.67120001388;-1.43379133763e-05;0.0;0.0;0.0;-8.79435342389e-05;-1.43379133763e-05;1.72430318725;0.0;0.0;0.0;0.325712917943;0.0;0.0;9.98153276816e-07;-4.34028559431e-23;-1.55631216444e-14;0.0;0.0;0.0;-4.34028559431e-23;9.96316749061e-07;-3.65789669477e-28;0.0;0.0;0.0;-1.55631216444e-14;-3.65789701432e-28;9.9631674906e-07;0.0;-8.79435342389e-05;0.325712917943;0.0;0.0;0.0;2.00455768927;0.505131319303;0.0;0.0;0.0;0.0;3.08623115134e-07;0.000506229497726;0.0;0.0;0.0;0.0;0.0;0.0;0.000506229497726;0.0;0.0;0.0;0.0;0.0;0.0;9.97233744246e-07;-2.54962035496e-27;-9.39116902926e-24;0.0;0.0;0.0;-2.54962035496e-27;9.89070770402e-07;-8.38892306378e-32;0.0;0.0;0.0;-9.39116902926e-24;-8.38900369523e-32;9.89070770402e-07;0.0;0.0;0.0;0.0;0.0;0.0;0.000178927429417
33689000000;1645;33689000000;odom;base_link;0.185601274903;5.0096705331e-05;0.0;0.0;0.0;0.000135750975958;0.999999990786;1.67220043716;-1.61849077775e-05;0.0;0.0;0.0;-9.34703888139e-05;-1.61849077775e-05;1.73212485385;0.0;0.0;0.0;0.34607014754;0.0;0.0;9.98153276816e-07;-8.9455020194e-23;-1.55597594821e-14;0.0;0.0;0.0;-8.9455020194e-23;9.96316749061e-07;-7.53725799264e-28;0.0;0.0;0.0;-1.55597594821e-14;-7.53725788625e-28;9.9631674906e-07;0.0;-9.34703888139e-05;0.34607014754;0.0;0.0;0.0;2.00575770121;0.50506974362;0.0;0.0;0.0;0.0;6.35586630829e-07;0.000506229497179;0.0;0.0;0.0;0.0;0.0;0.0;0.000506229497179;0.0;0.0;0.0;0.0;0.0;0.0;9.97233744246e-07;-2.54917088434e-27;-9.38914026208e-24;0.0;0.0;0.0;-2.54917088434e-27;9.89070770402e-07;-8.38573488479e-32;0.0;0.0;0.0;-9.38914026208e-24;-8.38567582166e-32;9.89070770402e-07;0.0;0.0;0.0;0.0;0.0;0.0;0.000178927429417
33700000000;1646;33700000000;odom;base_link;0.191172376322;5.16092702823e-05;0.0;0.0;0.0;0.000135754078652;0.999999990785;1.67275084279;-1.72459961927e-05;0.0;0.0;0.0;-9.65042276135e-05;-1.72459961927e-05;1.73659349601;0.0;0.0;0.0;0.357244427115;0.0;0.0;4.99622070082e-07;-4.42425920331e-23;-6.32808262073e-15;0.0;0.0;0.0;-4.42425920331e-23;4.99245844078e-07;-7.40804578377e-28;0.0;0.0;0.0;-6.32808262073e-15;-7.40804576671e-28;4.99245844077e-07;0.0;-9.65042276135e-05;0.357244427115;0.0;0.0;0.0;2.00641771315;0.507857824359;0.0;0.0;0.0;0.0;4.7626285729e-07;0.00079008626878;0.0;0.0;0.0;0.0;0.0;0.0;0.00079008626878;0.0;0.0;0.0;0.0;0.0;0.0;4.99433745189e-07;-4.14325958867e-27;-1.52601175789e-23;0.0;0.0;0.0;-4.14325958867e-27;4.97757627729e-07;-2.70965738863e-31;0.0;0.0;0.0;-1.52601175789e-23;-2.70966275836e-31;4.97757627729e-07;0.0;0.0;0.0;0.0;0.0;0.0;9.99957495085e-10
33720000000;1647;33720000000;odom;base_link;0.201172137577;5.43243407464e-05;0.0;0.0;0.0;0.000135759325081;0.999999990785;1.67375126611;-1.92663944631e-05;0.0;0.0;0.0;-0.000102035052728;-1.92663944631e-05;1.74505361689;0.0;0.0;0.0;0.377615001239;0.0;0.0;4.99622070082e-07;-3.29916634337e-23;-6.32708583319e-15;0.0;0.0;0.0;-3.29916634337e-23;4.99245844078e-07;-5.52330359441e-28;0.0;0.0;0.0;-6.32708583319e-15;-5.52330337762e-28;4.99245844077e-07;0.0;-0.000102035052728;0.377615001239;0.0;0.0;0.0;2.00761772509;0.507760527064;0.0;0.0;0.0;0.0;6.75125259152e-07;0.000790086267499;0.0;0.0;0.0;0.0;0.0;0.0;0.000790086267499;0.0;0.0;0.0;0.0;0.0;0.0;4.99433745189e-07;-4.14273964018e-27;-1.52577138253e-23;0.0;0.0;0.0;-4.14273964018e-27;4.97757627729e-07;-2.70889735785e-31;0.0;0.0;0.0;-1.52577138253e-23;-2.70889464787e-31;4.97757627729e-07;0.0;0.0;0.0;0.0;0.0;0.0;9.99957495085e-10
33740000000;1648;33740000000;odom;base_link;0.211171902938;5.70395266669e-05;0.0;0.0;0.0;0.000135765414444;0.999999990784;1.67475168946;-2.13987565703e-05;0.0;0.0;0.0;-0.000107568394639;-2.13987565703e-05;1.7539259375;0.0;0.0;0.0;0.397993983669;0.0;0.0;4.99622070082e-07;-4.67424425246e-23;-6.32609244998e-15;0.0;0.0;0.0;-4.67424425246e-23;4.99245844078e-07;-7.82416295987e-28;0.0;0.0;0.0;-6.32609244998e-15;-7.82416310371e-28;4.99245844077e-07;0.0;-0.000107568394639;0.397993983669;0.0;0.0;0.0;2.00881773703;0.507663719942;0.0;0.0;0.0;0.0;4.11013764745e-07;0.000790086266251;0.0;0.0;0.0;0.0;0.0;0.0;0.000790086266251;0.0;0.0;0.0;0.0;0.0;0.0;4.99433745189e-07;-4.14231008935e-27;-1.52553182811e-23;0.0;0.0;0.0;-4.14231008935e-27;4.97757627729e-07;-2.70818987511e-31;0.0;0.0;0.0;-1.52553182811e-23;-2.70819155768e-31;4.97757627729e-07;0.0;0.0;0.0;0.0;0.0;0.0;9.99957495085e-10
33769000000;1649;33769000000;odom;base_link;0.225603823878;6.09583590921e-05;0.0;0.0;0.0;0.000135773529228;0.999999990783;1.67620213058;-2.46924184948e-05;0.0;0.0;0.0;-0.000115602921849;-2.46924184948e-05;1.76753332351;0.0;0.0;0.0;0.427583242512;0.0;0.0;9.98153276816e-07;-1.0089981366e-22;-1.5546186709e-14;0.0;0.0;0.0;-1.0089981366e-22;9.96316749061e-07;-8.49416142945e-28;0.0;0.0;0.0;-1.5546186709e-14;-8.49416153293e-28;9.9631674906e-07;0.0;-0.000115602921849;0.427583242512;0.0;0.0;0.0;2.01055774897;0.504822310257;0.0;0.0;0.0;0.0;7.17462117569e-07;0.000506229495125;0.0;0.0;0.0;0.0;0.0;0.0;0.000506229495125;0.0;0.0;0.0;0.0;0.0;0.0;9.97233744246e-07;-2.54737057997e-27;-9.38095028848e-24;0.0;0.0;0.0;-2.54737057997e-27;9.89070770402e-07;-8.3724595964e-32;0.0;0.0;0.0;-9.38095028848e-24;-8.37245344358e-32;9.89070770402e-07;0.0;0.0;0.0;0.0;0.0;0.0;0.000178927429417
33789000000;1650;33789000000;odom;base_link;0.235604451506;6.36740601719e-05;0.0;0.0;0.0;0.00013577972458;0.999999990782;1.67720255401;-2.70992569627e-05;0.0;0.0;0.0;-0.00012114238522;-2.70992569627e-05;1.77741602761;0.0;0.0;0.0;0.447982642099;0.0;0.0;9.98153276816e-07;-8.07006649945e-23;-1.55428633786e-14;0.0;0.0;0.0;-8.07006649945e-23;9.96316749061e-07;-6.79232343143e-28;0.0;0.0;0.0;-1.55428633786e-14;-6.79232353865e-28;9.9631674906e-07;0.0;-0.00012114238522;0.447982642099;0.0;0.0;0.0;2.01175776091;0.504761798478;0.0;0.0;0.0;0.0;5.74079992092e-07;0.000506229494643;0.0;0.0;0.0;0.0;0.0;0.0;0.000506229494643;0.0;0.0;0.0;0.0;0.0;0.0;9.97233744246e-07;-2.54694223866e-27;-9.37894495069e-24;0.0;0.0;0.0;-2.54694223866e-27;9.89070770402e-07;-8.3693305868e-32;0.0;0.0;0.0;-9.37894495069e-24;-8.36938822339e-32;9.89070770402e-07;0.0;0.0;0.0;0.0;0.0;0.0;0.000178927429417
33809000000;1651;33809000000;odom;base_link;0.245605073411;6.63898844855e-05;0.0;0.0;0.0;0.000135787101491;0.999999990781;1.67820297747;-2.96181190569e-05;0.0;0.0;0.0;-0.000126684417481;-2.96181190569e-05;1.78771104297;0.0;0.0;0.0;0.468390561254;0.0;0.0;9.98153276816e-07;-1.13132901834e-22;-1.55395790126e-14;0.0;0.0;0.0;-1.13132901834e-22;9.96316749061e-07;-9.51996331236e-28;0.0;0.0;0.0;-1.55395790126e-14;-9.5199633128e-28;9.9631674906e-07;0.0;-0.000126684417481;0.468390561254;0.0;0.0;0.0;2.01295777285;0.504702001732;0.0;0.0;0.0;0.0;8.04716882662e-07;0.000506229494174;0.0;0.0;0.0;0.0;0.0;0.0;0.000506229494174;0.0;0.0;0.0;0.0;0.0;0.0;9.97233744246e-07;-2.54654259761e-27;-9.37696312453e-24;0.0;0.0;0.0;-2.54654259761e-27;9.89070770402e-07;-8.36615747e-32;0.0;0.0;0.0;-9.37696312453e-24;-8.36613540055e-32;9.89070770402e-07;0.0;0.0;0.0;0.0;0.0;0.0;0.000178927429417
