%time,field.x,field.y,field.z
1521803950170604944,5.99998305655,5.5997580439,0.132273078999
1521803950171529054,5.99998305657,5.59975797767,0.132273079018
1521803950176588058,5.99998305658,5.59975791144,0.132273079037
1521803950177076101,5.99998305659,5.59975784521,0.132273079056
1521803950177191019,5.9999830566,5.59975777899,0.132273079075
1521803950177253961,5.99998305661,5.59975771276,0.132273079093
1521803950177311897,5.99998305663,5.59975764654,0.132273079112
1521803950185724973,5.99998305664,5.59975758031,0.132273079131
1521803950186075925,5.99998305665,5.59975751408,0.13227307915
1521803950186208963,5.99998305666,5.59975744786,0.132273079169
1521803950186336040,5.99998305668,5.59975738163,0.132273079188
1521803950186464071,5.99998305669,5.59975731541,0.132273079206
1521803950186588048,5.9999830567,5.59975724919,0.132273079225
1521803950186707019,5.99998305671,5.59975718296,0.132273079244
1521803950186851978,5.99998305672,5.59975711674,0.132273079262
1521803950186964035,5.99998305674,5.59975705051,0.132273079281
1521803950187053918,5.99998305675,5.59975698429,0.1322730793
1521803950192267894,5.99998305676,5.59975691807,0.132273079318
1521803950196620941,5.99998305677,5.59975685185,0.132273079337
1521803950196746110,5.99998305678,5.59975678562,0.132273079356
1521803950196816921,5.9999830568,5.5997567194,0.132273079374
1521803950196878910,5.99998305681,5.59975665318,0.132273079393
1521803950271965980,5.99998305682,5.59975658696,0.132273079411
1521803950321291923,5.99998305683,5.59975652074,0.13227307943
1521803950411164045,5.99998305684,5.59975645452,0.132273079448
1521803950446351051,5.99998305686,5.5997563883,0.132273079467
1521803950477046966,5.99998297369,5.59965184954,0.1322729859
1521803950477246999,5.99998284105,5.59808308756,0.132273020898
1521803950523076057,5.99998249053,5.59463914312,0.132273022778
1521803950526493072,5.99998194015,5.58932018633,0.132273023419
1521803950537120103,5.99998119261,5.58212622426,0.132273023669
1521803950537523984,5.99998024911,5.57305725949,0.132273023813
1521803950542057991,5.99997911027,5.56211329287,0.132273023956
1521803950574395895,5.99997777644,5.54929432467,0.132273024145
1521803950574613094,5.99997624792,5.53460035494,0.132273024412
1521803950574676990,5.99997452502,5.51803138366,0.13227302478
1521803950598495960,5.99997260808,5.49958741082,0.132273025274
1521803950599360942,5.9999704975,5.47926843644,0.132273025915
1521803950637980937,5.9999681937,5.45707446059,0.132273026721
1521803950638062000,5.99996569712,5.43300548341,0.132273027703
1521803950638101100,5.99996317882,5.40800373574,0.132273083211
1521803950678194999,5.99996066204,5.38300363686,0.132273080502
1521803950700824975,5.99995817135,5.35800355791,0.132273079523
1521803950738059043,5.99995569115,5.33300348701,0.132273079134
1521803950777959108,5.99995321531,5.30800342054,0.132273078938
1521803950778098106,5.99995074139,5.28300335715,0.13227307881
1521803950819027900,5.99994826828,5.2580032963,0.132273078708
1521803950819452047,5.99994579531,5.23300323771,0.13227307862
1521803950878097057,5.99994332194,5.20800318115,0.132273078545
1521803950878321886,5.99994084771,5.18300312637,0.132273078483
1521803950878376007,5.99993837218,5.1580030731,0.132273078435
1521803950918637037,5.99993589498,5.13300302103,0.132273078402
1521803950931446075,5.99993341575,5.10800296983,0.132273078386
1521803950970824956,5.99993093418,5.08300291915,0.132273078387
1521803951009984016,5.99992845003,5.05800286864,0.132273078405
1521803951010118007,5.99992596312,5.03300281791,0.132273078441
1521803951068627119,5.99992347332,5.00800276662,0.132273078494
1521803951069376945,5.99992098058,4.98300271441,0.132273078563
1521803951117414951,5.99991848491,4.95800266096,0.132273078647
1521803951155627965,5.9999159864,4.93300260597,0.132273078744
1521803951155941009,5.99991348519,4.90800254917,0.132273078852
1521803951194274902,5.9999109815,4.88300249034,0.13227307897
1521803951194331884,5.9999084756,4.85800242932,0.132273079095
1521803951234582901,5.99990596781,4.83300236596,0.132273079224
1521803951261894941,5.99990345849,4.80800230021,0.132273079354
1521803951297883033,5.99990094806,4.78300223204,0.132273079484
1521803951298033952,5.99989843693,4.7580021615,0.13227307961
1521803951337867021,5.99989592557,4.73300208867,0.132273079731
1521803951337963104,5.99989341441,4.70800201371,0.132273079842
1521803951377922058,5.99989090392,4.6830019368,0.132273079944
1521803951384583950,5.99988839452,4.65800185818,0.132273080032
1521803951422669887,5.99988588663,4.63300177814,0.132273080107
1521803951498467922,5.99988338064,4.60800169699,0.132273080166
1521803951537976026,5.99988087687,4.58300161505,0.132273080208
1521803951538101911,5.99987837562,4.55800153268,0.132273080234
1521803951538172006,5.99987587712,4.53300145026,0.132273080242
1521803951578017950,5.99987338154,4.50800136814,0.132273080233
1521803951578098058,5.99987088898,4.48300128667,0.132273080207
1521803951583017110,5.99986839948,4.45800120622,0.132273080165
1521803951631632089,5.999865913,4.43300112708,0.132273080109
1521803951670845031,5.99986342946,4.40800104957,0.13227308004
1521803951671113967,5.99986094867,4.38300097392,0.13227307996
1521803951710140943,5.99985847042,4.35800090035,0.132273079872
1521803951710253000,5.99985599442,4.33300082903,0.132273079777
1521803951750722885,5.99985352033,4.30800076005,0.132273079677
1521803951757792949,5.99985104779,4.28300069349,0.132273079577
1521803951793934106,5.99984857637,4.25800062935,0.132273079478
1521803951835252046,5.99984610564,4.23300056757,0.132273079382
1521803951835730075,5.99984363516,4.20800050804,0.132273079294
1521803951889352083,5.99984116446,4.18300045061,0.132273079214
1521803951911153078,5.99983869311,4.15800039507,0.132273079145
1521803951950993061,5.99983622066,4.13300034118,0.132273079089
1521803951989934921,5.99983374672,4.10800028864,0.132273079047
1521803951990031003,5.99983127091,4.08300023714,0.132273079022
1521803951990067005,5.99982879291,4.05800018633,0.132273079013
1521803952031172990,5.99982631244,4.03300013587,0.132273079022
1521803952033407926,5.99982382928,4.00800008538,0.132273079049
1521803952070642948,5.99982134329,3.98300003449,0.132273079092
1521803952109754085,5.99981885438,3.95799998286,0.132273079153
1521803952109819889,5.99981636252,3.93299993015,0.132273079229
1521803952150002002,5.99981386777,3.90799987603,0.132273079319
1521803952174860000,5.99981137023,3.88299982024,0.132273079421
1521803952214378118,5.9998088701,3.85799976253,0.132273079533
1521803952271977901,5.99980636762,3.83299970269,0.132273079654
1521803952310040950,5.99980386308,3.80799964058,0.13227307978
1521803952310159921,5.99980135683,3.7829995761,0.13227307991
1521803952310209035,5.99979884925,3.75799950921,0.132273080039
1521803952310255050,5.99979634077,3.73299943991,0.132273080167
1521803952349988937,5.99979383182,3.70799936828,0.13227308029
1521803952383533000,5.99979132285,3.68299929443,0.132273080405
1521803952422987937,5.99978881432,3.65799921854,0.132273080511
1521803952423099040,5.99978630668,3.63299914082,0.132273080605
1521803952466576099,5.99978380034,3.60799906153,0.132273080686
1521803952466811895,5.99978129572,3.58299898096,0.132273080752
1521803952506230115,5.99977879315,3.55799889945,0.132273080802
1521803952521585941,5.99977629297,3.53299881733,0.132273080835
1521803952562063932,5.99977379543,3.50799873497,0.132273080851
1521803952562180042,5.99977130072,3.48299865273,0.132273080849
1521803952624351978,5.99976880899,3.45799857098,0.13227308083
1521803952624588012,5.99976632032,3.43299849006,0.132273080796
1521803952662375926,5.99976383469,3.40799841032,0.132273080746
1521803952662604093,5.99976135204,3.38299833205,0.132273080682
1521803952703001022,5.99975887225,3.35799825553,0.132273080607
1521803952744563102,5.9997563951,3.33299818099,0.132273080521
1521803952781999111,5.99975392036,3.30799810862,0.132273080428
1521803952782090902,5.9997514477,3.28299803855,0.13227308033
1521803952782155036,5.99974897676,3.25799797088,0.132273080229
1521803952839627027,5.99974650716,3.23299790562,0.132273080128
1521803952839812994,5.99974403847,3.20799784276,0.13227308003
1521803952883871078,5.99974157024,3.18299778221,0.132273079936
1521803952923192024,5.99973910202,3.15799772385,0.132273079851
1521803952923357009,5.99973663336,3.13299766749,0.132273079775
1521803952961994886,5.99973416382,3.10799761289,0.132273079712
1521803952962110042,5.99973169298,3.0829975598,0.132273079662
1521803953002182960,5.99972922045,3.05799750791,0.132273079628
1521803953021548032,5.99972674587,3.03299745688,0.13227307961
1521803953058079957,5.99972426896,3.00799740637,0.13227307961
1521803953098189115,5.99972178946,2.98299735601,0.132273079627
1521803953098258972,5.9997193072,2.95799730545,0.132273079661
1521803953139126062,5.99971682203,2.93299725431,0.132273079713
1521803953164124965,5.99971433393,2.90799720225,0.13227307978
1521803953203766107,5.99971184289,2.88299714894,0.132273079862
1521803953204308032,5.99970934901,2.85799709409,0.132273079958
1521803953243223905,5.99970685244,2.83299703743,0.132273080065
1521803953243594884,5.99970435338,2.80799697874,0.132273080181
1521803953282028913,5.9997018521,2.78299691784,0.132273080304
1521803953318974018,5.99969934894,2.75799685462,0.132273080431
1521803953357875108,5.99969684426,2.732996789,0.13227308056
1521803953357988119,5.99969433846,2.70799672096,0.132273080689
1521803953397910118,5.99969183197,2.68299665055,0.132273080813
1521803953397995948,5.99968932524,2.65799657786,0.132273080932
1521803953438715934,5.99968681872,2.63299650303,0.132273081042
1521803953455861091,5.99968431287,2.60799642625,0.132273081141
1521803953494565010,5.99968180812,2.58299634778,0.132273081228
1521803953494669914,5.99967930487,2.55799626788,0.132273081301
1521803953533957958,5.99967680353,2.53299618687,0.132273081358
1521803953535155057,5.9996743044,2.50799610508,0.132273081399
1521803953577927112,5.9996718078,2.48299602287,0.132273081422
1521803953620989084,5.99966931394,2.4579959406,0.132273081428
1521803953621119022,5.999666823,2.43299585864,0.132273081417
1521803953659497976,5.99966433508,2.40799577734,0.13227308139
1521803953667392969,5.99966185022,2.38299569706,0.132273081346
1521803953705944061,5.99965936838,2.3579956181,0.132273081288
1521803953746109962,5.99965688946,2.33299554075,0.132273081218
1521803953746236085,5.9996544133,2.30799546528,0.132273081136
1521803953787167072,5.99965193966,2.2829953919,0.132273081046
1521803953787669897,5.99964946827,2.25799532075,0.132273080949
1521803953825937986,5.99964699879,2.23299525196,0.132273080848
1521803953831348896,5.99964453084,2.20799518558,0.132273080746
1521803953870655059,5.999642064,2.18299512162,0.132273080645
1521803953909823894,5.99963959785,2.15799506001,0.132273080548
1521803953909902095,5.99963713194,2.13299500067,0.132273080458
1521803953950190067,5.99963466581,2.10799494341,0.132273080377
1521803953959204912,5.999632199,2.08299488805,0.132273080306
1521803953998300075,5.9996297311,2.05799483432,0.132273080249
1521803954038111925,5.99962726169,2.03299478195,0.132273080206
1521803954080658912,5.99962479041,2.00799473061,0.132273080179
1521803954080828905,5.99962231693,1.98299467996,0.132273080169
1521803954119105100,5.99961984098,1.95799462965,0.132273080177
1521803954119604110,5.99961736234,1.93299457931,0.132273080202
1521803954157917022,5.99961488086,1.90799452857,0.132273080244
1521803954162374973,5.99961239645,1.88299447708,0.132273080303
1521803954202873945,5.99960990909,1.8579944245,0.132273080378
1521803954242949008,5.99960741883,1.83299437051,0.132273080466
1521803954243037939,5.9996049258,1.80799431485,0.132273080567
1521803954283097028,5.99960243016,1.78299425726,0.132273080678
1521803954283519029,5.99959993217,1.75799419755,0.132273080797
1521803954322451114,5.99959743213,1.73299413556,0.132273080922
1521803954334533929,5.99959493038,1.7079940712,0.13227308105
1521803954370198011,5.9995924273,1.68299400443,0.132273081178
1521803954409970998,5.99958992332,1.65799393525,0.132273081304
1521803954410151004,5.99958741887,1.63299386374,0.132273081425
1521803954454432964,5.99958491441,1.60799379001,0.132273081539
1521803954458211898,5.99958241039,1.58299371424,0.132273081643
1521803954498931884,5.99957990726,1.55799363665,0.132273081735
1521803954538026094,5.99957740543,1.53299355749,0.132273081815
1521803954538212060,5.99957490532,1.50799347706,0.132273081879
1521803954578350067,5.99957240727,1.48299339568,0.132273081927
1521803954582623958,5.9995699116,1.4579933137,0.132273081958
1521803954618048906,5.99956741857,1.43299323149,0.132273081972
1521803954693005084,5.99956492838,1.4079931494,0.132273081969
1521803954730012893,5.99956244116,1.3829930678,0.132273081949
1521803954730134963,5.99955995699,1.35799298704,0.132273081912
1521803954730185985,5.99955747586,1.33299290746,0.132273081861
1521803954771150112,5.99955499772,1.30799282935,0.132273081795
1521803954771233081,5.99955252242,1.282992753,0.132273081718
1521803954808569908,5.99955004977,1.25799267863,0.132273081631
1521803954834639072,5.9995475795,1.23299260642,0.132273081536
1521803954874247074,5.99954511132,1.20799253653,0.132273081437
1521803954874345064,5.99954264485,1.18299246902,0.132273081334
1521803954914154052,5.99954017971,1.15799240394,0.132273081232
1521803954941131114,5.99953771547,1.13299234125,0.132273081132
1521803954978600025,5.99953525169,1.10799228087,0.132273081037
1521803955019025087,5.99953278791,1.08299222267,0.13227308095
1521803955019148111,5.99953032368,1.05799216647,0.132273080873
1521803955019215106,5.99952785856,1.03299211204,0.132273080809
1521803955057950973,5.99952539212,1.0079920591,0.132273080758
1521803955089565992,5.999522924,0.982992007364,0.132273080722
1521803955127794027,5.99952045382,0.957991956486,0.132273080703
1521803955128319025,5.9995179813,0.93299190612,0.132273080701
1521803955165817022,5.99951550619,0.907991855904,0.132273080717
1521803955165885925,5.9995130283,0.882991805473,0.13227308075
1521803955205998897,5.99951054752,0.857991754464,0.1322730808
1521803955240225076,5.99950806379,0.832991702531,0.132273080866
1521803955278285980,5.99950557712,0.807991649346,0.132273080947
1521803955278429031,5.99950308761,0.782991594613,0.132273081042
1521803955320847988,5.99950059541,0.757991538069,0.132273081147
1521803955321732044,5.99949810072,0.732991479493,0.132273081262
1521803955358000040,5.99949560381,0.707991418712,0.132273081384
1521803955358969926,5.99949310502,0.6829913556,0.13227308151
1521803955398904085,5.99949060471,0.657991290089,0.132273081637
1521803955438014984,5.99948810328,0.632991222162,0.132273081764
1521803955478946924,5.99948560117,0.60799115186,0.132273081887
1521803955479363918,5.99948309882,0.582991079277,0.132273082004
1521803955518969058,5.99948059668,0.557991004559,0.132273082112
1521803955519295930,5.99947809521,0.532990927902,0.13227308221
1521803955558073043,5.99947559484,0.507990849546,0.132273082295
1521803955593710899,5.99947309599,0.482990769769,0.132273082366
1521803955630171060,5.99947059903,0.457990688882,0.132273082422
1521803955630312919,5.9994681043,0.432990607223,0.132273082461
1521803955630403995,5.99946561208,0.407990525146,0.132273082483
1521803955675493955,5.99946312261,0.382990443014,0.132273082487
1521803955682152032,5.99946063606,0.357990361193,0.132273082475
1521803955717953920,5.99945815253,0.332990280041,0.132273082445
1521803955757893085,5.99945567204,0.307990199901,0.1322730824
1521803955804414987,5.99945319458,0.282990121093,0.132273082341
1521803955842540025,5.99945072004,0.257990043906,0.132273082269
1521803955842628002,5.99944824824,0.232989968594,0.132273082186
1521803955842689990,5.99944577897,0.207989895364,0.132273082094
1521803955882637023,5.99944331194,0.182989824379,0.132273081995
1521803955900832891,5.9994408468,0.15798975575,0.132273081893
1521803955938007116,5.99943838319,0.132989689533,0.13227308179
1521803955938133955,5.99943592069,0.10798962573,0.132273081688
1521803955978096961,5.99943345887,0.0829895642867,0.132273081589
1521803956005485057,5.99943099728,0.057989505096,0.132273081498
1521803956041954040,5.99942853545,0.0329894479984,0.132273081415
1521803956081901073,5.99942607295,0.00798939278678,0.132273081343
1521803956081981897,5.99942360934,-0.0170106607891,0.132273081285
1521803956082022905,5.99942114422,-0.0420107130169,0.132273081241
1521803956122431039,5.99941867722,-0.0670107642152,0.132273081213
1521803956131030082,5.99941620801,-0.092010814726,0.132273081201
1521803956170703887,5.99941373633,-0.117010864907,0.132273081208
1521803956210163116,5.99941126195,-0.142010915123,0.132273081232
1521803956210313081,5.99940878472,-0.16701096574,0.132273081273
1521803956250546932,5.99940630457,-0.192011017111,0.132273081331
1521803956257642984,5.99940382146,-0.217011069576,0.132273081404
1521803956293979883,5.99940133546,-0.242011123446,0.132273081491
1521803956337363004,5.99939884667,-0.267011179002,0.132273081591
1521803956373959064,5.99939635528,-0.292011236487,0.132273081701
1521803956374118089,5.99939386155,-0.317011296098,0.132273081818
1521803956416621923,5.99939136575,-0.342011357984,0.132273081942
1521803956417638063,5.99938886825,-0.367011422242,0.132273082068
1521803956453911066,5.99938636942,-0.392011488915,0.132273082195
1521803956494082927,5.9993838697,-0.417011557989,0.132273082319
1521803956494177103,5.99938136951,-0.442011629399,0.132273082439
1521803956534421920,5.99937886931,-0.467011703022,0.132273082551
1521803956561422109,5.99937636955,-0.492011778686,0.132273082654
1521803956598335981,5.99937387068,-0.517011856174,0.132273082745
1521803956598427057,5.99937137313,-0.542011935225,0.132273082823
1521803956638036012,5.99936887728,-0.567012015543,0.132273082885
1521803956638147115,5.9993663835,-0.592012096802,0.132273082932
1521803956677875041,5.9993638921,-0.617012178657,0.132273082962
1521803956719222068,5.99936140334,-0.642012260747,0.132273082974
1521803956759119033,5.99935891742,-0.667012342707,0.132273082969
1521803956759469985,5.99935643447,-0.692012424173,0.132273082948
1521803956801950931,5.99935395457,-0.717012504794,0.13227308291
1521803956802062988,5.99935147771,-0.742012584238,0.132273082856
1521803956843209981,5.99934900382,-0.767012662199,0.13227308279
1521803956843466997,5.99934653277,-0.792012738407,0.132273082711
1521803956881899118,5.99934406437,-0.81701281263,0.132273082623
1521803956881954908,5.99934159835,-0.842012884681,0.132273082526
1521803956934401035,5.9993391344,-0.867012954425,0.132273082425
1521803956937830924,5.99933667216,-0.892013021778,0.132273082321
1521803956977871894,5.99933421124,-0.917013086711,0.132273082218
1521803957018378973,5.99933175122,-0.94201314925,0.132273082116
1521803957018605947,5.99932929164,-0.967013209478,0.132273082021
1521803957057895898,5.99932683206,-0.992013267528,0.132273081932
1521803957058415889,5.99932437201,-1.01701332358,0.132273081854
1521803957097944974,5.99932191107,-1.04201337787,0.132273081788
1521803957138891935,5.99931944882,-1.06701343067,0.132273081736
1521803957177954912,5.99931698486,-1.09201348228,0.1322730817
1521803957178049087,5.99931451884,-1.11701353303,0.132273081679
1521803957218864917,5.99931205048,-1.14201358327,0.132273081676
1521803957229715108,5.99930957951,-1.16701363336,0.132273081691
1521803957266112089,5.99930710577,-1.19201368368,0.132273081723
1521803957306389093,5.99930462913,-1.21701373457,0.132273081772
1521803957306582927,5.99930214954,-1.2420137864,0.132273081837
1521803957345952033,5.99929966701,-1.26701383948,0.132273081917
1521803957356312990,5.99929718163,-1.29201389411,0.13227308201
1521803957394210100,5.99929469356,-1.31701395056,0.132273082115
1521803957394309997,5.99929220301,-1.34201400904,0.132273082228
1521803957433919906,5.99928971024,-1.36701406972,0.132273082349
1521803957434010982,5.99928721558,-1.39201413274,0.132273082473
1521803957473844051,5.99928471941,-1.41701419816,0.1322730826
1521803957514607906,5.99928222213,-1.442014266,0.132273082725
1521803957555730104,5.99927972416,-1.46701433621,0.132273082846
1521803957594672918,5.99927722595,-1.4920144087,0.132273082962
1521803957594734907,5.99927472796,-1.51701448332,0.132273083069
1521803957594773054,5.99927223064,-1.54201455988,0.132273083166
1521803957634901046,5.99926973443,-1.56701463814,0.132273083249
1521803957635052919,5.99926723973,-1.59201471781,0.132273083319
1521803957678242921,5.99926474693,-1.61701479859,0.132273083373
1521803957678961992,5.99926225635,-1.64201488014,0.132273083411
1521803957726835966,5.9992597683,-1.6670149621,0.132273083431
1521803957766829013,5.99925728299,-1.69201504412,0.132273083434
1521803957805859088,5.99925480059,-1.71701512582,0.13227308342
1521803957805951118,5.99925232121,-1.74201520684,0.132273083389
1521803957806005954,5.99924984488,-1.76701528685,0.132273083343
1521803957846700906,5.99924737157,-1.79201536552,0.132273083282
1521803957855920076,5.99924490117,-1.81701544257,0.132273083208
1521803957893903017,5.99924243351,-1.84201551775,0.132273083124
1521803957934357881,5.99923996838,-1.86701559084,0.132273083031
1521803957973896026,5.99923750547,-1.89201566168,0.132273082931
1521803957974024057,5.99923504446,-1.91701573017,0.132273082828
1521803958013948917,5.99923258496,-1.94201579624,0.132273082723
1521803958039175033,5.99923012657,-1.9670158599,0.132273082619
1521803958078013896,5.99922766884,-1.9920159212,0.13227308252
1521803958078140020,5.99922521134,-2.01701598025,0.132273082427
1521803958118149995,5.9992227536,-2.04201603721,0.132273082343
1521803958118253946,5.99922029517,-2.06701609229,0.132273082271
1521803958158027887,5.99921783563,-2.09201614573,0.132273082211
1521803958162797927,5.99921537457,-2.11701619783,0.132273082166
1521803958198937892,5.99921291162,-2.14201624891,0.132273082137
1521803958238184928,5.99921044647,-2.1670162993,0.132273082125
1521803958238387107,5.99920797882,-2.19201634937,0.13227308213
1521803958277724027,5.99920550848,-2.21701639947,0.132273082153
1521803958311810016,5.99920303529,-2.24201644998,0.132273082193
1521803958353049993,5.99920055917,-2.26701650125,0.132273082249
1521803958390993118,5.99919808009,-2.29201655362,0.132273082322
1521803958391057014,5.99919559811,-2.31701660739,0.132273082408
1521803958391103029,5.99919311335,-2.34201666286,0.132273082506
1521803958431067943,5.99919062599,-2.36701672026,0.132273082615
1521803958447283029,5.99918813628,-2.39201677978,0.132273082732
1521803958486747026,5.99918564451,-2.41701684158,0.132273082854
1521803958525957107,5.99918315104,-2.44201690576,0.132273082979
1521803958526057958,5.99918065624,-2.46701697235,0.132273083105
1521803958566345930,5.99917816055,-2.49201704134,0.132273083228
1521803958566560983,5.9991756644,-2.51701711267,0.132273083346
1521803958606204986,5.99917316824,-2.5420171862,0.132273083457
1521803958624701976,5.99917067253,-2.56701726178,0.132273083559
1521803958662278890,5.9991681777,-2.59201733918,0.132273083648
1521803958703035116,5.99916568419,-2.61701741814,0.132273083725
1521803958703159093,5.9991631924,-2.64201749836,0.132273083786
1521803958742162942,5.99916070267,-2.66701757952,0.132273083831
1521803958790730953,5.99915821532,-2.69201766127,0.13227308386
1521803958829910039,5.99915573061,-2.71701774325,0.132273083871
1521803958830005884,5.99915324874,-2.74201782509,0.132273083864
1521803958830059051,5.99915076984,-2.76701790644,0.132273083841
1521803958870424032,5.99914829398,-2.79201798694,0.132273083802
1521803958871221065,5.99914582117,-2.81701806626,0.132273083747
1521803958910470008,5.99914335132,-2.8420181441,0.132273083679
1521803958910717964,5.99914088431,-2.86701822018,0.132273083599
1521803958954046964,5.99913841994,-2.89201829427,0.13227308351
1521803958956455945,5.99913595794,-2.91701836618,0.132273083412
1521803959008393049,5.99913349801,-2.94201843579,0.13227308331
1521803959046091079,5.99913103979,-2.96701850301,0.132273083205
1521803959046170949,5.99912858288,-2.99201856781,0.1322730831
1521803959085854053,5.99912612685,-3.01701863021,0.132273082997
1521803959085959911,5.99912367126,-3.04201869031,0.132273082901
1521803959130027055,5.99912121566,-3.06701874823,0.132273082811
1521803959144386053,5.99911875959,-3.09201880416,0.132273082732
1521803959182862997,5.99911630262,-3.11701885832,0.132273082665
1521803959222544908,5.99911384432,-3.142018911,0.132273082612
1521803959222887039,5.99911138431,-3.16701896249,0.132273082575
1521803959261784076,5.99910892224,-3.19201901312,0.132273082553
1521803959285604000,5.99910645782,-3.21701906325,0.132273082549
1521803959322761058,5.99910399079,-3.24201911324,0.132273082563
1521803959362710952,5.99910152098,-3.26701916346,0.132273082594
1521803959403176069,5.99909904827,-3.29201921426,0.132273082642
1521803959403616905,5.9990965726,-3.31701926599,0.132273082706
1521803959403774023,5.999094094,-3.34201931898,0.132273082785
1521803959442014932,5.99909161255,-3.36701937353,0.132273082877
1521803959442142009,5.99908912839,-3.3920194299,0.132273082981
1521803959457273006,5.99908664176,-3.4170194883,0.132273083093
1521803959481163024,5.99908415292,-3.44201954891,0.132273083213
1521803959518378019,5.99908166219,-3.46701961185,0.132273083336
1521803959558413028,5.99907916995,-3.4920196772,0.132273083461
1521803959599113941,5.99907667659,-3.51701974496,0.132273083585
1521803959599570989,5.99907418255,-3.54201981509,0.132273083706
1521803959638015031,5.99907168828,-3.56701988751,0.13227308382
1521803959638111114,5.99906919424,-3.59201996205,0.132273083926
1521803959678366899,5.99906670086,-3.61702003853,0.132273084021
1521803959682482004,5.99906420859,-3.6420201167,0.132273084104
1521803959717922925,5.99906171783,-3.66702019629,0.132273084172
1521803959759932041,5.99905922898,-3.69202027698,0.132273084225
1521803959798510074,5.99905674236,-3.71702035843,0.132273084261
1521803959798753023,5.99905425825,-3.74202044029,0.13227308428
1521803959837874889,5.99905177689,-3.76702052221,0.132273084282
1521803959837974071,5.99904929844,-3.7920206038,0.132273084267
1521803959877940893,5.99904682301,-3.81702068471,0.132273084234
1521803959895960092,5.99904435062,-3.84202076461,0.132273084187
1521803959939157009,5.99904188125,-3.86702084316,0.132273084125
1521803959939593076,5.99903941479,-3.89202092009,0.13227308405
1521803959979140996,5.99903695107,-3.91702099514,0.132273083964
1521803959979296922,5.99903448986,-3.94202106811,0.13227308387
1521803960018177986,5.99903203088,-3.96702113882,0.132273083769
1521803960059776067,5.99902957378,-3.99202120718,0.132273083664
1521803960099487066,5.99902711819,-4.01702127313,0.132273083558
1521803960142040014,5.9990246637,-4.04202133666,0.132273083454
1521803960142129898,5.99902220987,-4.06702139783,0.132273083353
1521803960142177104,5.99901975625,-4.09202145676,0.13227308326
1521803960181922912,5.99901730239,-4.1170215136,0.132273083175
1521803960203802108,5.99901484783,-4.14202156856,0.132273083101
1521803960241954088,5.99901239215,-4.16702162188,0.13227308304
1521803960290855884,5.99900993495,-4.19202167387,0.132273082994
1521803960330859899,5.99900747586,-4.21702172484,0.132273082964
1521803960331051111,5.99900501454,-4.24202177513,0.132273082951
1521803960331114053,5.99900255074,-4.26702182509,0.132273082956
1521803960370052099,5.99900008423,-4.29202187511,0.132273082978
1521803960370209932,5.99899761487,-4.31702192553,0.132273083017
1521803960405293941,5.99899514258,-4.34202197671,0.132273083073
1521803960409852981,5.99899266732,-4.36702202899,0.132273083144
1521803960446037054,5.99899018917,-4.39202208269,0.132273083229
1521803960487286090,5.99898770823,-4.41702213808,0.132273083327
1521803960487653970,5.9989852247,-4.4420221954,0.132273083435
1521803960525998115,5.99898273881,-4.46702225486,0.13227308355
1521803960531332015,5.99898025087,-4.49202231659,0.132273083672
1521803960569750070,5.99897776123,-4.5170223807,0.132273083796
1521803960610666036,5.99897527027,-4.54202244722,0.13227308392
1521803960610723972,5.99897277841,-4.56702251615,0.132273084042
1521803960649925947,5.99897028609,-4.5920225874,0.13227308416
1521803960656503915,5.99896779377,-4.61702266087,0.132273084269
1521803960699196100,5.9989653019,-4.64202273637,0.13227308437
1521803960738009929,5.99896281093,-4.6670228137,0.132273084458
1521803960738168954,5.99896032127,-4.69202289258,0.132273084533
1521803960777894973,5.99895783332,-4.71702297271,0.132273084593
1521803960796379089,5.99895534744,-4.74202305379,0.132273084637
1521803960835200071,5.99895286395,-4.76702313545,0.132273084664
1521803960873907089,5.99895038309,-4.79202321734,0.132273084674
1521803960873992919,5.99894790507,-4.81702329909,0.132273084667
1521803960915132045,5.99894543003,-4.84202338033,0.132273084642
1521803960915517091,5.99894295802,-4.86702346073,0.132273084601
1521803960957909107,5.99894048905,-4.89202353994,0.132273084546
1521803960958009004,5.99893802305,-4.91702361766,0.132273084477
1521803960999238014,5.99893555988,-4.94202369363,0.132273084395
1521803961044509887,5.99893309934,-4.9670237676,0.132273084305
1521803961082585096,5.99893064118,-4.9920238394,0.132273084206
1521803961082871913,5.99892818507,-5.01702390889,0.132273084102
1521803961121839046,5.99892573066,-5.04202397598,0.132273083996
1521803961121911048,5.99892327756,-5.06702404066,0.13227308389
1521803961162379980,5.99892082533,-5.09202410295,0.132273083787
1521803961162597894,5.99891837354,-5.11702416292,0.132273083689
1521803961204684972,5.99891592172,-5.14202422073,0.132273083599
1521803961225635051,5.99891346944,-5.16702427654,0.132273083519
1521803961262912988,5.99891101624,-5.1920243306,0.132273083451
1521803961302634000,5.9989085617,-5.21702438316,0.132273083397
1521803961342267036,5.99890610545,-5.24202443455,0.132273083359
1521803961342444896,5.99890364714,-5.26702448509,0.132273083337
1521803961386110067,5.99890118646,-5.29202453512,0.132273083332
1521803961386231899,5.99889872318,-5.31702458502,0.132273083345
1521803961386313915,5.99889625711,-5.34202463515,0.132273083375
1521803961425791025,5.99889378813,-5.36702468587,0.132273083422
1521803961430028915,5.9988913162,-5.39202473753,0.132273083486
1521803961497849941,5.99888884133,-5.41702479045,0.132273083564
1521803961539380073,5.99888636361,-5.44202484492,0.132273083655
1521803961539802074,5.99888388319,-5.46702490122,0.132273083758
1521803961578515052,5.99888140028,-5.49202495956,0.132273083869
1521803961578880071,5.99887891517,-5.51702502011,0.132273083988
1521803961619118928,5.99887642818,-5.54202508299,0.13227308411
1521803961619435071,5.99887393967,-5.56702514827,0.132273084234
1521803961657844066,5.99887145006,-5.59202521597,0.132273084357
1521803961658025979,5.99886895976,-5.61702528605,0.132273084477
1521803961722686052,5.99886646924,-5.6420253584,0.13227308459
1521803961747189998,5.99886397894,-5.66702543288,0.132273084695
1521803961786237001,5.99886148932,-5.69202550929,0.132273084789
1521803961826073884,5.9988590008,-5.71702558739,0.13227308487
1521803961826200962,5.9988565138,-5.7420256669,0.132273084937
1521803961826272964,5.99885402871,-5.76702574752,0.132273084989
1521803961866578102,5.99885154585,-5.79202582889,0.132273085024
1521803961889141082,5.9988490655,-5.81702591067,0.132273085042
1521803961926268100,5.9988465879,-5.84202599249,0.132273085042
1521803961926418066,5.99884411321,-5.86702607399,0.132273085026
1521803961966731071,5.99884164154,-5.89202615481,0.132273084993
1521803961970606088,5.99883917291,-5.9170262346,0.132273084944
1521803962020231008,5.9988367073,-5.94202631305,0.132273084881
1521803962058173894,5.99883424459,-5.96702638987,0.132273084805
1521803962058382034,5.99883178461,-5.99202646482,0.132273084718
1521803962098041057,5.99882932715,-6.01702653767,0.132273084622
1521803962098196029,5.9988268719,-6.04202660827,0.13227308452
1521803962138206958,5.99882441853,-6.06702667652,0.132273084415
1521803962152436971,5.99882196666,-6.09202674235,0.132273084308
1521803962189850091,5.99881951589,-6.11702680577,0.132273084203
1521803962189961910,5.99881706577,-6.14202686683,0.132273084101
1521803962232341051,5.99881461585,-6.16702692565,0.132273084006
1521803962256962060,5.99881216568,-6.19202698238,0.132273083921
1521803962293900966,5.99880971481,-6.21702703723,0.132273083846
1521803962334532022,5.99880726281,-6.24202709045,0.132273083785
1521803962334676980,5.99880480928,-6.26702714234,0.132273083738
1521803962374109029,5.99880235385,-6.29202719322,0.132273083707
1521803962374233007,5.9987998962,-6.31702724341,0.132273083693
1521803962418992042,5.99879743605,-6.3420272933,0.132273083697
1521803962441926002,5.99879497319,-6.36702734323,0.132273083718
1521803962483056068,5.99879250748,-6.39202739357,0.132273083757
1521803962483526945,5.99879003883,-6.41702744468,0.132273083812
1521803962522563934,5.99878756722,-6.44202749689,0.132273083882
1521803962522706985,5.99878509271,-6.46702755053,0.132273083967
1521803962562803983,5.99878261541,-6.49202760586,0.132273084064
1521803962562977075,5.99878013552,-6.51702766312,0.13227308417
1521803962602127075,5.99877765328,-6.54202772252,0.132273084285
1521803962630207061,5.99877516899,-6.56702778419,0.132273084406
1521803962670573949,5.99877268299,-6.59202784825,0.132273084529
1521803962670716047,5.99877019568,-6.61702791472,0.132273084652
1521803962710092067,5.99876770747,-6.64202798358,0.132273084773
1521803962710247993,5.99876521881,-6.66702805479,0.13227308489
1521803962751979112,5.99876273015,-6.6920281282,0.132273084998
1521803962796344041,5.99876024195,-6.71702820364,0.132273085098
1521803962834906101,5.99875775463,-6.7420282809,0.132273085185
1521803962876207113,5.99875526864,-6.76702835971,0.132273085259
1521803962876683950,5.99875278436,-6.79202843979,0.132273085318
1521803962876899957,5.99875030216,-6.81702852079,0.132273085361
1521803962914028882,5.99874782234,-6.84202860237,0.132273085387
1521803962924860000,5.99874534516,-6.86702868418,0.132273085395
1521803962962024927,5.99874287081,-6.89202876584,0.132273085387
1521803962962150096,5.99874039944,-6.917028847,0.132273085361
1521803963012538909,5.99873793111,-6.9420289273,0.132273085319
1521803963013073921,5.99873546581,-6.96702900642,0.132273085263
1521803963050606012,5.99873300347,-6.99202908404,0.132273085192
1521803963090017080,5.99873054397,-7.0170291599,0.13227308511
1521803963130745887,5.99872808708,-7.04202923377,0.132273085018
1521803963131002902,5.99872563257,-7.06702930547,0.132273084919
1521803963172123908,5.99872318011,-7.09202937485,0.132273084814
1521803963172692060,5.99872072934,-7.11702944184,0.132273084707
1521803963209968090,5.99871827987,-7.14202950641,0.1322730846
1521803963210077047,5.99871583127,-7.16702956859,0.132273084496
1521803963257174015,5.99871338309,-7.19202962846,0.132273084398
1521803963260957956,5.99871093489,-7.21702968616,0.132273084307
1521803963306220054,5.9987084862,-7.24202974187,0.132273084226
1521803963345880985,5.9987060366,-7.26702979583,0.132273084157
1521803963345973014,5.99870358566,-7.2920298483,0.132273084103
1521803963386915922,5.99870113299,-7.3170298996,0.132273084063
1521803963387279987,5.99869867826,-7.34202995005,0.132273084041
1521803963440190076,5.99869622115,-7.36703,0.132273084035
1521803963464004993,5.99869376144,-7.39203004983,0.132273084047
1521803963502091884,5.99869129893,-7.41703009988,0.132273084077
1521803963502300024,5.99868883351,-7.44203015053,0.132273084123
1521803963542525053,5.99868636514,-7.46703020212,0.132273084186
1521803963559313058,5.99868389383,-7.49203025498,0.132273084263
1521803963598912954,5.99868141966,-7.5170303094,0.132273084354
1521803963599059104,5.9986789428,-7.54203036565,0.132273084456
1521803963638050079,5.99867646346,-7.56703042393,0.132273084566
1521803963641982078,5.99867398191,-7.59203048443,0.132273084684
1521803963677870035,5.99867149847,-7.61703054726,0.132273084806
1521803963718910932,5.99866901353,-7.6420306125,0.132273084929
1521803963757878065,5.99866652748,-7.66703068015,0.132273085051
1521803963798264980,5.99866404076,-7.69203075017,0.13227308517
1521803963798429012,5.99866155381,-7.71703082247,0.132273085282
1521803963838136911,5.99865906709,-7.7420308969,0.132273085386
1521803963838296890,5.99865658104,-7.76703097326,0.132273085479
1521803963838339090,5.99865409611,-7.7920310513,0.132273085559
1521803963878096103,5.9986516127,-7.81703113076,0.132273085625
1521803963881434917,5.99864913119,-7.8420312113,0.132273085676
1521803963918750047,5.99864665192,-7.86703129261,0.13227308571
1521803963957879066,5.99864417516,-7.89203137431,0.132273085726
1521803963997879981,5.99864170116,-7.91703145606,0.132273085726
1521803963997980117,5.99863923006,-7.94203153748,0.132273085708
1521803964040249109,5.99863676198,-7.96703161821,0.132273085674
1521803964040522098,5.99863429694,-7.99203169792,0.132273085624
1521803964078028917,5.9986318349,-8.01703177628,0.13227308556
1521803964119062900,5.99862937578,-8.042031853,0.132273085483
1521803964119128942,5.99862691938,-8.06703192785,0.132273085395
1521803964175508022,5.99862446548,-8.0920320006,0.132273085299
1521803964176500082,5.9986220138,-8.1170320711,0.132273085196
1521803964216046094,5.99861956399,-8.14203213924,0.132273085089
1521803964255191087,5.99861711568,-8.16703220497,0.132273084982
1521803964255578041,5.99861466845,-8.19203226829,0.132273084875
1521803964293993949,5.99861222187,-8.21703232926,0.132273084773
1521803964294094085,5.99860977548,-8.24203238797,0.132273084678
1521803964335217952,5.99860732884,-8.26703244461,0.132273084591
1521803964354374885,5.99860488149,-8.29203249937,0.132273084516
1521803964394192934,5.998602433,-8.3170325525,0.132273084454
1521803964394293069,5.99859998298,-8.34203260431,0.132273084406
1521803964434453010,5.99859753104,-8.3670326551,0.132273084375
1521803964434890031,5.99859507688,-8.39203270521,0.132273084361
1521803964474386930,5.99859262023,-8.41703275502,0.132273084364
1521803964484906911,5.99859016086,-8.44203280488,0.132273084384
1521803964522037029,5.99858769863,-8.46703285516,0.132273084422
1521803964566998004,5.99858523345,-8.49203290621,0.132273084476
1521803964567140102,5.99858276532,-8.51703295837,0.132273084546
1521803964606012105,5.99858029429,-8.54203301195,0.13227308463
1521803964613717079,5.99857782047,-8.56703306723,0.132273084726
1521803964650702953,5.99857534405,-8.59203312444,0.132273084832
1521803964690262079,5.99857286529,-8.6170331838,0.132273084946
1521803964690412044,5.99857038447,-8.64203324543,0.132273085066
1521803964730886936,5.99856790196,-8.66703330944,0.132273085188
1521803964731292963,5.99856541813,-8.69203337586,0.132273085311
1521803964793546915,5.99856293342,-8.71703344469,0.132273085431
1521803964831232070,5.99856044825,-8.74203351585,0.132273085547
1521803964831609964,5.99855796309,-8.76703358921,0.132273085654
1521803964869980096,5.99855547838,-8.79203366461,0.132273085753
1521803964870122909,5.99855299457,-8.81703374182,0.132273085839
1521803964910012006,5.99855051208,-8.84203382058,0.132273085912
1521803964910181045,5.99854803131,-8.86703390059,0.13227308597
1521803964950642108,5.99854555262,-8.89203398153,0.132273086012
1521803964956027030,5.9985430763,-8.91703406305,0.132273086037
1521803964994944095,5.99854060264,-8.94203414479,0.132273086044
1521803965033937931,5.9985381318,-8.96703422638,0.132273086035
1521803965034046888,5.99853566394,-8.99203430746,0.132273086008
1521803965075337886,5.99853319912,-9.01703438769,0.132273085965
1521803965081073999,5.99853514737,-9.04180463577,0.132275633721
1521803965117882013,5.99831836533,-9.06519831225,0.132395912928
1521803965159605979,5.99879767783,-9.08641882408,0.132308655552
1521803965203562021,6.00054137318,-9.10416490484,0.132704209157
1521803965203756093,6.00001482049,-9.12283329178,0.132459711613
1521803965241909980,6.00109031343,-9.13719525381,0.13291041287
1521803965242016077,6.00010919926,-9.15300024302,0.132326481875
1521803965283274888,5.99851350739,-9.16922307715,0.13232230817
1521803965283826112,5.99691032812,-9.18869086781,0.132273138089
1521803965322021961,5.99557885393,-9.21056790222,0.132272217655
1521803965333127975,5.99413536798,-9.23431903186,0.13227181617
1521803965369863986,5.99262495773,-9.25925710774,0.132272225513
1521803965410156011,5.99110996758,-9.28421189717,0.132272173452
1521803965410284042,5.9895951643,-9.30916651193,0.132272153309
1521803965473614931,5.98808044113,-9.33412106622,0.132272144093
1521803965492511034,5.98656574357,-9.35907559801,0.132272138644
1521803965531802892,5.98506530225,-9.38387375716,0.132272737202
1521803965531964063,5.98344487765,-9.40736984037,0.132321904164
1521803965570218086,5.98439810371,-9.42780979871,0.13224434203
1521803965570384979,5.9827488976,-9.44730199814,0.132922659871
1521803965610944032,5.98431365911,-9.46373521863,0.132344274573
1521803965611190080,5.98147925252,-9.48011258917,0.132838905794
1521803965669960975,5.98337722328,-9.49265948205,0.132300329723
1521803965670895099,5.97933823528,-9.50649805291,0.132394656599
1521803965709940910,5.97666193933,-9.51923499121,0.132281838106
1521803965710050106,5.9741046071,-9.53444623496,0.132269872033
1521803965751151084,5.97158923382,-9.55272482002,0.132273287621
1521803965788508892,5.96883851661,-9.57295917564,0.13227386341
1521803965826033115,5.9658333445,-9.59505066584,0.132273741979
1521803965826131105,5.96257473518,-9.61899718526,0.132273333595
1521803965866656064,5.95922501061,-9.64362765201,0.132272177597
1521803965866744041,5.95595049765,-9.66686348227,0.132331108387
1521803965907064914,5.95526940058,-9.68742248907,0.132438725272
1521803965944360971,5.95192822391,-9.70746850025,0.132637846386
1521803965983417987,5.95280108861,-9.72352224517,0.13242370556
1521803965984136104,5.94842249264,-9.74034587389,0.132399672319
1521803966024259090,5.94935716375,-9.75241187647,0.132498544826
1521803966024647951,5.94543975981,-9.7655079066,0.132334731244
1521803966061988115,5.94675128805,-9.77387256154,0.132563433664
1521803966062122106,5.94352389799,-9.78324849491,0.132297926029
1521803966104734897,5.9453416182,-9.78798069694,0.132618375261
1521803966106029987,5.94318781449,-9.79344483659,0.132325677241
1521803966147874116,5.94589837748,-9.79440701261,0.132730283359
1521803966186032056,5.94507657425,-9.79640451956,0.132495148038
1521803966234850883,5.94723266601,-9.79472097589,0.132411907577
1521803966277761936,5.94562095035,-9.79412059634,0.132561941129
1521803966277899026,5.94493922621,-9.79311452399,0.132363886896
1521803966277955055,5.94344073352,-9.79505698618,0.132282765209
1521803966315427064,5.94164423887,-9.80001939062,0.132271949103
1521803966315747022,5.93941552358,-9.80709753487,0.132272546922
1521803966332998037,5.93661965009,-9.81596120905,0.13227268903
1521803966379821062,5.93326074375,-9.82661172587,0.132272761934
1521803966419217109,5.92934597372,-9.83901886315,0.132272912276
1521803966419615030,5.92565764497,-9.8509714849,0.132316157891
1521803966458600997,5.92314089407,-9.86115670146,0.132278531535
1521803966485254049,5.92152814139,-9.86887330516,0.13267516203
1521803966524050951,5.91948728708,-9.87630320663,0.132480454278
1521803966524139881,5.91987405857,-9.88020481598,0.132824462171
1521803966562136888,5.9190834002,-9.88435260499,0.132477187628
1521803966603770017,5.92074180419,-9.88485723087,0.132825985338
1521803966642043113,5.92101911385,-9.88569788785,0.132559435777
1521803966642160892,5.92243424501,-9.88382642606,0.132405355601
1521803966682107925,5.92012018198,-9.8826349238,0.132421412659
1521803966682235002,5.92276090775,-9.87900863458,0.132319303103
1521803966682291030,5.9206506905,-9.87715048102,0.132775634379
1521803966723943948,5.92254963661,-9.87374464501,0.132411256998
1521803966731161117,5.92187220727,-9.87128641752,0.132971503958
1521803966770023107,5.92262445145,-9.86836522793,0.132459923998
1521803966814095973,5.92223572363,-9.86613494574,0.132600361709
1521803966814176082,5.92041817602,-9.86718243219,0.132295386334
1521803966854552984,5.91824953211,-9.87101034779,0.132271096269
1521803966860996007,5.9151999382,-9.87719402948,0.132273181572
1521803966898333072,5.91131564758,-9.88505522244,0.132273220475
1521803966937757968,5.90659875776,-9.89459576299,0.132273081526
1521803966937882900,5.90105033474,-9.90581638373,0.132272912191
1521803966978226900,5.89467072274,-9.91871743653,0.132272753163
1521803967003596067,5.8874599961,-9.93329902291,0.132272601524
1521803967042170047,5.87941817557,-9.94956118142,0.132272456236
1521803967042301893,5.87054526506,-9.96750392899,0.132272317026
1521803967083107948,5.8608412632,-9.98712727492,0.132272184006
1521803967083419084,5.85030616704,-10.0084312258,0.132272057559
1521803967129589080,5.83923846486,-10.0308261838,0.132272438483
1521803967131169080,5.8281568705,-10.0532381131,0.13227253533
1521803967169848918,5.81707526512,-10.0756499341,0.132272556818
1521803967209899902,5.80599371553,-10.0980616864,0.132272558091
1521803967249845981,5.79491222177,-10.1204733781,0.132272553482
1521803967249950885,5.7838307813,-10.1428850149,0.132272547432
1521803967290136098,5.77274939133,-10.1652966012,0.132272541313
1521803967290271997,5.76166804911,-10.1877081412,0.132272535536
1521803967335799932,5.750586752,-10.2101196388,0.132272530209
1521803967347151041,5.73950549745,-10.2325310977,0.132272525342
1521803967386646986,5.72842428305,-10.2549425213,0.132272520908
1521803967426676034,5.71734310655,-10.277353913,0.132272516867
1521803967426830053,5.70626196587,-10.2997652755,0.132272513174
1521803967465960979,5.69518085908,-10.3221766114,0.132272509776
1521803967479844093,5.68409978448,-10.3445879231,0.132272506622
1521803967519071102,5.67301874053,-10.3669992123,0.132272503656
1521803967519373893,5.66193772591,-10.3894104805,0.132272500824
1521803967558257102,5.65085763846,-10.4118196808,0.132272403829
1521803967558450937,5.64029515817,-10.4333430521,0.132297518923
1521803967603473901,5.63065219453,-10.4533290818,0.132365498761
1521803967610198020,5.62279160636,-10.4717417188,0.132402334307
1521803967650646924,5.61419230072,-10.4885292198,0.132733439772
1521803967714075088,5.60416838805,-10.5057643464,0.132382023138
1521803967754766941,5.5931649403,-10.5252643088,0.132279752634
1521803967794142007,5.58136345991,-10.5471765885,0.132271580746
1521803967794276952,5.56957496574,-10.5692247683,0.132272324933
1521803967794322013,5.55789020503,-10.5910779798,0.132272713757
1521803967835067033,5.54726471083,-10.6115244145,0.13230082914
1521803967835520982,5.53454036756,-10.6301756929,0.132299984064
1521803967835673093,5.52842767099,-10.645997786,0.13274704231
1521803967873931884,5.51892757393,-10.6623042858,0.132323509455
1521803967882118940,5.51016642505,-10.6770193911,0.132401817658
1521803967921955108,5.49914992226,-10.6936619339,0.13230266239
1521803967962028980,5.48735733691,-10.713137928,0.132272219125
1521803967962191104,5.47483566517,-10.7344166097,0.132270623639
1521803968001821041,5.4621496854,-10.7559707829,0.132270382545
1521803968003979921,5.44946329963,-10.7775231994,0.132270142685
1521803968049165010,5.43677988892,-10.7990741359,0.132270864348
1521803968087572097,5.4241732231,-10.8204887062,0.132271389701
1521803968126538991,5.41262430692,-10.8406384411,0.132292670613
1521803968126643896,5.39978277152,-10.8587787138,0.132507343123
1521803968166974067,5.39302997634,-10.874807903,0.132522870779
1521803968167249917,5.38153345602,-10.8907136035,0.132273885698
1521803968206022024,5.37127568485,-10.9060880434,0.132353912313
1521803968240303039,5.3590379198,-10.9240069961,0.132271329357
1521803968277986049,5.3459046865,-10.944545365,0.132270988847
1521803968278085947,5.33244876764,-10.9656285722,0.132269945391
1521803968318821907,5.31899436682,-10.9867079554,0.132270702216
1521803968319221973,5.30554260752,-11.0077853795,0.132271783966
1521803968375750064,5.29209084357,-11.028861328,0.132272560833
1521803968375969886,5.27863735356,-11.0499362968,0.132272610076
1521803968414083003,5.26553053344,-11.0705122251,0.132284949825
1521803968414207935,5.25409212885,-11.0895516663,0.132286663367
1521803968453830003,5.24064506793,-11.1061276775,0.13291954041
1521803968458170890,5.23404942198,-11.1213809344,0.132352881418
1521803968502891063,5.22208554025,-11.1357521254,0.132305157847
1521803968542562007,5.21730422599,-11.1482524225,0.132247188878
1521803968583308935,5.20759585932,-11.1594054025,0.132599328432
1521803968583828926,5.20485473776,-11.169248925,0.132277276097
1521803968584038972,5.1967802314,-11.1774514942,0.132463687965
1521803968622277021,5.19597609418,-11.1843981085,0.1322888051
1521803968642927885,5.1906832956,-11.1895722621,0.132618967591
1521803968688241958,5.19213528338,-11.1935318912,0.132434646663
1521803968725944042,5.18911962369,-11.1958634091,0.132482037164
1521803968726102113,5.1927211671,-11.1967517141,0.132479175457
1521803968766160011,5.19030245054,-11.1965280137,0.132261192421
1521803968766298055,5.19421893729,-11.1947671077,0.132372580671
1521803968807089090,5.19202565673,-11.1928942959,0.132421075951
1521803968844381093,5.19283025313,-11.1917708268,0.132378498364
1521803968882255077,5.18992068114,-11.1933361201,0.132283898685
1521803968882595062,5.18600043911,-11.1974144877,0.132272088537
1521803968922100067,5.18092622861,-11.2028957634,0.132271898963
1521803968950167894,5.17688070865,-11.2076949273,0.132289226844
1521803968989885091,5.17258405346,-11.2104227737,0.132678175545
1521803968990087032,5.1740789574,-11.2128721948,0.132225767648
1521803969030317068,5.17175358357,-11.2133965439,0.132712709707
1521803969030554056,5.17480227582,-11.2136321937,0.132301626643
1521803969070089101,5.17455321559,-11.2121995318,0.132995177208
1521803969071589946,5.17654553357,-11.2104898048,0.13240065405
1521803969110773086,5.17835672491,-11.2082725651,0.13300081789
1521803969110992908,5.17872654167,-11.2058567929,0.132367594936
1521803969149977922,5.18114684451,-11.2033943201,0.132632879441
1521803969156368017,5.17891087986,-11.2028173311,0.132314321109
1521803969194070100,5.17637800163,-11.2044999022,0.132272119482
1521803969234124898,5.17178290991,-11.2085172665,0.132272483327
1521803969234216928,5.16581518499,-11.2138717814,0.132272724969
1521803969273879051,5.15845160186,-11.220477598,0.132272746448
1521803969284998893,5.14969268922,-11.2283354182,0.132272791159
1521803969321767091,5.13953954201,-11.2374454191,0.132272732904
1521803969366133928,5.12799113648,-11.2478065436,0.132272844589
1521803969366282939,5.11506994384,-11.2593985705,0.132272924451
1521803969405860900,5.10257957909,-11.2707457613,0.13228111758
1521803969406033992,5.09156622166,-11.2809744786,0.132457975125
1521803969445909023,5.07893672693,-11.2884912777,0.132830765907
1521803969486026048,5.0741556138,-11.2967933348,0.132341883054
1521803969486151933,5.06447527917,-11.3026282475,0.132454610818
1521803969525970935,5.06239474595,-11.3083492118,0.132554043731
1521803969530735015,5.05576551999,-11.3122617378,0.132387408098
1521803969569997072,5.05550545805,-11.315245987,0.132767488052
1521803969611041069,5.05315941624,-11.3176010374,0.132619809959
1521803969650063991,5.05417095631,-11.3179227873,0.132907309819
1521803969650180101,5.05434712551,-11.3179669612,0.132453025627
1521803969691412925,5.05561290338,-11.3165859793,0.132492784422
1521803969704870939,5.05301323292,-11.3163177985,0.132340557003
1521803969742234945,5.04949838144,-11.3182924848,0.132275728857
1521803969742337942,5.04404103312,-11.3221247871,0.132271966639
1521803969782773017,5.03704697427,-11.327029432,0.132271883301
1521803969784610986,5.02852265624,-11.3330145723,0.132272740681
1521803969822396993,5.01845995586,-11.3400713625,0.13227296147
1521803969862366914,5.00686185324,-11.3482044765,0.132273009075
1521803969862571954,4.99372854708,-11.3574140693,0.132273009943
1521803969901860952,4.9790600581,-11.3677001622,0.132272996679
1521803969905791997,4.96285639117,-11.3790627628,0.132272979025
1521803969950746059,4.94511754744,-11.3915018751,0.132272960029
1521803969990992069,4.92584352722,-11.4050175019,0.132272940814
1521803969991378068,4.90543064731,-11.4193289141,0.132272628345
1521803970029834985,4.88496102947,-11.4336825096,0.132272618041
1521803970033026933,4.86449143305,-11.4480361421,0.132272613961
1521803970085762977,4.84402182129,-11.462389774,0.132272610918
1521803970122057914,4.82355220307,-11.4767434071,0.132272608366
1521803970162807941,4.80308258127,-11.4910970413,0.132272606194
1521803970162995100,4.78261295692,-11.5054506764,0.132272604401
1521803970163048982,4.76214333055,-11.5198043119,0.132272603012
1521803970202457904,4.7416737026,-11.5341579471,0.132272602049
1521803970224426031,4.72120407351,-11.5485115816,0.13227260153
1521803970261920928,4.70073444374,-11.5628652148,0.132272601461
1521803970262026071,4.68026481374,-11.5772188464,0.132272601839
1521803970302882909,4.65979518402,-11.5915724757,0.13227260265
1521803970306945085,4.63932555503,-11.6059261026,0.132272603871
1521803970345829010,4.61885592726,-11.6202797268,0.13227260547
1521803970394911050,4.59838630082,-11.6346333494,0.132272606658
1521803970434127092,4.5779166727,-11.6489869753,0.132272606748
1521803970434289932,4.55744704192,-11.6633406018,0.132272607089
1521803970474344015,4.5369774089,-11.6776942287,0.132272607667
1521803970474757909,4.51650777411,-11.692047856,0.132272608462
1521803970514025926,4.49603813808,-11.7064014835,0.13227260945
1521803970514133930,4.47556850134,-11.7207551111,0.132272610602
1521803970554785013,4.45509886447,-11.7351087387,0.132272611885
1521803970561014890,4.43462922802,-11.7494623664,0.132272613263
1521803970598968029,4.41449001456,-11.7635992392,0.132279150224
1521803970637990951,4.39614755336,-11.7771329818,0.132307216807
1521803970678329944,4.37542895586,-11.7878302951,0.132370499723
1521803970678766965,4.3626805158,-11.7992811018,0.132588777493
1521803970719449996,4.34463985359,-11.8095345214,0.132314886563
1521803970719911098,4.32633599371,-11.8211614286,0.132279928285
1521803970757940053,4.30571296718,-11.8346457883,0.132273195749
1521803970759251117,4.28588199754,-11.8478340856,0.132300689056
1521803970801917076,4.26899319106,-11.8609744068,0.132292187312
1521803970841845035,4.25177271604,-11.8718444777,0.132849295407
1521803970841944932,4.23967163189,-11.8837815779,0.132232018807
1521803970881879091,4.22305862701,-11.8916910552,0.132541873058
1521803970882071018,4.21413767151,-11.900964575,0.132513864255
1521803970926093101,4.20100485434,-11.9074134866,0.132319985708
1521803970959538936,4.19507070815,-11.9142851233,0.132790900943
1521803970998522996,4.18609791102,-11.9195221486,0.132651757079
1521803970998755931,4.17952338391,-11.9232601952,0.132447155117
1521803971039232015,4.17065160199,-11.9264216134,0.132369079745
1521803971042073011,4.15998932933,-11.9314186753,0.132272731034
1521803971082200050,4.14719142559,-11.9380539243,0.132272008881
1521803971082571983,4.13273124766,-11.945560719,0.132272172054
1521803971126195907,4.11660939797,-11.9539342363,0.132272673588
1521803971137823104,4.09882191749,-11.9631675113,0.132272861995
1521803971177923917,4.07937012684,-11.9732644813,0.132272900628
1521803971218662023,4.05825416743,-11.984225257,0.132272897558
1521803971218740940,4.03607914564,-11.995733158,0.132272604244
1521803971280198097,4.01388968442,-12.0072507876,0.132272595554
1521803971289299011,3.99170021312,-12.0187684292,0.13227259138
1521803971330744028,3.96951072704,-12.0302860688,0.132272587932
1521803971370345115,3.94732123353,-12.0418037094,0.132272584761
1521803971410109996,3.92513173502,-12.0533213514,0.132272581794
1521803971410224914,3.9029422324,-12.0648389949,0.132272579058
1521803971410299062,3.88075272618,-12.0763566394,0.132272576605
1521803971410368919,3.85856321681,-12.0878742847,0.132272574489
1521803971449997901,3.8363737048,-12.0993919304,0.132272572759
1521803971460339069,3.81418419068,-12.1109095761,0.132272571456
1521803971497876882,3.7919946749,-12.122427222,0.132272570224
1521803971539846897,3.76980515386,-12.1339448742,0.132272567398
1521803971540446043,3.74761562629,-12.145462529,0.132272565094
1521803971578084945,3.72542609299,-12.1569801856,0.132272563363
1521803971608572006,3.70323655497,-12.1684978436,0.132272562246
1521803971648813009,3.68104701332,-12.1800155025,0.132272561773
1521803971649377107,3.65885746927,-12.1915331616,0.132272561956
1521803971686976909,3.63666792407,-12.2030508206,0.132272562794
1521803971708210945,3.61447837904,-12.2145684787,0.13227256427
1521803971746259927,3.59228883549,-12.2260861357,0.132272566354
1521803971746414899,3.57009929471,-12.237603791,0.132272569
1521803971787214994,3.54790975795,-12.2491214443,0.13227257215
1521803971787658929,3.52572022637,-12.2606390951,0.132272575735
1521803971844265937,3.50353070102,-12.2721567433,0.132272579675
1521803971844841003,3.48134118284,-12.2836743887,0.132272583884
1521803971907476902,3.45924612111,-12.2951504871,0.132272574691
1521803971946203947,3.43848450193,-12.3062380872,0.132305614344
1521803971946315050,3.41862957101,-12.3161344483,0.132675223014
1521803971946373939,3.39644854614,-12.3229190414,0.132692520059
1521803971986007928,3.38379582409,-12.3327118439,0.132839981997
1521803971994649887,3.36635060132,-12.3401323455,0.132260363702
1521803972035336971,3.34874106981,-12.3478699166,0.132274697256
1521803972035903930,3.3282695473,-12.3574028215,0.13227225647
1521803972078001022,3.30593196517,-12.3679213655,0.132270929998
1521803972083739042,3.28418866132,-12.3783559471,0.132295008984
1521803972122178077,3.26490243283,-12.3888758574,0.132273764541
1521803972166026115,3.24565865428,-12.3974126974,0.13276028534
1521803972206207990,3.23173949627,-12.4078830639,0.13220948353
1521803972206352949,3.213947843,-12.4137163611,0.132555918738
1521803972247246026,3.20348439815,-12.4218340867,0.132604675767
1521803972276058912,3.18920681556,-12.426599721,0.132231777769
1521803972313994884,3.18182018713,-12.4325180616,0.132814237113
1521803972314101934,3.17240527686,-12.4365600035,0.132543733997
1521803972354109048,3.16662927476,-12.4396423279,0.132932782969
1521803972354255914,3.1589732648,-12.4414351033,0.132258404342
1521803972395565986,3.15038749267,-12.4438545702,0.132267776161
1521803972395692110,3.13872506624,-12.4477323613,0.132272131588
1521803972434911012,3.12500892281,-12.4524096079,0.132272029408
1521803972440296888,3.11153156004,-12.4572618762,0.132299240441
1521803972491437911,3.09976840956,-12.4616631947,0.132527649853
1521803972530169010,3.08893990516,-12.4656229171,0.132378488237
1521803972571234941,3.08259568503,-12.4696249854,0.133035326144
1521803972571363925,3.07620137639,-12.4732882251,0.132597431392
1521803972571448087,3.07103880802,-12.47469864,0.133049673682
1521803972609963893,3.06960164629,-12.4780795946,0.132389759328
1521803972610091924,3.06493626898,-12.4772966786,0.132424813172
1521803972657399892,3.05948951761,-12.4778811513,0.132281382303
1521803972676737070,3.05124301892,-12.4798187713,0.132272518893
1521803972715863943,3.04105774093,-12.4824471309,0.132272687172
1521803972754180908,3.02905692539,-12.4855404982,0.132272718171
1521803972754405021,3.01524031297,-12.4891004314,0.132272625208
1521803972793998003,2.99960813199,-12.4931275893,0.132272476418
1521803972794091939,2.98216040767,-12.4976223276,0.132272340546
1521803972836565971,2.96289712291,-12.5025847348,0.132272217389
1521803972863332986,2.94181826343,-12.5080148381,0.132272105958
1521803972902833938,2.91892381713,-12.5139126471,0.132272005191
1521803972903000116,2.89475768897,-12.5201452405,0.132272269188
1521803972941898107,2.87054647489,-12.5263837838,0.132272389494
1521803972964637041,2.84633530681,-12.5326222382,0.132272423722
1521803973003266096,2.82212422565,-12.5388607019,0.132272434322
1521803973003716945,2.79791323186,-12.5450991751,0.132272437179
1521803973041855096,2.77370232348,-12.5513376565,0.132272437503
1521803973061238050,2.74949149869,-12.5575761452,0.132272436976
1521803973098146915,2.72528075599,-12.5638146404,0.13227243611
1521803973098237991,2.70107009414,-12.5700531411,0.132272435032
1521803973142972946,2.67685951205,-12.5762916464,0.132272433742
1521803973153017997,2.65264900879,-12.5825301556,0.132272432207
1521803973192450046,2.62843858348,-12.5887686677,0.132272430386
1521803973192815065,2.60422823524,-12.5950071821,0.132272428244
1521803973232028007,2.58001796316,-12.601245698,0.132272425756
