%time,field.x,field.y,field.z,field.w
1521803950195023059,0.0,0.0,4.45648848542e-09,1.0
1521803950251351118,0.0,0.0,5.52057139386e-06,0.999999999985
1521803950253972053,0.0,0.0,5.52813603255e-06,0.999999999985
1521803950278978109,0.0,0.0,5.53046118784e-06,0.999999999985
1521803950306214094,0.0,0.0,5.53345261086e-06,0.999999999985
1521803950333935022,0.0,0.0,5.53793974676e-06,0.999999999985
1521803950354202985,0.0,0.0,5.54093117207e-06,0.999999999985
1521803950377587080,0.0,0.0,5.54392259739e-06,0.999999999985
1521803950408834934,0.0,0.0,5.54471420463e-06,0.999999999985
1521803950429768085,0.0,0.0,5.54831129674e-06,0.999999999985
1521803950458044052,0.0,0.0,5.55611274933e-06,0.999999999985
1521803950491105079,0.0,0.0,6.25795588553e-06,0.99999999998
1521803950504632949,0.0,0.0,5.83265334797e-06,0.999999999983
1521803950545053958,0.0,0.0,3.60271889641e-06,0.999999999994
1521803950570832014,0.0,0.0,5.8980117716e-06,0.999999999983
1521803950596807003,0.0,0.0,5.87994772786e-06,0.999999999983
1521803950621759891,0.0,0.0,2.61923619951e-06,0.999999999997
1521803950635664939,0.0,0.0,2.62415709724e-06,0.999999999997
1521803950661350011,0.0,0.0,5.96543917438e-05,0.999999998221
1521803950686039924,0.0,0.0,5.98156073526e-05,0.999999998211
1521803950715972900,0.0,0.0,6.13088469749e-05,0.999999998121
1521803950746164083,0.0,0.0,6.14849346762e-05,0.99999999811
1521803950764302968,0.0,0.0,6.15046215471e-05,0.999999998109
1521803950791971921,0.0,0.0,-6.47272587574e-05,0.999999997905
1521803950815120935,0.0,0.0,-6.47063332097e-05,0.999999997907
1521803950836191892,0.0,0.0,-6.47020755238e-05,0.999999997907
1521803950865766048,0.0,0.0,-6.46976271214e-05,0.999999997907
1521803950898200035,0.0,0.0,-6.46813900358e-05,0.999999997908
1521803950913336038,0.0,0.0,-6.46723736323e-05,0.999999997909
1521803950941498994,0.0,0.0,5.64728910518e-05,0.999999998405
1521803950965008974,0.0,0.0,5.64838790944e-05,0.999999998405
1521803950989736080,0.0,0.0,5.64895410529e-05,0.999999998404
1521803951014538049,0.0,0.0,5.64950967926e-05,0.999999998404
1521803951035521984,0.0,0.0,5.64982175111e-05,0.999999998404
1521803951066695928,0.0,0.0,0.000516742722584,0.999999866488
1521803951094234943,0.0,0.0,0.00051675314819,0.999999866483
1521803951112694978,0.0,0.0,0.000516755333295,0.999999866482
1521803951142446041,0.0,0.0,0.000516769473855,0.999999866475
1521803951164582967,0.0,0.0,0.000516773108256,0.999999866473
1521803951186148881,0.0,0.0,0.000516773561174,0.999999866473
1521803951227612018,0.0,0.0,6.3334859545e-05,0.999999997994
1521803951243303060,0.0,0.0,6.33374019377e-05,0.999999997994
1521803951267136096,0.0,0.0,6.33391801416e-05,0.999999997994
1521803951296531915,0.0,0.0,1.04522508311e-05,0.999999999945
1521803951320462942,0.0,0.0,1.04550201435e-05,0.999999999945
1521803951343280076,0.0,0.0,1.04601835909e-05,0.999999999945
1521803951367271900,0.0,0.0,1.04644611524e-05,0.999999999945
1521803951393013000,0.0,0.0,-1.15859129899e-05,0.999999999933
1521803951415014028,0.0,0.0,-1.15754953724e-05,0.999999999933
1521803951440047979,0.0,0.0,-1.15747894837e-05,0.999999999933
1521803951469568014,0.0,0.0,-1.15740770082e-05,0.999999999933
1521803951492492914,0.0,0.0,-1.15736754961e-05,0.999999999933
1521803951521148920,0.0,0.0,-1.15555915459e-05,0.999999999933
1521803951546992063,0.0,0.0,1.78238498791e-05,0.999999999841
1521803951569219112,0.0,0.0,1.78270744403e-05,0.999999999841
1521803951596694946,0.0,0.0,1.78363365016e-05,0.999999999841
1521803951618910074,0.0,0.0,1.78424338968e-05,0.999999999841
1521803951640331029,0.0,0.0,1.78456347402e-05,0.999999999841
1521803951682312965,0.0,0.0,8.18482352899e-07,1.0
1521803951693552017,0.0,0.0,8.24301196012e-07,1.0
1521803951718933105,0.0,0.0,8.39015006744e-07,1.0
1521803951740592002,0.0,0.0,8.44187443682e-07,1.0
1521803951769354104,0.0,0.0,8.60684686369e-07,1.0
1521803951794616937,0.0,0.0,8.67234074357e-07,1.0
1521803951819906949,0.0,0.0,8.75570445759e-07,1.0
1521803951851068019,0.0,0.0,8.82557515281e-07,1.0
1521803951872236013,0.0,0.0,8.89605521694e-07,1.0
1521803951891119003,0.0,0.0,8.93387297145e-07,1.0
1521803951929085969,0.0,0.0,9.13060962919e-07,1.0
1521803951943983078,0.0,0.0,9.2126663507e-07,1.0
1521803951969316005,0.0,0.0,9.34396396911e-07,1.0
1521803951994736909,0.0,0.0,9.36816098898e-07,1.0
1521803952021377086,0.0,0.0,9.43267537821e-07,1.0
1521803952050107955,0.0,0.0,9.54713286275e-07,1.0
1521803952070621013,0.0,0.0,9.61795931782e-07,1.0
1521803952095161914,0.0,0.0,9.63112315439e-07,1.0
1521803952124015092,0.0,0.0,9.75409126434e-07,1.0
1521803952148005008,0.0,0.0,9.80389939548e-07,1.0
1521803952171344995,0.0,0.0,9.82732760225e-07,1.0
1521803952207480907,0.0,0.0,9.8935419996e-07,1.0
1521803952221393108,0.0,0.0,9.92336072093e-07,1.0
1521803952247328042,0.0,0.0,9.95317944226e-07,1.0
1521803952272865056,0.0,0.0,9.98299816359e-07,1.0
1521803952311029911,0.0,0.0,1.01300628879e-06,0.999999999999
1521803952326354026,0.0,0.0,1.01666666973e-06,0.999999999999
1521803952347182989,0.0,0.0,1.02271503901e-06,0.999999999999
1521803952375639915,0.0,0.0,1.02761962248e-06,0.999999999999
1521803952402416944,0.0,0.0,1.02847368776e-06,0.999999999999
1521803952429583072,0.0,0.0,1.0334510268e-06,0.999999999999
1521803952447027921,0.0,0.0,1.03546001504e-06,0.999999999999
1521803952480336904,0.0,0.0,1.042691743e-06,0.999999999999
1521803952506836891,0.0,0.0,1.05092993542e-06,0.999999999999
1521803952528422117,0.0,0.0,1.05801164585e-06,0.999999999999
1521803952549938917,0.0,0.0,1.05541771103e-06,0.999999999999
1521803952575912952,0.0,0.0,1.05941893864e-06,0.999999999999
1521803952602436065,0.0,0.0,1.06157757447e-06,0.999999999999
1521803952623090028,0.0,0.0,1.06373621031e-06,0.999999999999
1521803952659564018,0.0,0.0,1.08111212615e-06,0.999999999999
1521803952676019906,0.0,0.0,1.08707250981e-06,0.999999999999
1521803952708448886,0.0,0.0,1.10236902653e-06,0.999999999999
1521803952723793983,0.0,0.0,1.10502365066e-06,0.999999999999
1521803952755580902,0.0,0.0,1.11751316153e-06,0.999999999999
1521803952776439905,0.0,0.0,1.12464115527e-06,0.999999999999
1521803952807337999,0.0,0.0,1.13570213194e-06,0.999999999999
1521803952830727100,0.0,0.0,1.14305287047e-06,0.999999999999
1521803952857837915,0.0,0.0,1.15884774727e-06,0.999999999999
1521803952878046989,0.0,0.0,1.16091827086e-06,0.999999999999
1521803952909506082,0.0,0.0,1.17530504444e-06,0.999999999999
1521803952930969953,0.0,0.0,1.18296525555e-06,0.999999999999
1521803952959424018,0.0,0.0,1.20200056883e-06,0.999999999999
1521803952981292963,0.0,0.0,1.21012692785e-06,0.999999999999
1521803953002995014,0.0,0.0,1.2132050874e-06,0.999999999999
1521803953033168077,0.0,0.0,1.22034047449e-06,0.999999999999
1521803953056759119,0.0,0.0,1.2369208487e-06,0.999999999999
1521803953077775955,0.0,0.0,1.23956797396e-06,0.999999999999
1521803953107412099,0.0,0.0,1.24611386895e-06,0.999999999999
1521803953131110906,0.0,0.0,1.25240595242e-06,0.999999999999
1521803953156953096,0.0,0.0,1.25607167745e-06,0.999999999999
1521803953182382106,0.0,0.0,1.27084513752e-06,0.999999999999
1521803953213660955,0.0,0.0,1.27491173022e-06,0.999999999999
1521803953229226112,0.0,0.0,1.27639853593e-06,0.999999999999
1521803953258595943,0.0,0.0,1.28690472877e-06,0.999999999999
1521803953290714979,0.0,0.0,1.29620833897e-06,0.999999999999
1521803953307692050,0.0,0.0,1.29688333214e-06,0.999999999999
1521803953335829973,0.0,0.0,1.30440304087e-06,0.999999999999
1521803953355361938,0.0,0.0,1.30752002594e-06,0.999999999999
1521803953386451959,0.0,0.0,1.31460560261e-06,0.999999999999
1521803953407110929,0.0,0.0,1.31836721147e-06,0.999999999999
1521803953437844991,0.0,0.0,1.32091324082e-06,0.999999999999
1521803953459244966,0.0,0.0,1.32320073673e-06,0.999999999999
1521803953484273910,0.0,0.0,1.33443943783e-06,0.999999999999
1521803953508116006,0.0,0.0,1.33908919566e-06,0.999999999999
1521803953530647993,0.0,0.0,1.34118559766e-06,0.999999999999
1521803953566267013,0.0,0.0,1.35648168992e-06,0.999999999999
1521803953583081960,0.0,0.0,1.36065698179e-06,0.999999999999
1521803953610450029,0.0,0.0,1.36558216704e-06,0.999999999999
1521803953640069007,0.0,0.0,1.37622227395e-06,0.999999999999
1521803953666666030,0.0,0.0,1.38267781524e-06,0.999999999999
1521803953688349008,0.0,0.0,1.40060596475e-06,0.999999999999
1521803953709220886,0.0,0.0,1.40914808659e-06,0.999999999999
1521803953735121965,0.0,0.0,1.41958414225e-06,0.999999999999
1521803953759987115,0.0,0.0,1.4283158196e-06,0.999999999999
1521803953793703079,0.0,0.0,1.44633274259e-06,0.999999999999
1521803953812640905,0.0,0.0,1.45310911559e-06,0.999999999999
1521803953834949970,0.0,0.0,1.46317935492e-06,0.999999999999
1521803953862045049,0.0,0.0,1.47740392034e-06,0.999999999999
1521803953890572071,0.0,0.0,1.49024216136e-06,0.999999999999
1521803953908045053,0.0,0.0,1.49464112428e-06,0.999999999999
1521803953933998107,0.0,0.0,1.4990400872e-06,0.999999999999
1521803953964693069,0.0,0.0,1.50816494762e-06,0.999999999999
1521803953991709947,0.0,0.0,1.51985080358e-06,0.999999999999
1521803954011342048,0.0,0.0,1.52569235019e-06,0.999999999999
1521803954034185886,0.0,0.0,1.52772664002e-06,0.999999999999
1521803954063427925,0.0,0.0,1.53681254389e-06,0.999999999999
1521803954091732978,0.0,0.0,1.54169110815e-06,0.999999999999
1521803954111798048,0.0,0.0,1.54534821749e-06,0.999999999999
1521803954139671087,0.0,0.0,1.55905268893e-06,0.999999999999
1521803954166733026,0.0,0.0,1.56415024125e-06,0.999999999999
1521803954186567068,0.0,0.0,1.56895431353e-06,0.999999999999
1521803954212655067,0.0,0.0,1.57570322538e-06,0.999999999999
1521803954236557006,0.0,0.0,1.57755547439e-06,0.999999999999
1521803954259881019,0.0,0.0,1.58032800937e-06,0.999999999999
1521803954302628993,0.0,0.0,1.5939194352e-06,0.999999999999
1521803954309890985,0.0,0.0,1.5970720312e-06,0.999999999999
1521803954341892957,0.0,0.0,1.59959878975e-06,0.999999999999
1521803954366074085,0.0,0.0,1.60681838477e-06,0.999999999999
1521803954386534929,0.0,0.0,1.60802404064e-06,0.999999999999
1521803954422286987,0.0,0.0,1.6144562976e-06,0.999999999999
1521803954436638116,0.0,0.0,1.61654071736e-06,0.999999999999
1521803954466918945,0.0,0.0,1.62514305862e-06,0.999999999999
1521803954495184898,0.0,0.0,1.63230986682e-06,0.999999999999
1521803954510601997,0.0,0.0,1.63386180117e-06,0.999999999999
1521803954540430068,0.0,0.0,1.64316905603e-06,0.999999999999
1521803954561923027,0.0,0.0,1.64639015631e-06,0.999999999999
1521803954594356060,0.0,0.0,1.65334877552e-06,0.999999999999
1521803954610781908,0.0,0.0,1.65653944912e-06,0.999999999999
1521803954646260976,0.0,0.0,1.67457601762e-06,0.999999999999
1521803954661683082,0.0,0.0,1.67748112985e-06,0.999999999999
1521803954689620971,0.0,0.0,1.68038624208e-06,0.999999999999
1521803954727874994,0.0,0.0,0.000208932811168,0.999999978174
1521803954739176034,0.0,0.0,0.000208936693879,0.999999978173
1521803954771687984,0.0,0.0,0.000208942585412,0.999999978171
1521803954790348052,0.0,0.0,0.000208945992107,0.999999978171
1521803954824625015,0.0,0.0,0.000106125307631,0.999999994369
1521803954836723089,0.0,0.0,0.000106127469419,0.999999994368
1521803954877542972,0.0,0.0,0.000106149064164,0.999999994366
1521803954894311904,0.0,0.0,0.000106156979533,0.999999994365
1521803954913239002,0.0,0.0,0.000106158742302,0.999999994365
1521803954939404964,0.0,0.0,-0.000187551777964,0.999999982412
1521803954977554082,0.0,0.0,-3.34163896204e-05,0.999999999442
1521803954994786977,0.0,0.0,-3.34044020374e-05,0.999999999442
1521803955014003038,0.0,0.0,-3.34003338471e-05,0.999999999442
1521803955054310083,0.0,0.0,3.15214424058e-06,0.999999999995
1521803955071091890,0.0,0.0,3.16767527766e-06,0.999999999995
1521803955089314937,0.0,0.0,3.16989994198e-06,0.999999999995
1521803955113636016,0.0,0.0,3.17212460631e-06,0.999999999995
1521803955141084909,0.0,0.0,3.17178036492e-06,0.999999999995
1521803955167932033,0.0,0.0,3.18278361433e-06,0.999999999995
1521803955190990924,0.0,0.0,2.36166156249e-05,0.999999999721
1521803955228856086,0.0,0.0,2.36384119258e-05,0.999999999721
1521803955243781089,0.0,0.0,2.36447255296e-05,0.99999999972
1521803955268768072,0.0,0.0,2.36523652314e-05,0.99999999972
1521803955298640012,0.0,0.0,2.36614681747e-05,0.99999999972
1521803955316344022,0.0,0.0,4.735997789e-05,0.999999998879
1521803955351820945,0.0,0.0,4.73671199288e-05,0.999999998878
1521803955374593019,0.0,0.0,4.73748007841e-05,0.999999998878
1521803955391191005,0.0,0.0,4.73760256351e-05,0.999999998878
1521803955426934957,0.0,0.0,4.7380121447e-05,0.999999998878
1521803955442003965,0.0,0.0,4.73817923982e-05,0.999999998877
1521803955471544981,0.0,0.0,5.61076721228e-06,0.999999999984
1521803955496665954,0.0,0.0,5.61626904709e-06,0.999999999984
1521803955518518924,0.0,0.0,5.61856790264e-06,0.999999999984
1521803955556231975,0.0,0.0,-1.94934250024e-05,0.99999999981
1521803955565903902,0.0,0.0,-1.94920257161e-05,0.99999999981
1521803955595359086,0.0,0.0,-1.94907182985e-05,0.99999999981
1521803955618163108,0.0,0.0,-1.94862645555e-05,0.99999999981
1521803955650690078,0.0,0.0,-1.94790833403e-05,0.99999999981
1521803955690836906,0.0,0.0,-1.94760860066e-05,0.99999999981
1521803955729907035,0.0,0.0,0.000154104532866,0.999999988126
1521803955730000019,0.0,0.0,0.000154109945322,0.999999988125
1521803955770091056,0.0,0.0,0.000154113570425,0.999999988125
1521803955775079965,0.0,0.0,0.000154132891915,0.999999988122
1521803955818099021,0.0,0.0,0.000154136939134,0.999999988121
1521803955858041048,0.0,0.0,0.000154145578263,0.99999998812
1521803955858134984,0.0,0.0,0.000154160801089,0.999999988117
1521803955897964954,0.0,0.0,0.000154162186325,0.999999988117
1521803955898104906,0.0,0.0,0.000154165141895,0.999999988117
1521803955938010931,0.0,0.0,0.000154169663362,0.999999988116
1521803955948679924,0.0,0.0,0.000154180318662,0.999999988114
1521803955986064910,0.0,0.0,0.000154183927151,0.999999988114
1521803956026133060,0.0,0.0,0.000154206800164,0.99999998811
1521803956066930055,0.0,0.0,0.000154225726905,0.999999988107
1521803956067245006,0.0,0.0,0.000154233730239,0.999999988106
1521803956106678009,0.0,0.0,0.000154237214781,0.999999988105
1521803956106846094,0.0,0.0,0.00015423811486,0.999999988105
1521803956146605968,0.0,0.0,0.000154268492463,0.999999988101
1521803956146730899,0.0,0.0,0.00015427051236,0.9999999881
1521803956186939001,0.0,0.0,0.000154285976607,0.999999988098
1521803956199527978,0.0,0.0,0.000154293010601,0.999999988097
1521803956239132881,0.0,0.0,0.000154297135575,0.999999988096
1521803956277815103,0.0,0.0,0.000154300668838,0.999999988096
1521803956319001913,0.0,0.0,0.000154309570435,0.999999988094
1521803956319461107,0.0,0.0,0.000154310192195,0.999999988094
1521803956357940912,0.0,0.0,0.000154311653555,0.999999988094
1521803956358047962,0.0,0.0,0.000154313952312,0.999999988094
1521803956398469924,0.0,0.0,0.000154320384483,0.999999988093
1521803956401189088,0.0,0.0,0.000154323999077,0.999999988092
1521803956438457012,0.0,0.0,0.000154327993539,0.999999988091
1521803956478038072,0.0,0.0,0.000154333111226,0.999999988091
1521803956478144884,0.0,0.0,0.000154334180557,0.99999998809
1521803956518754959,0.0,0.0,0.000154346662222,0.999999988089
1521803956528564929,0.0,0.0,0.000154356722573,0.999999988087
1521803956565891027,0.0,0.0,0.000154358128229,0.999999988087
1521803956606174945,0.0,0.0,0.000154370919193,0.999999988085
1521803956606296062,0.0,0.0,0.000154373986788,0.999999988084
1521803956646209955,0.0,0.0,0.000154384424808,0.999999988083
1521803956653739929,0.0,0.0,0.000154389109789,0.999999988082
1521803956690074920,0.0,0.0,0.000154395397798,0.999999988081
1521803956730993986,0.0,0.0,0.000154402909399,0.99999998808
1521803956731209039,0.0,0.0,0.000154407046786,0.999999988079
1521803956770108938,0.0,0.0,0.000154421960844,0.999999988077
1521803956774013042,0.0,0.0,0.000154425179026,0.999999988076
1521803956813883066,0.0,0.0,0.000154432963541,0.999999988075
1521803956854110002,0.0,0.0,0.000154435839573,0.999999988075
1521803956895034074,0.0,0.0,0.000154444085651,0.999999988074
1521803956895339012,0.0,0.0,0.000154448412345,0.999999988073
1521803956934154033,0.0,0.0,0.000154468701212,0.99999998807
1521803956934268951,0.0,0.0,0.00015447554681,0.999999988069
1521803956974405050,0.0,0.0,0.000154486934486,0.999999988067
1521803956975399971,0.0,0.0,0.000154491523736,0.999999988066
1521803957018321990,0.0,0.0,0.000154508495283,0.999999988064
1521803957057948112,0.0,0.0,0.000154528102534,0.999999988061
1521803957058075904,0.0,0.0,0.000154530944233,0.99999998806
1521803957097950935,0.0,0.0,0.000154533669553,0.99999998806
1521803957106569051,0.0,0.0,0.00015455505601,0.999999988056
1521803957146878004,0.0,0.0,0.000154558747086,0.999999988056
1521803957188452959,0.0,0.0,0.000154571572599,0.999999988054
1521803957188673019,0.0,0.0,0.000154577176319,0.999999988053
1521803957227359056,0.0,0.0,0.000154591275882,0.999999988051
1521803957230009078,0.0,0.0,0.000154592971967,0.999999988051
1521803957270672082,0.0,0.0,0.000154597271219,0.99999998805
1521803957309901952,0.0,0.0,0.000154616916792,0.999999988047
1521803957310033082,0.0,0.0,0.000154621438497,0.999999988046
1521803957350668907,0.0,0.0,0.00015463415538,0.999999988044
1521803957355832099,0.0,0.0,0.000154638071491,0.999999988044
1521803957394146919,0.0,0.0,0.0001546404872,0.999999988043
1521803957433923006,0.0,0.0,0.000154646759897,0.999999988042
1521803957434009075,0.0,0.0,0.00015464914442,0.999999988042
1521803957478416919,0.0,0.0,0.000154654670698,0.999999988041
1521803957478538990,0.0,0.0,0.000154657564053,0.999999988041
1521803957520251989,0.0,0.0,0.000154665846852,0.999999988039
1521803957539791107,0.0,0.0,0.000154674275117,0.999999988038
1521803957583668947,0.0,0.0,0.000154675890595,0.999999988038
1521803957625762939,0.0,0.0,0.000154684830984,0.999999988036
1521803957625838041,0.0,0.0,0.000154693600372,0.999999988035
1521803957667485952,0.0,0.0,0.000154695717194,0.999999988035
1521803957667887926,0.0,0.0,0.000154701093732,0.999999988034
1521803957705854892,0.0,0.0,0.000154701940734,0.999999988034
1521803957706749916,0.0,0.0,0.000154704031196,0.999999988033
1521803957750969886,0.0,0.0,0.000154708544342,0.999999988033
1521803957789895057,0.0,0.0,0.000154715388506,0.999999988032
1521803957789993047,0.0,0.0,0.000154718216717,0.999999988031
1521803957830806970,0.0,0.0,0.000154725195364,0.99999998803
1521803957840996026,0.0,0.0,0.000154737204234,0.999999988028
1521803957878079891,0.0,0.0,0.000154741389223,0.999999988028
1521803957917949914,0.0,0.0,0.000154752682479,0.999999988026
1521803957918057918,0.0,0.0,0.000154763555837,0.999999988024
1521803957958132982,0.0,0.0,0.000154766342318,0.999999988024
1521803957962227106,0.0,0.0,0.000154782180566,0.999999988021
1521803958002532958,0.0,0.0,0.000154786431459,0.999999988021
1521803958042071104,0.0,0.0,0.000154802636002,0.999999988018
1521803958042202949,0.0,0.0,0.00015480679329,0.999999988017
1521803958083002090,0.0,0.0,0.000154818714898,0.999999988016
1521803958088768005,0.0,0.0,0.00015482607707,0.999999988014
1521803958125833034,0.0,0.0,0.000154829026039,0.999999988014
1521803958167177915,0.0,0.0,0.00015484262311,0.999999988012
1521803958167542934,0.0,0.0,0.000154846389938,0.999999988011
1521803958206072092,0.0,0.0,0.000154852332115,0.99999998801
1521803958210937976,0.0,0.0,0.000154878232653,0.999999988006
1521803958251492023,0.0,0.0,0.000154880983251,0.999999988006
1521803958290146112,0.0,0.0,0.000154891017281,0.999999988004
1521803958330355882,0.0,0.0,0.000154907161637,0.999999988002
1521803958330543041,0.0,0.0,0.000154909146792,0.999999988002
1521803958369983911,0.0,0.0,0.000154911183673,0.999999988001
1521803958370090961,0.0,0.0,0.000154915360668,0.999999988001
1521803958409903049,0.0,0.0,0.000154918536985,0.999999988
1521803958417346000,0.0,0.0,0.000154941375428,0.999999987997
1521803958454153060,0.0,0.0,0.000154943203339,0.999999987996
1521803958493828058,0.0,0.0,0.000154947477675,0.999999987996
1521803958493921995,0.0,0.0,0.00015494879429,0.999999987995
1521803958538021087,0.0,0.0,0.000154950030823,0.999999987995
1521803958541820049,0.0,0.0,0.000154955593455,0.999999987994
1521803958578489065,0.0,0.0,-7.37432213054e-05,0.999999997281
1521803958618582963,0.0,0.0,-7.37384758847e-05,0.999999997281
1521803958618854045,0.0,0.0,-7.37372228003e-05,0.999999997281
1521803958658058881,0.0,0.0,-7.37290490324e-05,0.999999997282
1521803958669321060,0.0,0.0,5.19682650222e-05,0.99999999865
1521803958706218957,0.0,0.0,5.19693927117e-05,0.99999999865
1521803958746119022,0.0,0.0,5.19693312623e-05,0.99999999865
1521803958746296882,0.0,0.0,5.19745934799e-05,0.999999998649
1521803958786197900,0.0,0.0,5.19783257465e-05,0.999999998649
1521803958787301063,0.0,0.0,5.19820580131e-05,0.999999998649
1521803958825925111,0.0,0.0,0.000321851363616,0.999999948206
1521803958866844892,0.0,0.0,0.000321887234956,0.999999948194
1521803958867078065,0.0,0.0,0.000321891406529,0.999999948193
1521803958906193017,0.0,0.0,-0.000193674544932,0.999999981245
1521803958920355081,0.0,0.0,-0.000193662617513,0.999999981247
1521803958961925029,0.0,0.0,-0.000193657368453,0.999999981248
1521803959006953001,0.0,0.0,-0.000193653501472,0.999999981249
1521803959007201910,0.0,0.0,-0.000193651032545,0.99999998125
1521803959046078920,0.0,0.0,-0.000193644302794,0.999999981251
1521803959046370029,0.0,0.0,0.00030022053793,0.999999954934
1521803959085824012,0.0,0.0,0.000300223331365,0.999999954933
1521803959130038976,0.0,0.0,0.000300227149462,0.999999954932
1521803959130142927,0.0,0.0,0.000300232005947,0.99999995493
1521803959174338102,0.0,0.0,0.00030024045418,0.999999954928
1521803959178769111,0.0,0.0,8.02095925882e-05,0.999999996783
1521803959218656063,0.0,0.0,8.0213405951e-05,0.999999996783
1521803959218919992,0.0,0.0,8.02169235e-05,0.999999996783
1521803959257863044,0.0,0.0,8.02297377787e-05,0.999999996782
1521803959268743038,0.0,0.0,8.02328713379e-05,0.999999996781
1521803959310934066,0.0,0.0,1.09563265165e-05,0.99999999994
1521803959350250959,0.0,0.0,1.09725445307e-05,0.99999999994
1521803959350409030,0.0,0.0,1.09794576278e-05,0.99999999994
1521803959389991044,0.0,0.0,1.09830959659e-05,0.99999999994
1521803959393285989,0.0,0.0,1.09854589303e-05,0.99999999994
1521803959429887056,0.0,0.0,1.08479329645e-06,0.999999999999
1521803959471019983,0.0,0.0,1.08565928187e-06,0.999999999999
1521803959509999036,0.0,0.0,1.09404889564e-06,0.999999999999
1521803959510149955,0.0,0.0,1.10136289477e-06,0.999999999999
1521803959551134109,0.0,0.0,0.000358428865079,0.999999935764
1521803959551444053,0.0,0.0,1.96895972171e-05,0.999999999806
1521803959589829921,0.0,0.0,1.96917548836e-05,0.999999999806
1521803959596643924,0.0,0.0,1.96996164492e-05,0.999999999806
1521803959638014078,0.0,0.0,1.97057316191e-05,0.999999999806
1521803959677890062,0.0,0.0,1.97074321498e-05,0.999999999806
1521803959677966117,0.0,0.0,7.60967756419e-06,0.999999999971
1521803959722105979,0.0,0.0,7.62133667054e-06,0.999999999971
1521803959722271919,0.0,0.0,7.62373545513e-06,0.999999999971
1521803959762233018,0.0,0.0,7.63009514008e-06,0.999999999971
1521803959768398046,0.0,0.0,7.63265638597e-06,0.999999999971
1521803959807173013,0.0,0.0,7.63521763185e-06,0.999999999971
1521803959850056886,0.0,0.0,-3.40564416066e-05,0.99999999942
1521803959889971971,0.0,0.0,-3.40502741434e-05,0.99999999942
1521803959890080928,0.0,0.0,-3.40459435082e-05,0.99999999942
1521803959930179119,0.0,0.0,-3.40421370335e-05,0.999999999421
1521803959930289030,0.0,0.0,-3.40355667611e-05,0.999999999421
1521803959970839023,0.0,0.0,-3.40227762685e-05,0.999999999421
1521803959971642017,0.0,0.0,-3.40205879382e-05,0.999999999421
1521803960009928941,0.0,0.0,-3.400702609e-05,0.999999999422
1521803960051213979,0.0,0.0,-3.40039611487e-05,0.999999999422
1521803960051846027,0.0,0.0,-3.399159636e-05,0.999999999422
1521803960090305089,0.0,0.0,-3.39829419789e-05,0.999999999423
1521803960094422101,0.0,0.0,-3.39794305454e-05,0.999999999423
1521803960138010025,0.0,0.0,-3.39705254498e-05,0.999999999423
1521803960178143024,0.0,0.0,-3.39503256578e-05,0.999999999424
1521803960178303003,0.0,0.0,-3.39450001167e-05,0.999999999424
1521803960219043970,0.0,0.0,-3.39411565012e-05,0.999999999424
1521803960223917007,0.0,0.0,-3.39364334968e-05,0.999999999424
1521803960262056112,0.0,0.0,-3.39334017227e-05,0.999999999424
1521803960303384065,0.0,0.0,-3.39232497158e-05,0.999999999425
1521803960303566932,0.0,0.0,-3.39207126385e-05,0.999999999425
1521803960345968961,0.0,0.0,-3.39096827777e-05,0.999999999425
1521803960352224111,0.0,0.0,-3.38897719639e-05,0.999999999426
1521803960390161037,0.0,0.0,-3.38891161244e-05,0.999999999426
1521803960429866075,0.0,0.0,-3.38875880481e-05,0.999999999426
1521803960429938077,0.0,0.0,-3.38827876681e-05,0.999999999426
1521803960470912933,0.0,0.0,-3.38719972706e-05,0.999999999426
1521803960471688032,0.0,0.0,-3.38695515664e-05,0.999999999426
1521803960510027885,0.0,0.0,-3.38631200555e-05,0.999999999427
1521803960550031900,0.0,0.0,-3.38604051141e-05,0.999999999427
1521803960590009927,0.0,0.0,-3.38606538488e-05,0.999999999427
1521803960590081930,0.0,0.0,-3.38571406528e-05,0.999999999427
1521803960629940032,0.0,0.0,-3.38538479136e-05,0.999999999427
1521803960630076885,0.0,0.0,-3.3848610911e-05,0.999999999427
1521803960670001983,0.0,0.0,-3.38470393619e-05,0.999999999427
1521803960675744056,0.0,0.0,-3.38440338178e-05,0.999999999427
1521803960716075897,0.0,0.0,-3.3834918374e-05,0.999999999428
1521803960754117012,0.0,0.0,-3.3833493915e-05,0.999999999428
1521803960794120073,0.0,0.0,-3.38260467378e-05,0.999999999428
1521803960794245958,0.0,0.0,-3.38183817607e-05,0.999999999428
1521803960836828947,0.0,0.0,-3.38168206799e-05,0.999999999428
1521803960837117910,0.0,0.0,-3.38103873825e-05,0.999999999428
1521803960873845100,0.0,0.0,-3.38086950316e-05,0.999999999428
1521803960878473043,0.0,0.0,-3.38023483055e-05,0.999999999429
1521803960918178081,0.0,0.0,-3.37968202144e-05,0.999999999429
1521803960958019971,0.0,0.0,-3.37959278221e-05,0.999999999429
1521803960958129882,0.0,0.0,-3.37879185343e-05,0.999999999429
1521803960999034881,0.0,0.0,-3.3770516339e-05,0.99999999943
1521803961000469923,0.0,0.0,-3.37669324383e-05,0.99999999943
1521803961039576053,0.0,0.0,-3.37625832797e-05,0.99999999943
1521803961077939033,0.0,0.0,-3.3754911677e-05,0.99999999943
1521803961078028917,0.0,0.0,-3.37498188859e-05,0.99999999943
1521803961118148088,0.0,0.0,-3.37379582041e-05,0.999999999431
1521803961131582021,0.0,0.0,-3.37139148709e-05,0.999999999432
1521803961171144962,0.0,0.0,-3.37104697115e-05,0.999999999432
1521803961210244894,0.0,0.0,-3.36944947369e-05,0.999999999432
1521803961210458993,0.0,0.0,-3.36906261122e-05,0.999999999432
1521803961249845027,0.0,0.0,-3.36794331694e-05,0.999999999433
1521803961249953985,0.0,0.0,-3.36740381886e-05,0.999999999433
1521803961290065050,0.0,0.0,-3.3655248937e-05,0.999999999434
1521803961300159931,0.0,0.0,-3.36509923396e-05,0.999999999434
1521803961342324018,0.0,0.0,-3.36469212947e-05,0.999999999434
1521803961386007070,0.0,0.0,-3.3630445899e-05,0.999999999434
1521803961386112928,0.0,0.0,-3.36271453336e-05,0.999999999435
1521803961426521062,0.0,0.0,-3.36107462976e-05,0.999999999435
1521803961426635026,0.0,0.0,-3.36073540991e-05,0.999999999435
1521803961467353105,0.0,0.0,-3.35929609375e-05,0.999999999436
1521803961475820064,0.0,0.0,-3.35900602041e-05,0.999999999436
1521803961515002965,0.0,0.0,-3.3586607221e-05,0.999999999436
1521803961554132938,0.0,0.0,-3.35831596839e-05,0.999999999436
1521803961593987941,0.0,0.0,-3.35771239781e-05,0.999999999436
1521803961594110965,0.0,0.0,-3.35772493946e-05,0.999999999436
1521803961635323047,0.0,0.0,-3.35757086777e-05,0.999999999436
1521803961635834932,0.0,0.0,-3.35715562032e-05,0.999999999436
1521803961675268888,0.0,0.0,-3.35679928098e-05,0.999999999437
1521803961678793907,0.0,0.0,-3.35643000363e-05,0.999999999437
1521803961718113899,0.0,0.0,-3.35611408027e-05,0.999999999437
1521803961758192062,0.0,0.0,-3.3555889446e-05,0.999999999437
1521803961758418083,0.0,0.0,-3.35548430902e-05,0.999999999437
1521803961798238992,0.0,0.0,-3.35421429717e-05,0.999999999437
1521803961814019918,0.0,0.0,-3.35317885276e-05,0.999999999438
1521803961858284950,0.0,0.0,-3.35283541139e-05,0.999999999438
1521803961899061918,0.0,0.0,-3.35156209069e-05,0.999999999438
1521803961899418115,0.0,0.0,-3.35130468615e-05,0.999999999438
1521803961938473939,0.0,0.0,-3.3506549591e-05,0.999999999439
1521803961938735961,0.0,0.0,-3.3504407458e-05,0.999999999439
1521803961978084087,0.0,0.0,-3.34979804707e-05,0.999999999439
1521803961994385004,0.0,0.0,-3.34837481763e-05,0.999999999439
1521803962039149045,0.0,0.0,-3.34817247765e-05,0.999999999439
1521803962078092098,0.0,0.0,-3.34747414231e-05,0.99999999944
1521803962078238964,0.0,0.0,-3.34705254942e-05,0.99999999944
1521803962119201898,0.0,0.0,-3.34670911554e-05,0.99999999944
1521803962123192071,0.0,0.0,-3.3444282345e-05,0.999999999441
1521803962162096977,0.0,0.0,-3.34408150899e-05,0.999999999441
1521803962203258991,0.0,0.0,-3.34225741815e-05,0.999999999441
1521803962203624963,0.0,0.0,-3.34191728816e-05,0.999999999442
1521803962241986989,0.0,0.0,-3.34065907071e-05,0.999999999442
1521803962242114067,0.0,0.0,-3.33999260873e-05,0.999999999442
1521803962282001018,0.0,0.0,-3.33976559129e-05,0.999999999442
1521803962288430929,0.0,0.0,-3.33938668268e-05,0.999999999442
1521803962326103925,0.0,0.0,-3.33761762451e-05,0.999999999443
1521803962370198011,0.0,0.0,-3.33628402136e-05,0.999999999443
1521803962370322942,0.0,0.0,-3.33588776146e-05,0.999999999444
1521803962410149097,0.0,0.0,-3.3346257939e-05,0.999999999444
1521803962418860912,0.0,0.0,-3.33435883534e-05,0.999999999444
1521803962458086013,0.0,0.0,-3.33363568218e-05,0.999999999444
1521803962498375892,0.0,0.0,-3.33330901973e-05,0.999999999444
1521803962537981033,0.0,0.0,-3.33037602433e-05,0.999999999445
1521803962538134098,0.0,0.0,-3.33011411542e-05,0.999999999446
1521803962577826976,0.0,0.0,-3.32980839184e-05,0.999999999446
1521803962577946901,0.0,0.0,-3.32958058125e-05,0.999999999446
1521803962619292974,0.0,0.0,-3.32936922351e-05,0.999999999446
1521803962621927976,0.0,0.0,-3.32860428635e-05,0.999999999446
1521803962661844015,0.0,0.0,-3.32844986214e-05,0.999999999446
1521803962706404924,0.0,0.0,0.000222374148387,0.999999975275
1521803962706665992,0.0,0.0,0.000222375582197,0.999999975275
1521803962745990991,0.0,0.0,0.000222385845012,0.999999975272
1521803962746098041,0.0,0.0,0.000222392158072,0.999999975271
1521803962786021947,0.0,0.0,0.000222392882508,0.999999975271
1521803962793589115,0.0,0.0,0.000222393606944,0.999999975271
1521803962830230951,0.0,0.0,0.00010392651194,0.9999999946
1521803962871280908,0.0,0.0,0.000103938991378,0.999999994598
1521803962871547937,0.0,0.0,0.000103939437892,0.999999994598
1521803962909913063,0.0,0.0,0.000103945050698,0.999999994598
1521803962926583051,0.0,0.0,0.000364981690592,0.999999933394
1521803962965886116,0.0,0.0,0.000364989767234,0.999999933391
1521803963005815982,0.0,0.0,0.000365004419712,0.999999933386
1521803963005892992,0.0,0.0,0.000365005472459,0.999999933386
1521803963046386003,0.0,0.0,0.000365017036015,0.999999933381
1521803963046602964,0.0,0.0,0.000458091223032,0.999999895076
1521803963086011886,0.0,0.0,0.000127528976454,0.999999991868
1521803963091315984,0.0,0.0,0.000127532515412,0.999999991868
1521803963131787061,0.0,0.0,0.000127539885418,0.999999991867
1521803963171191930,0.0,0.0,0.000127550199247,0.999999991865
1521803963210612058,0.0,0.0,-0.000157479847114,0.9999999876
1521803963210696935,0.0,0.0,-0.000157458460278,0.999999987603
1521803963253174066,0.0,0.0,-0.000157445399636,0.999999987605
1521803963253711938,0.0,0.0,-0.000157441878981,0.999999987606
1521803963290128946,0.0,0.0,-0.000157432224047,0.999999987608
1521803963291609048,0.0,0.0,-0.000157428688644,0.999999987608
1521803963330029010,0.0,0.0,-0.000157426961154,0.999999987608
1521803963370023965,0.0,0.0,2.56101507689e-05,0.999999999672
1521803963409951925,0.0,0.0,2.56145804495e-05,0.999999999672
1521803963410053968,0.0,0.0,1.44531836183e-06,0.999999999999
1521803963450227975,0.0,0.0,1.45000435389e-06,0.999999999999
1521803963450454950,0.0,0.0,1.45469034594e-06,0.999999999999
1521803963490509033,0.0,0.0,1.45305104195e-06,0.999999999999
1521803963492774009,0.0,0.0,1.45445685273e-06,0.999999999999
1521803963535141944,0.0,0.0,-3.75196412126e-05,0.999999999296
1521803963574196100,0.0,0.0,-3.75176013985e-05,0.999999999296
1521803963614928960,0.0,0.0,-3.7513446526e-05,0.999999999296
1521803963615381002,0.0,0.0,-3.75091348815e-05,0.999999999297
1521803963654975891,0.0,0.0,-3.75046716473e-05,0.999999999297
1521803963655448913,0.0,0.0,-3.74986009216e-05,0.999999999297
1521803963693780899,0.0,0.0,-3.74967692055e-05,0.999999999297
1521803963706070899,0.0,0.0,1.18161743667e-05,0.99999999993
1521803963746495962,0.0,0.0,1.18170991618e-05,0.99999999993
1521803963785976886,0.0,0.0,1.18181781472e-05,0.99999999993
1521803963786063909,0.0,0.0,1.18217127347e-05,0.99999999993
1521803963826311111,0.0,0.0,1.18286839665e-05,0.99999999993
1521803963826807022,0.0,0.0,1.18301123503e-05,0.99999999993
1521803963866549968,0.0,0.0,1.1836882159e-05,0.99999999993
1521803963874363899,0.0,0.0,1.18400647889e-05,0.99999999993
1521803963915631055,0.0,0.0,1.184445976e-05,0.99999999993
1521803963954720973,0.0,0.0,1.18494517719e-05,0.99999999993
1521803963954893112,0.0,0.0,1.18540258973e-05,0.99999999993
1521803963994019031,0.0,0.0,1.18621859866e-05,0.99999999993
1521803964000251054,0.0,0.0,1.18737229582e-05,0.99999999993
1521803964039627075,0.0,0.0,1.18760655223e-05,0.999999999929
1521803964078027009,0.0,0.0,1.18838419855e-05,0.999999999929
1521803964078146934,0.0,0.0,1.18855598552e-05,0.999999999929
1521803964118427038,0.0,0.0,1.18963943052e-05,0.999999999929
1521803964128885984,0.0,0.0,1.19187552174e-05,0.999999999929
1521803964166172981,0.0,0.0,1.1922492472e-05,0.999999999929
1521803964208512067,0.0,0.0,1.19262297266e-05,0.999999999929
1521803964209049940,0.0,0.0,1.19377935037e-05,0.999999999929
1521803964245919942,0.0,0.0,1.19461941086e-05,0.999999999929
1521803964246088027,0.0,0.0,1.1949575762e-05,0.999999999929
1521803964287156105,0.0,0.0,1.19654768361e-05,0.999999999928
1521803964305923938,0.0,0.0,1.19797041701e-05,0.999999999928
1521803964350713968,0.0,0.0,1.19842214808e-05,0.999999999928
1521803964389942884,0.0,0.0,1.19887945123e-05,0.999999999928
1521803964390064001,0.0,0.0,1.19980516939e-05,0.999999999928
1521803964434514045,0.0,0.0,1.20199025201e-05,0.999999999928
1521803964434880018,0.0,0.0,1.20218536655e-05,0.999999999928
1521803964474371910,0.0,0.0,1.2028653333e-05,0.999999999928
1521803964477921009,0.0,0.0,1.20362443363e-05,0.999999999928
1521803964514942884,0.0,0.0,1.2038950117e-05,0.999999999928
1521803964554038047,0.0,0.0,1.20461364529e-05,0.999999999927
1521803964554182052,0.0,0.0,1.20504097383e-05,0.999999999927
1521803964594290971,0.0,0.0,1.2053800965e-05,0.999999999927
1521803964613524913,0.0,0.0,1.20707669455e-05,0.999999999927
1521803964650717973,0.0,0.0,1.20739255714e-05,0.999999999927
1521803964691303014,0.0,0.0,1.20878019815e-05,0.999999999927
1521803964691438913,0.0,0.0,1.2090696121e-05,0.999999999927
1521803964731074094,0.0,0.0,1.20911706553e-05,0.999999999927
1521803964731190919,0.0,0.0,1.20920329657e-05,0.999999999927
1521803964770760059,0.0,0.0,1.20972169162e-05,0.999999999927
1521803964777198076,0.0,0.0,1.21001442221e-05,0.999999999927
1521803964815090894,0.0,0.0,1.21074312596e-05,0.999999999927
1521803964854551076,0.0,0.0,1.21093730663e-05,0.999999999927
1521803964894299030,0.0,0.0,1.21138420301e-05,0.999999999927
1521803964894418954,0.0,0.0,1.21204017653e-05,0.999999999927
1521803964935035943,0.0,0.0,1.21222934413e-05,0.999999999927
1521803964936022996,0.0,0.0,1.21283803905e-05,0.999999999926
1521803964973927021,0.0,0.0,1.21286262058e-05,0.999999999926
1521803965013945102,0.0,0.0,1.21310855733e-05,0.999999999926
1521803965014038085,0.0,0.0,1.21386713484e-05,0.999999999926
1521803965054066896,0.0,0.0,1.21400525543e-05,0.999999999926
1521803965058639049,0.0,0.0,1.21496235594e-05,0.999999999926
1521803965098381996,0.0,0.0,1.21586410476e-05,0.999999999926
1521803965138552904,0.0,0.0,1.21612171201e-05,0.999999999926
1521803965138819932,0.0,0.0,-5.01208832777e-05,0.999999998744
1521803965177881956,0.0,0.0,-0.000466215325604,0.999999891322
1521803965186341047,0.0,0.0,-0.00217276938068,0.999997639534
1521803965222114086,0.0,0.0,-0.00554268419902,0.999984639208
1521803965261888027,0.0,0.0,-0.00774387942497,0.999970015716
1521803965261998891,0.0,0.0,-0.0190690769649,0.999818168621
1521803965301882982,0.0,0.0,-0.0213283200815,0.999772525509
1521803965310307025,0.0,0.0,-0.0249590523051,0.99968847433
1521803965350167989,0.0,0.0,-0.0327051403168,0.999465043809
1521803965389806032,0.0,0.0,-0.0331621911963,0.999449983278
1521803965389919042,0.0,0.0,-0.0333935768883,0.999442278985
1521803965431472063,0.0,0.0,-0.0334305624206,0.999441042531
1521803965440115928,0.0,0.0,-0.0334395439118,0.999440742067
1521803965478198051,0.0,0.0,-0.0334361720396,0.999440854878
1521803965518955945,0.0,0.0,-0.0334354787569,0.999440878071
1521803965519366025,0.0,0.0,-0.0334351332311,0.999440889631
1521803965559303998,0.0,0.0,-0.0334344438289,0.999440912694
1521803965574106931,0.0,0.0,-0.0335440551841,0.999437239831
1521803965614350080,0.0,0.0,-0.035677506795,0.999363355096
1521803965655097007,0.0,0.0,-0.043239676521,0.99906472782
1521803965655601978,0.0,0.0,-0.0460680308168,0.99893830467
1521803965693993091,0.0,0.0,-0.0485476641994,0.998820866973
1521803965706027030,0.0,0.0,-0.0597444891901,0.998213702576
1521803965745790958,0.0,0.0,-0.0622639273711,0.99805971933
1521803965786042928,0.0,0.0,-0.0647104717357,0.997904080986
1521803965786175966,0.0,0.0,-0.0684758347684,0.997652775294
1521803965825925111,0.0,0.0,-0.0687738166323,0.997632278019
1521803965826035022,0.0,0.0,-0.0694121932226,0.997588065001
1521803965866596937,0.0,0.0,-0.0694068185527,0.997588438956
1521803965868918895,0.0,0.0,-0.0693980498382,0.997589048997
1521803965907064914,0.0,0.0,-0.0693954794564,0.997589227804
1521803965945898056,0.0,0.0,-0.0710170026402,0.997475105121
1521803965945967912,0.0,0.0,-0.0722583943086,0.997385945586
1521803965986351013,0.0,0.0,-0.080714294854,0.996737278628
1521803965993088006,0.0,0.0,-0.0898528063369,0.99595505581
1521803966029782056,0.0,0.0,-0.091964462872,0.99576228969
1521803966070399045,0.0,0.0,-0.100609959763,0.994925944981
1521803966070642948,0.0,0.0,-0.102675827939,0.994714870884
1521803966110044956,0.0,0.0,-0.110845227131,0.993837680722
1521803966122406005,0.0,0.0,-0.119290171372,0.992859433663
1521803966161885023,0.0,0.0,-0.121970557337,0.992533718895
1521803966203375101,0.0,0.0,-0.124311296302,0.992243267355
1521803966203550100,0.0,0.0,-0.128313547709,0.99173365047
1521803966242161035,0.0,0.0,-0.131079235289,0.99137189494
1521803966242394924,0.0,0.0,-0.133548242403,0.991042313401
1521803966281886100,0.0,0.0,-0.135720852333,0.990747117201
1521803966322266101,0.0,0.0,-0.150603891701,0.988594187624
1521803966322452068,0.0,0.0,-0.152244820879,0.988342812245
1521803966362238883,0.0,0.0,-0.154493508299,0.98799380357
1521803966369065046,0.0,0.0,-0.154485316415,0.987995084508
1521803966410535097,0.0,0.0,-0.154485304785,0.987995086327
1521803966450295925,0.0,0.0,-0.154443648425,0.988001598916
1521803966450417995,0.0,0.0,-0.154444011034,0.988001542233
1521803966495347023,0.0,0.0,-0.155283690685,0.987869918262
1521803966497956991,0.0,0.0,-0.156534858912,0.987672434538
1521803966533910989,0.0,0.0,-0.158038172298,0.987433003346
1521803966573892116,0.0,0.0,-0.168164412421,0.98575896161
1521803966573967933,0.0,0.0,-0.172388585573,0.985029022702
1521803966614388942,0.0,0.0,-0.178101270908,0.984012163187
1521803966624831914,0.0,0.0,-0.186687886929,0.9824192755
1521803966662022113,0.0,0.0,-0.189328459183,0.981913812177
1521803966702605962,0.0,0.0,-0.195942979933,0.980615290833
1521803966702771902,0.0,0.0,-0.20421213157,0.978926659827
1521803966742196083,0.0,0.0,-0.205649136558,0.978625787844
1521803966749816894,0.0,0.0,-0.212626410963,0.97713356782
1521803966786411046,0.0,0.0,-0.213401544028,0.976964575103
1521803966827143907,0.0,0.0,-0.220847082682,0.975308446632
1521803966827472925,0.0,0.0,-0.226710830316,0.973962113954
1521803966865832090,0.0,0.0,-0.227585614164,0.973758074794
1521803966872041940,0.0,0.0,-0.230195395406,0.973144429123
1521803966910381078,0.0,0.0,-0.230823170673,0.97299571627
1521803966952584028,0.0,0.0,-0.231267700416,0.972890153483
1521803966952809095,0.0,0.0,-0.231204003043,0.972905292912
1521803966990078926,0.0,0.0,-0.231199473422,0.972906369333
1521803967008198976,0.0,0.0,-0.231193749279,0.972907729589
1521803967046407938,0.0,0.0,-0.231191631299,0.972908232886
1521803967046551942,0.0,0.0,-0.231191529606,0.972908257051
1521803967085937023,0.0,0.0,-0.231191642368,0.972908230256
1521803967092762947,0.0,0.0,-0.231191750766,0.972908204497
1521803967129909038,0.0,0.0,-0.231192039231,0.972908135949
1521803967169850111,0.0,0.0,-0.231192189759,0.972908100179
1521803967210011959,0.0,0.0,-0.231192221811,0.972908092563
1521803967210190057,0.0,0.0,-0.231183605896,0.972910139923
1521803967249838113,0.0,0.0,-0.231182175632,0.972910479782
1521803967252382040,0.0,0.0,-0.231180569252,0.972910861488
1521803967289908885,0.0,0.0,-0.23117987297,0.972911026936
1521803967330009937,0.0,0.0,-0.231178770898,0.972911288806
1521803967370754957,0.0,0.0,-0.231178029406,0.972911464996
1521803967371275901,0.0,0.0,-0.231177752407,0.972911530815
1521803967410069942,0.0,0.0,-0.231176510827,0.972911825831
1521803967410337924,0.0,0.0,-0.231176233265,0.972911891783
1521803967450144052,0.0,0.0,-0.231175376006,0.972912095479
1521803967456641912,0.0,0.0,-0.231174423586,0.972912321784
1521803967495578050,0.0,0.0,-0.231174193938,0.972912376351
1521803967534780979,0.0,0.0,-0.231173516586,0.972912537297
1521803967535125970,0.0,0.0,-0.231173296568,0.972912589575
1521803967575371980,0.0,0.0,-0.231172654313,0.972912742181
1521803967591613054,0.0,0.0,-0.231171835847,0.972912936655
1521803967630829095,0.0,0.0,-0.231233997146,0.972898164539
1521803967670028924,0.0,0.0,-0.232234497857,0.972659826458
1521803967670176029,0.0,0.0,-0.237793584103,0.971315711476
1521803967712014913,0.0,0.0,-0.239553751705,0.970883103182
1521803967712224006,0.0,0.0,-0.24102019098,0.970520101564
1521803967751606941,0.0,0.0,-0.243365917092,0.969934549544
1521803967756612062,0.0,0.0,-0.244319487185,0.969694791252
1521803967794054031,0.0,0.0,-0.2475387946,0.9688779826
1521803967833977937,0.0,0.0,-0.247558081825,0.9688730547
1521803967873990058,0.0,0.0,-0.248182072745,0.968713403834
1521803967874080896,0.0,0.0,-0.249665585995,0.968332120282
1521803967915085077,0.0,0.0,-0.251095162681,0.967962405922
1521803967915601968,0.0,0.0,-0.25796746105,0.966153605303
1521803967953950881,0.0,0.0,-0.264208708961,0.964465529767
1521803967956959962,0.0,0.0,-0.265281001434,0.964171141592
1521803967994064092,0.0,0.0,-0.266922718029,0.963717937262
1521803968034740924,0.0,0.0,-0.266862224612,0.96373469019
1521803968074294090,0.0,0.0,-0.266855236085,0.963736625315
1521803968074347019,0.0,0.0,-0.266844437765,0.963739615267
1521803968114908933,0.0,0.0,-0.266842262013,0.963740217696
1521803968115874052,0.0,0.0,-0.266932443422,0.963715243549
1521803968154063940,0.0,0.0,-0.267336850904,0.963603138304
1521803968195153951,0.0,0.0,-0.26770640023,0.963500536209
1521803968234447956,0.0,0.0,-0.276713042214,0.960952596265
1521803968234675884,0.0,0.0,-0.278668140777,0.960387456871
1521803968273912906,0.0,0.0,-0.280622085154,0.959818339752
1521803968274019002,0.0,0.0,-0.283274807094,0.959038781106
1521803968314349889,0.0,0.0,-0.285260101214,0.958450141977
1521803968314538955,0.0,0.0,-0.285250456818,0.958453012351
1521803968353796005,0.0,0.0,-0.28523256268,0.958458337742
1521803968359391927,0.0,0.0,-0.285229309167,0.958459305966
1521803968398772954,0.0,0.0,-0.285220949535,0.958461793681
1521803968439394950,0.0,0.0,-0.285219300068,0.958462284531
1521803968478030920,0.0,0.0,-0.285617102225,0.958343816653
1521803968478156089,0.0,0.0,-0.288400016894,0.957510015747
1521803968518497943,0.0,0.0,-0.291071756382,0.956701224331
1521803968518616914,0.0,0.0,-0.29588692022,0.955222974202
1521803968558561086,0.0,0.0,-0.298177495085,0.95451044071
1521803968566400051,0.0,0.0,-0.300311340017,0.953841233674
1521803968603001117,0.0,0.0,-0.313033913491,0.949741948639
1521803968642025947,0.0,0.0,-0.315820651466,0.948818905855
1521803968642157077,0.0,0.0,-0.321999721975,0.946739763107
1521803968683837890,0.0,0.0,-0.32418500178,0.94599370221
1521803968690954923,0.0,0.0,-0.326466218763,0.945208870042
1521803968730040073,0.0,0.0,-0.341220894307,0.939983138832
1521803968769963979,0.0,0.0,-0.343062216633,0.939312682507
1521803968770051956,0.0,0.0,-0.349015420344,0.937116981151
1521803968810631036,0.0,0.0,-0.351589169071,0.936154397625
1521803968818176031,0.0,0.0,-0.361564780323,0.932346989929
1521803968859013080,0.0,0.0,-0.36321298161,0.93170613929
1521803968898001909,0.0,0.0,-0.368878344929,0.929477684855
1521803968898154020,0.0,0.0,-0.372540531263,0.928015922582
1521803968940613031,0.0,0.0,-0.373120740492,0.927782794093
1521803968949234008,0.0,0.0,-0.373453860827,0.927648755636
1521803968987328052,0.0,0.0,-0.37515896674,0.926960489813
1521803969030273914,0.0,0.0,-0.376213421974,0.926533032939
1521803969030533075,0.0,0.0,-0.383992849152,0.923336066555
1521803969070094108,0.0,0.0,-0.386327258743,0.922361777803
1521803969071361064,0.0,0.0,-0.39076480511,0.920490557848
1521803969110994100,0.0,0.0,-0.398071225946,0.917354511121
1521803969149986028,0.0,0.0,-0.400065007261,0.916486764752
1521803969150115966,0.0,0.0,-0.404259329399,0.914644408825
1521803969191138982,0.0,0.0,-0.411011867626,0.911629993293
1521803969192519903,0.0,0.0,-0.411569553749,0.91137835306
1521803969229878902,0.0,0.0,-0.415599638848,0.90954765691
1521803969270802974,0.0,0.0,-0.416071839903,0.909331745866
1521803969309869050,0.0,0.0,-0.416618954542,0.909081210188
1521803969309961080,0.0,0.0,-0.416611070501,0.90908482329
1521803969349818944,0.0,0.0,-0.416610611556,0.909085033613
1521803969349932909,0.0,0.0,-0.416609343443,0.909085614756
1521803969389887094,0.0,0.0,-0.416608125007,0.909086173131
1521803969393606901,0.0,0.0,-0.416607284083,0.909086558502
1521803969434554100,0.0,0.0,-0.416660672074,0.909062090479
1521803969474308967,0.0,0.0,-0.416983856426,0.908913892225
1521803969514003992,0.0,0.0,-0.419061239841,0.907957971088
1521803969514185905,0.0,0.0,-0.423772203232,0.905768800394
1521803969555099010,0.0,0.0,-0.426247106209,0.904606767855
1521803969555516958,0.0,0.0,-0.432289712157,0.901734775177
1521803969594144105,0.0,0.0,-0.434051962685,0.900887836353
1521803969598440885,0.0,0.0,-0.44102407029,0.897495275433
1521803969638425111,0.0,0.0,-0.448949360972,0.893557200901
1521803969678199052,0.0,0.0,-0.451084843735,0.89248107193
1521803969678371906,0.0,0.0,-0.45689045073,0.889522971054
1521803969721019029,0.0,0.0,-0.459134704045,0.88836666053
1521803969729921102,0.0,0.0,-0.465675527172,0.884955537523
1521803969771101951,0.0,0.0,-0.466103409413,0.884730248004
1521803969809890985,0.0,0.0,-0.470880036774,0.882197251734
1521803969809979915,0.0,0.0,-0.470938854539,0.882165854749
1521803969849962949,0.0,0.0,-0.470926504494,0.882172447634
1521803969850087881,0.0,0.0,-0.470918784264,0.88217656885
1521803969890880107,0.0,0.0,-0.470914626962,0.882178788066
1521803969895934104,0.0,0.0,-0.470914214604,0.882179008186
1521803969934889078,0.0,0.0,-0.470913301222,0.882179495756
1521803969973892927,0.0,0.0,-0.470912651349,0.882179842662
1521803969974020957,0.0,0.0,-0.470912528175,0.882179908413
1521803970014537096,0.0,0.0,-0.47091198982,0.88218019579
1521803970023993015,0.0,0.0,-0.470912047046,0.882180165242
1521803970062589883,0.0,0.0,-0.470912356504,0.882180000052
1521803970102457046,0.0,0.0,-0.470915039039,0.882178568095
1521803970102562904,0.0,0.0,-0.470915077217,0.882178547715
1521803970142838001,0.0,0.0,-0.470915118376,0.882178525745
1521803970152723073,0.0,0.0,-0.470915101301,0.882178534859
1521803970189980983,0.0,0.0,-0.47091506039,0.882178556698
1521803970230170965,0.0,0.0,-0.470914895152,0.882178644904
1521803970230304956,0.0,0.0,-0.470914818863,0.882178685628
1521803970271043062,0.0,0.0,-0.470914679834,0.882178759842
1521803970281878948,0.0,0.0,-0.47091448024,0.882178866387
1521803970319020032,0.0,0.0,-0.470914401868,0.882178908223
1521803970359041929,0.0,0.0,-0.470914278065,0.88217897431
1521803970397944927,0.0,0.0,-0.470914181051,0.882179026097
1521803970398216009,0.0,0.0,-0.470914103103,0.882179067706
1521803970438395023,0.0,0.0,-0.470914077279,0.882179081491
1521803970438565015,0.0,0.0,-0.470913999267,0.882179123135
1521803970478810071,0.0,0.0,-0.470914052983,0.88217909446
1521803970490212917,0.0,0.0,-0.470914021028,0.882179111518
1521803970531240940,0.0,0.0,-0.47091400707,0.882179118969
1521803970531722068,0.0,0.0,-0.470914000858,0.882179122285
1521803970571392059,0.0,0.0,-0.470913995072,0.882179125374
1521803970583019971,0.0,0.0,-0.470913975058,0.882179136057
1521803970623250961,0.0,0.0,-0.47091396783,0.882179139916
1521803970662460088,0.0,0.0,-0.470913928621,0.882179160846
1521803970662581920,0.0,0.0,-0.472777078328,0.881182066435
1521803970702333927,0.0,0.0,-0.473922511622,0.880566552271
1521803970710429906,0.0,0.0,-0.477850889674,0.878440964003
1521803970751032114,0.0,0.0,-0.479751881921,0.877404200921
1521803970790169954,0.0,0.0,-0.481595791731,0.876393458092
1521803970790383100,0.0,0.0,-0.482052181015,0.876142508259
1521803970830168962,0.0,0.0,-0.482326571995,0.875991482806
1521803970839430093,0.0,0.0,-0.485236918926,0.874382715126
1521803970878035068,0.0,0.0,-0.486508578013,0.873675800008
1521803970919328927,0.0,0.0,-0.49391466352,0.869510382434
1521803970919862985,0.0,0.0,-0.496420166009,0.86808238018
1521803970958038091,0.0,0.0,-0.504018955808,0.863692591253
1521803970958146095,0.0,0.0,-0.506105414781,0.862471628014
1521803970998233079,0.0,0.0,-0.511673982931,0.859179687371
1521803971011436939,0.0,0.0,-0.52015749967,0.854070357486
1521803971050600051,0.0,0.0,-0.521547320132,0.853222358394
1521803971089950084,0.0,0.0,-0.525631992566,0.850712059625
1521803971090080022,0.0,0.0,-0.525928603183,0.850528720476
1521803971134860038,0.0,0.0,-0.526402896237,0.850235256169
1521803971141397953,0.0,0.0,-0.52635736611,0.850263443376
1521803971177886009,0.0,0.0,-0.526353375096,0.850265914008
1521803971218139886,0.0,0.0,-0.526346961282,0.850269884419
1521803971218234062,0.0,0.0,-0.526344452713,0.850271437306
1521803971258577108,0.0,0.0,-0.526344637111,0.850271323158
1521803971264664888,0.0,0.0,-0.526344798867,0.850271223026
1521803971302243947,0.0,0.0,-0.526345461107,0.850270813078
1521803971341979980,0.0,0.0,-0.526345584108,0.850270736936
1521803971342108964,0.0,0.0,-0.526345640265,0.850270702173
1521803971382366895,0.0,0.0,-0.52634572791,0.850270647918
1521803971390440940,0.0,0.0,-0.526345722879,0.850270651032
1521803971430685997,0.0,0.0,-0.526345705504,0.850270661788
1521803971469811916,0.0,0.0,-0.52634569798,0.850270666445
1521803971510005950,0.0,0.0,-0.526345686999,0.850270673244
1521803971510180950,0.0,0.0,-0.526345648654,0.85027069698
1521803971551326990,0.0,0.0,-0.526345641681,0.850270701297
1521803971551795959,0.0,0.0,-0.526345608174,0.850270722038
1521803971590050935,0.0,0.0,-0.52634560099,0.850270726486
1521803971592108964,0.0,0.0,-0.526345572343,0.850270744219
1521803971630027055,0.0,0.0,-0.526345378736,0.850270864068
1521803971670625925,0.0,0.0,-0.526345307982,0.850270907867
1521803971671268939,0.0,0.0,-0.526345177748,0.850270988486
1521803971709863901,0.0,0.0,-0.526345106096,0.850271032841
1521803971718069076,0.0,0.0,-0.526344989194,0.850271105207
1521803971758835077,0.0,0.0,-0.526344918146,0.850271149188
1521803971798137903,0.0,0.0,-0.526344959294,0.850271123716
1521803971798238039,0.0,0.0,-0.52634485335,0.850271189299
1521803971838129043,0.0,0.0,-0.526344847828,0.850271192717
1521803971841095924,0.0,0.0,-0.526344831429,0.850271202869
1521803971877959966,0.0,0.0,-0.526344767871,0.850271242213
1521803971917917966,0.0,0.0,-0.526344754453,0.85027125052
1521803971960206985,0.0,0.0,-0.526633252696,0.850092593283
1521803971960371017,0.0,0.0,-0.527082339482,0.849814219348
1521803971998332977,0.0,0.0,-0.529417384435,0.848361499043
1521803971998496055,0.0,0.0,-0.532948010076,0.846147988567
1521803972037687063,0.0,0.0,-0.535073379743,0.844805586091
1521803972047251939,0.0,0.0,-0.541297874212,0.840830905339
1521803972087439060,0.0,0.0,-0.541683908833,0.840582264214
1521803972126030921,0.0,0.0,-0.543112349062,0.839660036144
1521803972126137018,0.0,0.0,-0.543102966076,0.839666105211
1521803972166027069,0.0,0.0,-0.543071183981,0.839686661279
1521803972167499065,0.0,0.0,-0.543670033938,0.839299049325
1521803972206187963,0.0,0.0,-0.544678001804,0.83864526133
1521803972247415065,0.0,0.0,-0.552805079934,0.833310592516
1521803972247513055,0.0,0.0,-0.555104043026,0.831780921527
1521803972287360906,0.0,0.0,-0.560394796818,0.828225616423
1521803972298151016,0.0,0.0,-0.568622367132,0.822598689275
1521803972337982892,0.0,0.0,-0.570694924924,0.821162165876
1521803972377825975,0.0,0.0,-0.572837294979,0.819669099992
1521803972419437885,0.0,0.0,-0.58638078034,0.810035542707
1521803972419732093,0.0,0.0,-0.586814789342,0.809721188441
1521803972459181070,0.0,0.0,-0.587756925745,0.809037574059
1521803972459628105,0.0,0.0,-0.588051540872,0.808823457423
1521803972499591112,0.0,0.0,-0.58811432889,0.808777803945
1521803972500726938,0.0,0.0,-0.588618598407,0.808410876727
1521803972538758039,0.0,0.0,-0.588980742934,0.808147068579
1521803972578000068,0.0,0.0,-0.591532729166,0.806280987203
1521803972578115940,0.0,0.0,-0.593209332518,0.805048251854
1521803972618782997,0.0,0.0,-0.602899673579,0.797817011349
1521803972627289056,0.0,0.0,-0.614260470121,0.789103335975
1521803972667150020,0.0,0.0,-0.615872913828,0.787845514052
1521803972708918094,0.0,0.0,-0.617482781899,0.786584397289
1521803972709023952,0.0,0.0,-0.620281312477,0.78437943203
1521803972745840072,0.0,0.0,-0.621002869493,0.783808290388
1521803972745929002,0.0,0.0,-0.621193362842,0.783657326873
1521803972786653995,0.0,0.0,-0.621184213534,0.783664579304
1521803972805425882,0.0,0.0,-0.621181121476,0.783667030264
1521803972841839075,0.0,0.0,-0.621180813127,0.783667274679
1521803972881817102,0.0,0.0,-0.621180769249,0.78366730946
1521803972881927967,0.0,0.0,-0.621180854859,0.7836672416
1521803972922359943,0.0,0.0,-0.621180923813,0.783667186943
1521803972936120986,0.0,0.0,-0.621181174687,0.783666988085
1521803972974334955,0.0,0.0,-0.621177936829,0.783669554594
1521803973015311956,0.0,0.0,-0.62117237793,0.783673960839
1521803973015700101,0.0,0.0,-0.621171546687,0.783674619716
1521803973055183887,0.0,0.0,-0.621168406868,0.783677108451
1521803973055397033,0.0,0.0,-0.621167652087,0.783677706714
1521803973093898057,0.0,0.0,-0.621167270844,0.783678008899
1521803973100388050,0.0,0.0,-0.62116692854,0.78367828022
1521803973138097047,0.0,0.0,-0.621166556838,0.783678574842
1521803973177997112,0.0,0.0,-0.621165677064,0.783679272176
1521803973178137063,0.0,0.0,-0.621165417921,0.783679477579
1521803973218842029,0.0,0.0,-0.6211632663,0.783681183007
1521803973223453998,0.0,0.0,-0.621163047322,0.783681356574
1521803973262224912,0.0,0.0,-0.62116283176,0.783681527433
1521803973302804946,0.0,0.0,-0.621161996236,0.783682189687
1521803973302920103,0.0,0.0,-0.62116189327,0.7836822713
1521803973342066049,0.0,0.0,-0.621165747844,0.783679216073
1521803973356858968,0.0,0.0,-0.6211696072,0.783676157026
1521803973393984079,0.0,0.0,-0.621833967528,0.783149102552
1521803973434000015,0.0,0.0,-0.622338790324,0.782747999076
1521803973434140920,0.0,0.0,-0.622843354395,0.782346570188
1521803973473956108,0.0,0.0,-0.628642173614,0.777694681449
1521803973481251001,0.0,0.0,-0.630350999583,0.776310258418
1521803973517812967,0.0,0.0,-0.630408875813,0.776263260303
1521803973558213949,0.0,0.0,-0.630770991952,0.775969043012
1521803973558374881,0.0,0.0,-0.631137462776,0.77567100183
1521803973597980022,0.0,0.0,-0.631859011504,0.775083343635
1521803973607017993,0.0,0.0,-0.634009404133,0.773325336111
1521803973646059989,0.0,0.0,-0.64839191211,0.761306724199
1521803973687303066,0.0,0.0,-0.650304456687,0.759673688904
1521803973725969076,0.0,0.0,-0.658564648739,0.752524154716
1521803973726123094,0.0,0.0,-0.660491706296,0.750833340971
1521803973766485929,0.0,0.0,-0.665215035973,0.746651830451
1521803973766788959,0.0,0.0,-0.667270353113,0.744815598559
1521803973806051969,0.0,0.0,-0.667499402074,0.744610333148
1521803973807066917,0.0,0.0,-0.667790971112,0.744348855646
1521803973846012115,0.0,0.0,-0.66779847853,0.744342120314
1521803973887119054,0.0,0.0,-0.667795484344,0.744344806585
1521803973887584924,0.0,0.0,-0.667790470983,0.744349304335
1521803973926105022,0.0,0.0,-0.667789906108,0.744349811111
1521803973934868097,0.0,0.0,-0.667789058837,0.744350571235
1521803973974040031,0.0,0.0,-0.667785476792,0.744353784826
1521803974018959999,0.0,0.0,-0.66777842518,0.744360111011
1521803974019503116,0.0,0.0,-0.667777899486,0.74436058262
1521803974057946920,0.0,0.0,-0.667775938805,0.744362341574
1521803974058083057,0.0,0.0,-0.667775311878,0.744362903996
1521803974097856998,0.0,0.0,-0.667775017396,0.744363168179
1521803974109389066,0.0,0.0,-0.667774729148,0.744363426769
1521803974147605895,0.0,0.0,-0.667773129424,0.744364861892
1521803974188465118,0.0,0.0,-0.667772806778,0.744365151339
1521803974189003944,0.0,0.0,-0.667771930396,0.744365937544
1521803974226077079,0.0,0.0,-0.66777082222,0.744366931688
1521803974231081008,0.0,0.0,-0.66777052944,0.744367194341
1521803974271092891,0.0,0.0,-0.667769784359,0.744367862752
1521803974310075044,0.0,0.0,-0.667769584004,0.744368042489
1521803974310216903,0.0,0.0,-0.667770150873,0.744367533953
1521803974350197076,0.0,0.0,-0.667920728564,0.744232423612
1521803974357637882,0.0,0.0,-0.668060718089,0.744106764481
1521803974394026994,0.0,0.0,-0.669043446895,0.743223294957
1521803974434716939,0.0,0.0,-0.670072848783,0.74229534373
1521803974474025011,0.0,0.0,-0.673150724075,0.739505309431
1521803974474148035,0.0,0.0,-0.675241750331,0.737596487661
1521803974514113903,0.0,0.0,-0.675477166431,0.737380904032
1521803974516055107,0.0,0.0,-0.675621037526,0.737249085217
1521803974554816007,0.0,0.0,-0.675739397631,0.737140601574
1521803974594639062,0.0,0.0,-0.676661214334,0.736294506985
1521803974594849109,0.0,0.0,-0.678953865014,0.734180937633
1521803974634999990,0.0,0.0,-0.680111336294,0.733108839289
1521803974648155927,0.0,0.0,-0.688723440523,0.725024153028
1521803974687232017,0.0,0.0,-0.689695378976,0.724099636942
1521803974725852012,0.0,0.0,-0.693222780995,0.720723369892
1521803974725956916,0.0,0.0,-0.694103557182,0.719875164114
1521803974769983053,0.0,0.0,-0.694091709119,0.719886587826
1521803974773850917,0.0,0.0,-0.69407030311,0.719907226204
1521803974812534093,0.0,0.0,-0.694058931099,0.719918189909
1521803974854587078,0.0,0.0,-0.694058466659,0.719918637666
1521803974854799985,0.0,0.0,-0.694057943206,0.719919142316
1521803974894098997,0.0,0.0,-0.694056299268,0.719920727196
1521803974894232034,0.0,0.0,-0.694056217422,0.719920806101
1521803974935081958,0.0,0.0,-0.694056175494,0.719920846523
1521803974938555002,0.0,0.0,-0.694078872858,0.71989896392
1521803974977761983,0.0,0.0,-0.694360797197,0.719627044598
1521803975017838954,0.0,0.0,-0.697953337428,0.716143239006
1521803975017904996,0.0,0.0,-0.70334442931,0.710849220129
1521803975057969093,0.0,0.0,-0.704822854392,0.709383354701
1521803975065007925,0.0,0.0,-0.705621925006,0.708588525839
1521803975102780103,0.0,0.0,-0.705685887464,0.708524825418
1521803975141783952,0.0,0.0,-0.705691676248,0.708519059781
1521803975184216976,0.0,0.0,-0.706384757948,0.707828067922
1521803975184844017,0.0,0.0,-0.70678456464,0.707428850971
1521803975221993923,0.0,0.0,-0.710346270608,0.703852382132
1521803975222081899,0.0,0.0,-0.716370731324,0.697719840124
1521803975261941909,0.0,0.0,-0.717867668166,0.696179582437
1521803975266216039,0.0,0.0,-0.718467093442,0.695560950342
1521803975306335926,0.0,0.0,-0.719115959526,0.694890089694
1521803975346772909,0.0,0.0,-0.71958722123,0.69440206728
1521803975346873998,0.0,0.0,-0.71986028219,0.69411899133
1521803975388653039,0.0,0.0,-0.721546082614,0.692366413588
1521803975389772891,0.0,0.0,-0.722438990736,0.691434671292
