%time,field.x,field.y,field.z,field.w
1521814625619380950,2.05560582536e-06,-2.08906644106e-06,-0.707141973018,0.707071587598
1521814625619671106,2.05560731664e-06,-2.08906815568e-06,-0.707141973001,0.707071587615
1521814625619776010,2.05560880678e-06,-2.08906986861e-06,-0.707141972984,0.707071587632
1521814625619848012,2.05561029527e-06,-2.08907157974e-06,-0.707141972967,0.707071587649
1521814625619937896,2.05561178221e-06,-2.08907328921e-06,-0.70714197295,0.707071587666
1521814625620016098,2.05561326778e-06,-2.08907499706e-06,-0.707141972933,0.707071587683
1521814625625617980,2.05561475194e-06,-2.08907670311e-06,-0.707141972916,0.7070715877
1521814625625803947,2.0556162344e-06,-2.08907840764e-06,-0.707141972899,0.707071587717
1521814625625905036,2.05561771553e-06,-2.08908011034e-06,-0.707141972882,0.707071587734
1521814625633800029,2.05561919531e-06,-2.08908181127e-06,-0.707141972865,0.707071587751
1521814625634614944,2.0556206733e-06,-2.08908351064e-06,-0.707141972848,0.707071587768
1521814625634705066,2.05562215018e-06,-2.08908520843e-06,-0.707141972831,0.707071587785
1521814625644911050,2.05562362527e-06,-2.08908690431e-06,-0.707141972814,0.707071587801
1521814625644996881,2.05562509923e-06,-2.08908859871e-06,-0.707141972797,0.707071587818
1521814625645049095,2.05562657145e-06,-2.08909029132e-06,-0.70714197278,0.707071587835
1521814625645133972,2.05562804234e-06,-2.08909198219e-06,-0.707141972763,0.707071587852
1521814625646594047,2.05562951175e-06,-2.08909367143e-06,-0.707141972746,0.707071587869
1521814625646708011,2.05563097971e-06,-2.0890953591e-06,-0.707141972729,0.707071587886
1521814625649342060,2.05563244607e-06,-2.08909704504e-06,-0.707141972712,0.707071587903
1521814625673666000,2.05563391111e-06,-2.08909872925e-06,-0.707141972695,0.70707158792
1521814625727222919,2.05563537462e-06,-2.08910041183e-06,-0.707141972678,0.707071587937
1521814625735919952,2.0556368366e-06,-2.08910209274e-06,-0.707141972661,0.707071587954
1521814625760651111,2.0556382974e-06,-2.08910377196e-06,-0.707141972644,0.707071587971
1521814625813836097,-4.80758132453e-07,-4.77359051305e-06,-0.707142707602,0.70707085293
1521814625816473007,-5.81873636417e-07,-4.84256448483e-06,-0.707143472274,0.707070088178
1521814625845069885,-5.7293629015e-07,-4.84688603144e-06,-0.707143702864,0.707069857564
1521814625886369943,-5.70028274568e-07,-4.84810705732e-06,-0.70714378025,0.70706978017
1521814625891573905,-5.69301842211e-07,-4.84816466414e-06,-0.707143807514,0.707069752904
1521814625896549940,-5.6953315072e-07,-4.84752506464e-06,-0.707143818167,0.707069742249
1521814625929400920,-5.70425230782e-07,-4.84619613169e-06,-0.707143823232,0.707069737183
1521814625929953098,-5.72003280486e-07,-4.84401453557e-06,-0.707143826334,0.707069734081
1521814625941536903,-5.74411875064e-07,-4.84074340999e-06,-0.707143828642,0.707069731773
1521814625955575942,-5.77842181494e-07,-4.83611213753e-06,-0.707143830506,0.707069729909
1521814626000773906,-5.82499609599e-07,-4.82984053899e-06,-0.707143831992,0.707069728423
1521814626041796922,-5.88581963887e-07,-4.82166177964e-06,-0.707143833068,0.707069727347
1521814626041886091,-5.96257967725e-07,-4.81134900623e-06,-0.707143833663,0.707069726752
1521814626081967115,-6.05642883321e-07,-4.79874726466e-06,-0.707143833692,0.707069726723
1521814626082101106,2.0219861264e-06,-2.0463785601e-06,-0.707142491441,0.707071069123
1521814626135324001,1.99491791196e-06,-2.02492058319e-06,-0.707142157138,0.707071403459
1521814626137677907,1.97626680432e-06,-2.00898791079e-06,-0.707142047058,0.707071513551
1521814626174637079,1.9607044505e-06,-1.99445345726e-06,-0.707142009513,0.7070715511
1521814626214020013,1.94633123365e-06,-1.98054250102e-06,-0.707141995843,0.707071564771
1521814626254009962,1.93273207624e-06,-1.96721368533e-06,-0.707141990092,0.707071570522
1521814626254247903,1.91997215644e-06,-1.95465354301e-06,-0.707141987017,0.707071573598
1521814626318828105,1.90826200951e-06,-1.94311029463e-06,-0.707141984904,0.707071575711
1521814626319116115,1.897842665e-06,-1.93283509832e-06,-0.707141983212,0.707071577403
1521814626357950925,1.88894369115e-06,-1.92405877892e-06,-0.707141981785,0.707071578831
1521814626358055114,1.88176585944e-06,-1.91698074056e-06,-0.707141980589,0.707071580027
1521814626358119964,1.87647254068e-06,-1.91176248017e-06,-0.70714197963,0.707071580986
1521814626398658037,1.87318463742e-06,-1.90852325188e-06,-0.707141978924,0.707071581692
1521814626446032047,1.87197737519e-06,-1.90733712591e-06,-0.707141978484,0.707071582132
1521814626486078977,1.87287843555e-06,-1.908231223e-06,-0.70714197832,0.707071582296
1521814626486234903,1.87586727383e-06,-1.91118506945e-06,-0.707141978436,0.70707158218
1521814626486301898,1.88087557473e-06,-1.91613105706e-06,-0.707141978829,0.707071581787
1521814626525760889,1.8877888102e-06,-1.92295598798e-06,-0.707141979489,0.707071581126
1521814626526170015,1.89644885972e-06,-1.93150366314e-06,-0.707141980403,0.707071580212
1521814626567770957,1.90665762818e-06,-1.94157845632e-06,-0.70714198155,0.707071579066
1521814626605987071,1.91818157978e-06,-1.95294979138e-06,-0.707141982902,0.707071577713
1521814626606098890,1.93075708217e-06,-1.96535741774e-06,-0.707141984431,0.707071576184
1521814626656790971,1.94409644004e-06,-1.97851736775e-06,-0.7071419861,0.707071574515
1521814626667820930,1.95789447811e-06,-1.99212845455e-06,-0.707141987872,0.707071572743
1521814626702928066,1.97183552535e-06,-2.005879166e-06,-0.707141989706,0.707071570908
1521814626703265905,1.98560063801e-06,-2.01945479341e-06,-0.707141991561,0.707071569053
1521814626741915941,1.99887489855e-06,-2.03254463536e-06,-0.707141993394,0.70707156722
1521814626752545118,2.01135462183e-06,-2.04484910797e-06,-0.707141995163,0.70707156545
1521814626790283918,2.02275430442e-06,-2.05608660201e-06,-0.707141996829,0.707071563784
1521814626832335948,2.03281315813e-06,-2.06599992781e-06,-0.707141998353,0.70707156226
1521814626832808017,2.04130107789e-06,-2.07436220189e-06,-0.707141999701,0.707071560912
1521814626885544061,2.04802390766e-06,-2.08098203836e-06,-0.707142000842,0.707071559771
1521814626885735988,2.0528278837e-06,-2.08570792985e-06,-0.707142001749,0.707071558863
1521814626922277927,2.05560315381e-06,-2.08843171457e-06,-0.707142002403,0.707071558209
1521814626962131977,2.05628629204e-06,-2.08909105026e-06,-0.707142002789,0.707071557823
1521814626962301015,2.05486175049e-06,-2.0876708412e-06,-0.707142002898,0.707071557715
1521814627003760099,2.0513622155e-06,-2.08420358292e-06,-0.707142002727,0.707071557885
1521814627016171932,2.04586786073e-06,-2.07876861807e-06,-0.707142002282,0.707071558331
1521814627053951978,2.0385045126e-06,-2.07149031935e-06,-0.707142001571,0.707071559042
1521814627094146966,2.02944077125e-06,-2.0625352437e-06,-0.707142000612,0.707071560001
1521814627094284057,2.01888415239e-06,-2.05210831907e-06,-0.707141999427,0.707071561186
1521814627145863056,2.00707633867e-06,-2.04044815562e-06,-0.707141998043,0.70707156257
1521814627148938894,1.99428764843e-06,-2.02782158406e-06,-0.707141996492,0.707071564122
1521814627187644004,1.98081084929e-06,-2.01451754992e-06,-0.70714199481,0.707071565804
1521814627225976943,1.96695445766e-06,-2.00084050071e-06,-0.707141993035,0.707071567579
1521814627265892028,1.95303567766e-06,-1.98710341977e-06,-0.707141991208,0.707071569406
1521814627266021013,1.93937314178e-06,-1.97362066317e-06,-0.707141989371,0.707071571243
1521814627266073942,1.92627961754e-06,-1.96070076745e-06,-0.707141987567,0.707071573048
1521814627306169033,1.91405484981e-06,-1.94863938821e-06,-0.707141985837,0.707071574778
1521814627306363105,1.90297870002e-06,-1.93771253514e-06,-0.70714198422,0.707071576395
1521814627332314968,1.89330474115e-06,-1.9281702557e-06,-0.707141982754,0.707071577861
1521814627352817058,1.88525445509e-06,-1.92023091278e-06,-0.707141981473,0.707071579142
1521814627391303062,1.87901216283e-06,-1.91407618816e-06,-0.707141980406,0.707071580209
1521814627430407047,1.87472080754e-06,-1.90984692387e-06,-0.707141979578,0.707071581037
1521814627470822095,1.87247868227e-06,-1.90763989931e-06,-0.707141979008,0.707071581608
1521814627471626996,1.87233718231e-06,-1.90750561546e-06,-0.707141978709,0.707071581907
1521814627510049104,1.87429962839e-06,-1.90944713916e-06,-0.707141978689,0.707071581927
1521814627510178089,1.87832119228e-06,-1.91342003193e-06,-0.707141978947,0.707071581669
1521814627550118923,1.88430992257e-06,-1.91933336638e-06,-0.707141979478,0.707071581137
1521814627556822061,1.89212884981e-06,-1.92705180675e-06,-0.707141980271,0.707071580344
1521814627594000101,1.90159912165e-06,-1.93639870532e-06,-0.707141981307,0.707071579308
1521814627634020090,1.91250409597e-06,-1.94716014485e-06,-0.707141982563,0.707071578052
1521814627634144067,1.92459429912e-06,-1.95908983401e-06,-0.707141984011,0.707071576604
1521814627673796892,1.93759313501e-06,-1.9719147436e-06,-0.707141985617,0.707071574998
1521814627683381080,1.95120321488e-06,-1.98534135541e-06,-0.707141987344,0.70707157327
1521814627729067087,1.9651131627e-06,-1.99906237948e-06,-0.707141989154,0.70707157146
1521814627766694068,1.97900474052e-06,-2.01276378729e-06,-0.707141991006,0.707071569608
1521814627767007112,1.9925601308e-06,-2.02613199877e-06,-0.707141992857,0.707071567757
1521814627806813955,2.00546920934e-06,-2.03886105947e-06,-0.707141994665,0.707071565949
1521814627807301998,2.01743664164e-06,-2.05065964277e-06,-0.707141996388,0.707071564225
1521814627851296901,2.02818864144e-06,-2.06125771778e-06,-0.707141997989,0.707071562624
1521814627869757890,2.0374792359e-06,-2.07041272923e-06,-0.70714199943,0.707071561183
1521814627906567096,2.04509589493e-06,-2.07791514879e-06,-0.707142000678,0.707071559935
1521814627946530103,2.05086439439e-06,-2.08359326999e-06,-0.707142001705,0.707071558908
1521814627946718931,2.05465280387e-06,-2.08731713808e-06,-0.707142002488,0.707071558124
1521814627986073970,2.05637450607e-06,-2.08900152337e-06,-0.70714200301,0.707071557603
1521814627986475944,2.0559901798e-06,-2.08860787148e-06,-0.707142003258,0.707071557355
1521814628026065111,2.05350870024e-06,-2.08614518501e-06,-0.707142003227,0.707071557386
1521814628068106889,2.04898693625e-06,-2.08166981682e-06,-0.707142002918,0.707071557695
1521814628106087923,2.04252845006e-06,-2.07528417991e-06,-0.707142002338,0.707071558275
1521814628106232881,2.03428112738e-06,-2.06713440326e-06,-0.707142001501,0.707071559112
1521814628106362104,2.02443379324e-06,-2.05740698669e-06,-0.707142000426,0.707071560187
1521814628150415897,2.01321189153e-06,-2.04632453298e-06,-0.707141999139,0.707071561475
1521814628150974035,2.00087232507e-06,-2.03414065294e-06,-0.707141997667,0.707071562946
1521814628189834117,1.98769757635e-06,-2.02113416199e-06,-0.707141996047,0.707071564567
1521814628235100984,1.97398924326e-06,-2.00760269934e-06,-0.707141994314,0.707071566299
1521814628235207080,1.96006113542e-06,-1.99385591688e-06,-0.70714199251,0.707071568104
1521814628273816108,1.94623209291e-06,-1.98020839364e-06,-0.707141990674,0.70707156994
1521814628277417898,1.93281868855e-06,-1.96697243639e-06,-0.70714198885,0.707071571764
1521814628315114021,1.92012798219e-06,-1.95445093383e-06,-0.70714198708,0.707071573535
1521814628354125976,1.90845049381e-06,-1.94293042509e-06,-0.707141985404,0.707071575211
1521814628395714044,1.89805355348e-06,-1.93267454276e-06,-0.707141983861,0.707071576754
1521814628434115886,1.88917518367e-06,-1.92391798013e-06,-0.707141982486,0.707071578129
1521814628475599050,1.88201865207e-06,-1.91686112014e-06,-0.707141981312,0.707071579304
1521814628475693941,1.87674781941e-06,-1.91166544971e-06,-0.707141980365,0.707071580251
1521814628475750923,1.87348338981e-06,-1.90844986394e-06,-0.707141979667,0.707071580949
1521814628514175891,1.87230014877e-06,-1.90728794459e-06,-0.707141979234,0.707071581382
1521814628514313936,1.8732252524e-06,-1.90820627597e-06,-0.707141979077,0.707071581539
1521814628555037975,1.87623760643e-06,-1.91118383574e-06,-0.707141979199,0.707071581417
1521814628561286926,1.8812683498e-06,-1.9161524756e-06,-0.707141979598,0.707071581017
1521814628597944021,1.88820243033e-06,-1.92299847994e-06,-0.707141980266,0.70707158035
1521814628638328075,1.89688123924e-06,-1.93156516791e-06,-0.707141981186,0.70707157943
1521814628638499975,1.90710624076e-06,-1.94165647884e-06,-0.707141982338,0.707071578277
1521814628677930116,1.91864351606e-06,-1.95304145841e-06,-0.707141983696,0.707071576919
1521814628696152925,1.93122911654e-06,-1.96545954461e-06,-0.70714198523,0.707071575385
1521814628734909057,1.94457510397e-06,-1.97862653033e-06,-0.707141986903,0.707071573711
1521814628735336065,1.95837614003e-06,-1.99224106818e-06,-0.707141988679,0.707071571935
1521814628773866891,1.97231647351e-06,-2.00599156712e-06,-0.707141990517,0.707071570097
1521814628776304960,1.98607716553e-06,-2.01956332386e-06,-0.707141992375,0.707071568239
1521814628818278074,1.99934338829e-06,-2.03264572573e-06,-0.707141994211,0.707071566402
1521814628855175971,2.01181162898e-06,-2.04493935955e-06,-0.707141995983,0.70707156463
1521814628893954992,2.0231966355e-06,-2.05616286442e-06,-0.707141997651,0.707071562962
1521814628934089899,2.03323794428e-06,-2.06605937113e-06,-0.707141999176,0.707071561437
1521814628934206962,2.04170584026e-06,-2.07440238131e-06,-0.707142000525,0.707071560088
1521814628974646091,2.04840661422e-06,-2.08100095043e-06,-0.707142001666,0.707071558946
1521814628974946975,2.05318699561e-06,-2.0857040583e-06,-0.707142002574,0.707071558038
1521814629015490055,2.05593766119e-06,-2.0884040645e-06,-0.707142003229,0.707071557384
1521814629015990972,2.05659573646e-06,-2.08903917158e-06,-0.707142003614,0.707071556998
1521814629054244041,2.05514623571e-06,-2.0875948385e-06,-0.707142003723,0.707071556889
1521814629075037956,2.05162240546e-06,-2.08410411324e-06,-0.707142003552,0.70707155706
1521814629115276098,2.046104964e-06,-2.07864687563e-06,-0.707142003107,0.707071557506
1521814629115706920,2.0387202547e-06,-2.07134800854e-06,-0.707142002396,0.707071558216
1521814629154917001,2.02963735547e-06,-2.06237453982e-06,-0.707142001438,0.707071559175
1521814629155163049,2.01906420935e-06,-2.05193181874e-06,-0.707142000253,0.70707156036
1521814629198107004,2.00724286591e-06,-2.04025881718e-06,-0.70714199887,0.707071561743
1521814629206408977,1.99444394196e-06,-2.02762266002e-06,-0.707141997321,0.707071563293
1521814629292710065,1.98096042803e-06,-2.01431251232e-06,-0.70714199564,0.707071564973
1521814629330480098,1.96710098311e-06,-2.00063296181e-06,-0.707141993868,0.707071566746
1521814629330558061,1.95318287018e-06,-1.98689704923e-06,-0.707141992044,0.707071568571
1521814629330611944,1.93952469543e-06,-1.97341910476e-06,-0.70714199021,0.707071570404
1521814629330661058,1.92643911532e-06,-1.96050755455e-06,-0.70714198841,0.707071572205
1521814629372277021,1.91422568169e-06,-1.9484578638e-06,-0.707141986684,0.707071573931
1521814629389938116,1.90316398558e-06,-1.93754577493e-06,-0.707141985072,0.707071575543
1521814629429853916,1.89350725846e-06,-1.92802099781e-06,-0.707141983611,0.707071577004
1521814629429974079,1.88547657612e-06,-1.92010149519e-06,-0.707141982336,0.70707157828
1521814629469722986,1.87925580055e-06,-1.91396849515e-06,-0.707141981274,0.707071579341
1521814629476381063,1.87498737088e-06,-1.90976234284e-06,-0.707141980452,0.707071580163
1521814629514631032,1.87276904494e-06,-1.90757928893e-06,-0.707141979888,0.707071580727
1521814629553855895,1.87265166217e-06,-1.90746928637e-06,-0.707141979596,0.70707158102
1521814629553956031,1.87463798065e-06,-1.90943484652e-06,-0.707141979581,0.707071581034
1521814629594022035,1.87868261467e-06,-1.91343098107e-06,-0.707141979846,0.70707158077
1521814629603126049,1.88469307393e-06,-1.91936623114e-06,-0.707141980384,0.707071580232
1521814629643517017,1.89253188096e-06,-1.92710475963e-06,-0.707141981183,0.707071579433
1521814629682854890,1.90201971743e-06,-1.93646945936e-06,-0.707141982224,0.707071578391
1521814629683159112,1.91293952851e-06,-1.9472460062e-06,-0.707141983486,0.707071577129
1521814629722685098,1.92504149021e-06,-1.95918776306e-06,-0.707141984938,0.707071575677
1521814629726325035,1.93804872657e-06,-1.97202142502e-06,-0.707141986549,0.707071574066
1521814629766719102,1.95166364556e-06,-1.98545327371e-06,-0.707141988281,0.707071572334
1521814629805761098,1.96557474981e-06,-1.99917589978e-06,-0.707141990095,0.70707157052
1521814629805841922,1.97946376412e-06,-2.0128752383e-06,-0.70714199195,0.707071568664
1521814629852484941,1.99301291885e-06,-2.02623775674e-06,-0.707141993803,0.707071566811
1521814629860034942,2.00591222167e-06,-2.03895763138e-06,-0.707141995613,0.707071565
1521814629911076068,2.01786655105e-06,-2.05074374621e-06,-0.707141997339,0.707071563275
1521814629949897050,2.02860241003e-06,-2.06132635581e-06,-0.707141998941,0.707071561673
1521814629950016021,2.03787418426e-06,-2.07046325925e-06,-0.707142000382,0.707071560231
1521814629993868112,2.0454697637e-06,-2.07794534296e-06,-0.707142001631,0.707071558982
1521814629993983983,2.05121539585e-06,-2.08360136613e-06,-0.707142002659,0.707071557954
1521814630033881902,2.05497966296e-06,-2.08730188016e-06,-0.707142003442,0.707071557171
1521814630041057109,2.05667648983e-06,-2.08896219003e-06,-0.707142003963,0.707071556649
1521814630078180074,2.05626711371e-06,-2.08854429273e-06,-0.707142004211,0.707071556402
1521814630078342914,2.05376097243e-06,-2.0860577459e-06,-0.707142004179,0.707071556433
1521814630119102001,2.04921548895e-06,-2.08155944894e-06,-0.70714200387,0.707071556742
1521814630177726984,2.04273475737e-06,-2.07515233976e-06,-0.70714200329,0.707071557322
1521814630215209960,2.03446716221e-06,-2.06698303899e-06,-0.707142002453,0.707071558159
1521814630255920886,2.02460198196e-06,-2.05723849359e-06,-0.707142001379,0.707071559234
1521814630256103992,2.01336505817e-06,-2.04614169859e-06,-0.707142000092,0.707071560521
1521814630256150960,2.00101362713e-06,-2.03394659323e-06,-0.707141998622,0.707071561992
1521814630295041084,1.98783043249e-06,-2.02093225024e-06,-0.707141997003,0.707071563611
1521814630298412084,1.97411725487e-06,-2.00739648871e-06,-0.707141995272,0.707071565342
1521814630339365959,1.96018800433e-06,-1.99364905933e-06,-0.707141993469,0.707071567145
1521814630339730978,1.94636153674e-06,-1.98000455597e-06,-0.707141991637,0.707071568977
1521814630377840995,1.93295435544e-06,-1.96677521689e-06,-0.707141989816,0.707071570798
1521814630379851102,1.92027336764e-06,-1.95426377944e-06,-0.70714198805,0.707071572565
1521814630422378063,1.90860886008e-06,-1.94275655271e-06,-0.707141986378,0.707071574237
1521814630461815118,1.89822785571e-06,-1.93251686568e-06,-0.707141984839,0.707071575776
1521814630461920976,1.8893680022e-06,-1.92377904146e-06,-0.70714198347,0.707071577146
1521814630503395080,1.88223213259e-06,-1.91674303425e-06,-0.707141982301,0.707071578315
1521814630503575086,1.87698362456e-06,-1.9115698542e-06,-0.707141981359,0.707071579257
1521814630542584896,1.873742661e-06,-1.90837788201e-06,-0.707141980667,0.707071579949
1521814630582163095,1.87258348023e-06,-1.90724015941e-06,-0.70714198024,0.707071580375
1521814630622647047,1.87353267741e-06,-1.90818271726e-06,-0.707141980089,0.707071580526
1521814630661974906,1.87656859654e-06,-1.91118397901e-06,-0.707141980218,0.707071580398
1521814630662100076,1.88162182701e-06,-1.91617525423e-06,-0.707141980623,0.707071579993
1521814630662168025,1.88857679185e-06,-1.92304230958e-06,-0.707141981296,0.70707157932
1521814630703051090,1.89727439416e-06,-1.93162798279e-06,-0.707141982222,0.707071578394
1521814630703239917,1.90751565803e-06,-1.94173577893e-06,-0.707141983379,0.707071577236
1521814630753503084,1.91906628213e-06,-1.95313436676e-06,-0.707141984743,0.707071575872
1521814630756509065,1.93166200218e-06,-1.96556287299e-06,-0.707141986281,0.707071574334
1521814630793953895,1.94501463829e-06,-1.97873685235e-06,-0.707141987959,0.707071572656
1521814630833918094,1.95881868993e-06,-1.99235479772e-06,-0.707141989739,0.707071570876
1521814630834036111,1.97275832682e-06,-2.00610504039e-06,-0.70714199158,0.707071569034
1521814630875121116,1.98651461576e-06,-2.01967288319e-06,-0.707141993441,0.707071567173
1521814630908561944,1.99977281976e-06,-2.03274780337e-06,-0.707141995279,0.707071565335
1521814630945895910,2.01222959942e-06,-2.04503055916e-06,-0.707141997052,0.707071563561
1521814630986783027,2.02359995492e-06,-2.05624003903e-06,-0.707141998721,0.707071561892
1521814630987341880,2.03362374776e-06,-2.06611969505e-06,-0.707142000248,0.707071560365
1521814630987626075,2.04207165374e-06,-2.07444341463e-06,-0.707142001597,0.707071559016
1521814631026034116,2.04875041101e-06,-2.08102069528e-06,-0.707142002738,0.707071557874
1521814631054258108,2.05350724315e-06,-2.08570100427e-06,-0.707142003646,0.707071556966
1521814631093914031,2.05623335563e-06,-2.08837722312e-06,-0.7071420043,0.707071556312
1521814631093992948,2.05686642598e-06,-2.08898809906e-06,-0.707142004686,0.707071555927
1521814631135418891,2.05539203082e-06,-2.08751964608e-06,-0.707142004794,0.707071555819
1521814631135878086,2.05184397626e-06,-2.08400546427e-06,-0.707142004623,0.70707155599
1521814631174802064,2.04630352517e-06,-2.07852597057e-06,-0.707142004176,0.707071556436
1521814631220324993,2.03889753772e-06,-2.0712065576e-06,-0.707142003466,0.707071557147
1521814631258579969,2.02979556884e-06,-2.06221472342e-06,-0.707142002507,0.707071558106
1521814631258793115,2.0192059881e-06,-2.05175623833e-06,-0.707142001323,0.70707155929
1521814631298640966,2.0073712114e-06,-2.04007043489e-06,-0.707141999941,0.707071560673
1521814631298717975,1.99456215312e-06,-2.02742473126e-06,-0.707141998392,0.707071562221
1521814631337973117,1.98107202598e-06,-2.01410851118e-06,-0.707141996713,0.707071563901
1521814631339606046,1.96720963059e-06,-2.00042650182e-06,-0.707141994942,0.707071565672
1521814631394570112,1.95329228753e-06,-1.98669180038e-06,-0.70714199312,0.707071567494
1521814631433998107,1.93963857553e-06,-1.97321870955e-06,-0.70714199129,0.707071569325
1521814631434127092,1.92656103925e-06,-1.96031554475e-06,-0.707141989493,0.707071571122
1521814631475214004,1.91435903676e-06,-1.9482775797e-06,-0.70714198777,0.707071572845
1521814631475469112,1.90331188764e-06,-1.93738028857e-06,-0.707141986163,0.707071574452
1521814631519112110,1.89367248057e-06,-1.92787304304e-06,-0.707141984707,0.707071575909
1521814631519412040,1.88566148574e-06,-1.91997340504e-06,-0.707141983436,0.707071577179
1521814631558563947,1.87946230444e-06,-1.9138621481e-06,-0.70714198238,0.707071578235
1521814631558657884,1.87521687204e-06,-1.90967912033e-06,-0.707141981564,0.707071579052
1521814631621011018,1.87302241044e-06,-1.90752004334e-06,-0.707141981005,0.70707157961
1521814631621191024,1.8729292032e-06,-1.90743432182e-06,-0.707141980719,0.707071579897
1521814631659019947,1.87493944549e-06,-1.90942391141e-06,-0.70714198071,0.707071579906
1521814631698215961,1.87900719467e-06,-1.9134432746e-06,-0.70714198098,0.707071579635
1521814631698376893,1.88503942165e-06,-1.9194004209e-06,-0.707141981524,0.707071579092
1521814631698446989,1.89289814136e-06,-1.92715901257e-06,-0.707141982328,0.707071578287
1521814631739017963,1.90240357013e-06,-1.93654148341e-06,-0.707141983375,0.70707157724
1521814631751897096,1.91333824117e-06,-1.9473331028e-06,-0.707141984642,0.707071575973
1521814631791104078,1.92545198078e-06,-1.95928688926e-06,-0.707141986099,0.707071574516
1521814631830245971,1.93846763387e-06,-1.97212926255e-06,-0.707141987714,0.707071572901
1521814631830374956,1.95208740664e-06,-1.9855663055e-06,-0.707141989449,0.707071571165
1521814631874825000,1.96599968078e-06,-1.99929048987e-06,-0.707141991267,0.707071569348
1521814631880449056,1.97988614495e-06,-2.01298771545e-06,-0.707141993124,0.70707156749
1521814631928045988,1.99342907847e-06,-2.02634449854e-06,-0.70714199498,0.707071565634
1521814631965965986,2.00631862194e-06,-2.03905514672e-06,-0.707141996792,0.707071563821
1521814631966063022,2.01825986768e-06,-2.05082875546e-06,-0.707141998519,0.707071562094
1521814632005796909,2.02897960865e-06,-2.06139586601e-06,-0.707142000121,0.707071560491
1521814632005867958,2.03823259021e-06,-2.07051463232e-06,-0.707142001564,0.707071559049
1521814632045941114,2.0458071226e-06,-2.07797635611e-06,-0.707142002812,0.7070715578
1521814632088704109,2.05152992599e-06,-2.08361026315e-06,-0.70714200384,0.707071556773
1521814632126575946,2.05527009558e-06,-2.08728741111e-06,-0.707142004623,0.70707155599
1521814632126898050,2.05694209812e-06,-2.08892364002e-06,-0.707142005143,0.707071555469
1521814632127036094,2.05650772967e-06,-2.08848149816e-06,-0.70714200539,0.707071555222
1521814632169819116,2.05397699081e-06,-2.08597109845e-06,-0.707142005358,0.707071555254
1521814632176096916,2.04940785794e-06,-2.08144988631e-06,-0.707142005048,0.707071555564
1521814632213924884,2.04290495746e-06,-2.07502132454e-06,-0.707142004468,0.707071556145
1521814632253914117,2.03461717167e-06,-2.0668325249e-06,-0.707142003631,0.707071556982
1521814632298099994,2.02473423203e-06,-2.05707088088e-06,-0.707142002556,0.707071558057
1521814632298203945,2.01348237725e-06,-2.04595977885e-06,-0.707142001269,0.707071559344
1521814632339210033,2.00111917602e-06,-2.03375348605e-06,-0.707141999799,0.707071560814
1521814632371692895,1.98792763241e-06,-2.02073133138e-06,-0.707141998181,0.707071562432
1521814632411936998,1.97420970868e-06,-2.00719131306e-06,-0.707141996452,0.707071564162
1521814632412617921,1.96027941448e-06,-1.99344327927e-06,-0.707141994651,0.707071565963
1521814632450035095,1.94645562029e-06,-1.97980183818e-06,-0.707141992821,0.707071567793
1521814632450134992,1.93305475916e-06,-1.9665791581e-06,-0.707141991003,0.707071569611
1521814632490745067,1.92038358455e-06,-1.95407782437e-06,-0.70714198924,0.707071571375
1521814632490853071,1.90873214949e-06,-1.94258391518e-06,-0.707141987572,0.707071573043
1521814632530101060,1.89836716863e-06,-1.93236045509e-06,-0.707141986038,0.707071574577
1521814632551995038,1.88952591358e-06,-1.92364139593e-06,-0.707141984673,0.707071575942
1521814632590796947,1.88241078286e-06,-1.91662626294e-06,-0.707141983509,0.707071577107
1521814632630176067,1.87718467049e-06,-1.91147558898e-06,-0.707141982572,0.707071578043
1521814632630378007,1.87396723768e-06,-1.9083072397e-06,-0.707141981886,0.70707157873
1521814632669992923,1.87283217506e-06,-1.9071937167e-06,-0.707141981465,0.707071579151
1521814632683197021,1.87380551698e-06,-1.90816049725e-06,-0.707141981319,0.707071579296
1521814632725397109,1.87686504589e-06,-1.91118545094e-06,-0.707141981453,0.707071579162
1521814632725819110,1.88194080163e-06,-1.91619934526e-06,-0.707141981864,0.707071578751
1521814632762031078,1.88891668299e-06,-1.92308742932e-06,-0.707141982543,0.707071578073
1521814632762145996,1.89763310544e-06,-1.93169206025e-06,-0.707141983474,0.707071577142
1521814632802902936,1.90789065318e-06,-1.9418163092e-06,-0.707141984636,0.707071575979
1521814632803880929,1.91945464348e-06,-1.95322846887e-06,-0.707141986004,0.707071574611
1521814632855063915,1.93206049728e-06,-1.96566735549e-06,-0.707141987546,0.707071573068
1521814632894092082,1.94541979395e-06,-1.97884828674e-06,-0.707141989228,0.707071571386
1521814632894243955,1.95922687159e-06,-1.99246959639e-06,-0.707141991011,0.707071569603
1521814632934094905,1.97316582158e-06,-2.00621953913e-06,-0.707141992855,0.707071567759
1521814632934218883,1.98691771785e-06,-2.01978342491e-06,-0.707141994718,0.707071565895
1521814632975778102,2.00016791475e-06,-2.03285082178e-06,-0.707141996558,0.707071564055
1521814632988327980,2.0126132476e-06,-2.04512266058e-06,-0.707141998333,0.70707156228
1521814633026982069,2.02396896956e-06,-2.05631807979e-06,-0.707142000003,0.70707156061
1521814633066040039,2.03397526813e-06,-2.0661808535e-06,-0.70714200153,0.707071559083
1521814633066162109,2.04240321079e-06,-2.07448525617e-06,-0.707142002879,0.707071557733
1521814633106093883,2.04905998347e-06,-2.08104122721e-06,-0.707142004021,0.707071556592
1521814633106242895,2.05379330437e-06,-2.08569872207e-06,-0.707142004928,0.707071555684
1521814633146030902,2.05649490809e-06,-2.08835114478e-06,-0.707142005581,0.707071555031
1521814633182229995,2.05710302428e-06,-2.08893778735e-06,-0.707142005966,0.707071554647
1521814633219336032,2.05560379193e-06,-2.08744521857e-06,-0.707142006073,0.707071554539
1521814633219774961,2.05203157694e-06,-2.08390759093e-06,-0.707142005901,0.707071554711
1521814633259308099,2.04646818612e-06,-2.07840585789e-06,-0.707142005454,0.707071555159
1521814633259850025,2.03904099624e-06,-2.07106592157e-06,-0.707142004742,0.70707155587
1521814633298966884,2.02992003854e-06,-2.06205574994e-06,-0.707142003783,0.707071556829
1521814633299355983,2.01931410874e-06,-2.051581533e-06,-0.707142002599,0.707071558014
1521814633339083909,2.00746598811e-06,-2.03988296378e-06,-0.707142001217,0.707071559396
1521814633354422092,1.99464688789e-06,-2.02722775292e-06,-0.707141999669,0.707071560945
1521814633393774986,1.98115024185e-06,-2.01390550183e-06,-0.70714199799,0.707071562623
1521814633433772087,1.96728499116e-06,-2.00022107603e-06,-0.707141996221,0.707071564393
1521814633433844089,1.95336851334e-06,-1.98648762835e-06,-0.707141994401,0.707071566213
1521814633490155935,1.93971935861e-06,-1.97301943293e-06,-0.707141992573,0.707071568041
1521814633492016077,1.92664995892e-06,-1.96012469364e-06,-0.707141990779,0.707071569836
1521814633531176090,1.91445947736e-06,-1.94809849143e-06,-0.70714198906,0.707071571555
1521814633570281028,1.90342696127e-06,-1.93721603165e-06,-0.707141987456,0.707071573159
1521814633570457935,1.89380495605e-06,-1.92772634703e-06,-0.707141986004,0.707071574611
1521814633609961986,1.88581372502e-06,-1.91984659767e-06,-0.707141984738,0.707071575877
1521814633610071897,1.87963620853e-06,-1.91375710248e-06,-0.707141983687,0.707071576928
1521814633650836944,1.87541383783e-06,-1.90959721162e-06,-0.707141982876,0.70707157774
1521814633660942077,1.87324329828e-06,-1.90746211769e-06,-0.707141982323,0.707071578293
1521814633698824882,1.87317431775e-06,-1.90740067669e-06,-0.707141982042,0.707071578574
1521814633738131999,1.87520852849e-06,-1.90941428905e-06,-0.707141982039,0.707071578577
1521814633738267898,1.8792994307e-06,-1.91345686752e-06,-0.707141982314,0.707071578301
1521814633780489921,1.88535345721e-06,-1.91943589082e-06,-0.707141982863,0.707071577752
1521814633781620025,1.89323211553e-06,-1.92721452056e-06,-0.707141983673,0.707071576943
1521814633818243980,1.90275515746e-06,-1.93661473247e-06,-0.707141984725,0.70707157589
1521814633871121883,1.91370470451e-06,-1.94742139004e-06,-0.707141985996,0.707071574619
1521814633910173892,1.92583023444e-06,-1.959387168e-06,-0.707141987457,0.707071573158
1521814633910326957,1.93885431381e-06,-1.97223821186e-06,-0.707141989076,0.707071571539
1521814633950042963,1.95247894772e-06,-1.98568040621e-06,-0.707141990815,0.7070715698
1521814633950206995,1.96639239836e-06,-1.9994061054e-06,-0.707141992635,0.707071567979
1521814633989895105,1.98027631916e-06,-2.01310117466e-06,-0.707141994495,0.707071566119
1521814633989986896,1.99381303907e-06,-2.02645217981e-06,-0.707141996353,0.707071564261
1521814634035080909,2.0066928327e-06,-2.03915356111e-06,-0.707141998166,0.707071562447
1521814634035537958,2.01862100748e-06,-2.05091462643e-06,-0.707141999894,0.707071560719
1521814634074393033,2.02932464688e-06,-2.06146620423e-06,-0.707142001497,0.707071559116
1521814634076539039,2.03855885652e-06,-2.0705668044e-06,-0.707142002939,0.707071557674
1521814634114001035,2.0461123681e-06,-2.07800814473e-06,-0.707142004187,0.707071556425
1521814634153815031,2.05181237446e-06,-2.08361991748e-06,-0.707142005214,0.707071555398
1521814634193792104,2.05552848423e-06,-2.08727368729e-06,-0.707142005996,0.707071554616
1521814634193911075,2.05717570667e-06,-2.08888582971e-06,-0.707142006516,0.707071554096
1521814634234184026,2.05671639684e-06,-2.08841944429e-06,-0.707142006762,0.70707155385
1521814634234352111,2.05416111776e-06,-2.08588519908e-06,-0.707142006729,0.707071553883
1521814634281255960,2.04956839926e-06,-2.08134108565e-06,-0.707142006418,0.707071554195
1521814634302664041,2.04304339953e-06,-2.07489109101e-06,-0.707142005836,0.707071554776
1521814634338972091,2.03473549838e-06,-2.06668281768e-06,-0.707142004998,0.707071555614
1521814634378968000,2.02483487926e-06,-2.05690410496e-06,-0.707142003923,0.70707155669
1521814634379543066,2.0135681778e-06,-2.04577873055e-06,-0.707142002636,0.707071557977
1521814634379719972,2.0011932942e-06,-2.0335612882e-06,-0.707142001166,0.707071559447
1521814634419404029,1.98799349177e-06,-2.02053136225e-06,-0.707141999549,0.707071561065
1521814634439513921,1.97427091371e-06,-2.00698712902e-06,-0.70714199782,0.707071562793
1521814634477890014,1.9603396681e-06,-1.99323853348e-06,-0.707141996021,0.707071564592
1521814634477993011,1.94651863924e-06,-1.97960019688e-06,-0.707141994193,0.707071566421
1521814634518071889,1.9331241887e-06,-1.96638421674e-06,-0.707141992378,0.707071568237
1521814634528053045,1.92046291536e-06,-1.95389302543e-06,-0.707141990617,0.707071569997
1521814634565936088,1.90882463761e-06,-1.94241246931e-06,-0.707141988953,0.707071571662
1521814634605973005,1.89847576074e-06,-1.93220526761e-06,-0.707141987422,0.707071573192
1521814634645939111,1.88965318003e-06,-1.9235050003e-06,-0.707141986062,0.707071574553
1521814634646039009,1.88255885858e-06,-1.91651076309e-06,-0.707141984902,0.707071575713
1521814634686151981,1.87735520615e-06,-1.91138261054e-06,-0.707141983971,0.707071576645
1521814634687818050,1.87416136188e-06,-1.90823789366e-06,-0.707141983289,0.707071577327
1521814634725914001,1.87305046897e-06,-1.90714857326e-06,-0.707141982873,0.707071577743
1521814634766133069,1.87404800022e-06,-1.908139573e-06,-0.707141982733,0.707071577883
1521814634766310930,1.87713117681e-06,-1.91118820841e-06,-0.707141982872,0.707071577743
1521814634806550979,1.88222948953e-06,-1.91622470546e-06,-0.707141983288,0.707071577327
1521814634815402984,1.88922631295e-06,-1.92313379624e-06,-0.707141983972,0.707071576643
1521814634853804111,1.89796157539e-06,-1.93175735718e-06,-0.707141984908,0.707071575708
1521814634853912115,1.90823542232e-06,-1.94189802661e-06,-0.707141986075,0.70707157454
1521814634915471076,1.91981278988e-06,-1.95332372189e-06,-0.707141987447,0.707071573168
1521814634941178083,1.93242878513e-06,-1.96577294943e-06,-0.707141988993,0.707071571622
1521814634981093883,1.94579474761e-06,-1.97896079053e-06,-0.707141990678,0.707071569936
1521814635020735025,1.95960485488e-06,-1.99258542121e-06,-0.707141992464,0.70707156815
1521814635020940065,1.97354312136e-06,-2.00633502038e-06,-0.707141994311,0.707071566303
1521814635021019935,1.98729062868e-06,-2.01989490617e-06,-0.707141996176,0.707071564438
1521814635058197975,2.00053282404e-06,-2.03295473832e-06,-0.707141998017,0.707071562596
1521814635058330059,2.01296671793e-06,-2.0452156211e-06,-0.707141999793,0.70707156082
1521814635076805114,2.02430781762e-06,-2.05639694413e-06,-0.707142001464,0.707071559149
1521814635123676061,2.03429663737e-06,-2.06624280442e-06,-0.707142002991,0.707071557622
1521814635165560960,2.04270463682e-06,-2.07452786345e-06,-0.70714200434,0.707071556273
1521814635165982961,2.04933945094e-06,-2.08106250414e-06,-0.70714200548,0.707071555132
1521814635202442884,2.05404929227e-06,-2.08569716991e-06,-0.707142006387,0.707071554225
1521814635239247083,2.05672642521e-06,-2.08832578769e-06,-0.707142007039,0.707071553573
1521814635278312921,2.05730963184e-06,-2.08888819468e-06,-0.707142007422,0.70707155319
1521814635278563022,2.05578561338e-06,-2.0873715144e-06,-0.707142007528,0.707071553084
1521814635318152904,2.0521892954e-06,-2.08381045153e-06,-0.707142007355,0.707071553258
1521814635318325042,2.04660302866e-06,-2.07828649621e-06,-0.707142006906,0.707071553706
1521814635359282970,2.03915470572e-06,-2.07092605913e-06,-0.707142006194,0.707071554418
1521814635394083023,2.03001483406e-06,-2.06189757786e-06,-0.707142005234,0.707071555378
1521814635435435056,2.01939263421e-06,-2.05140766153e-06,-0.707142004049,0.707071556564
1521814635476584911,2.0075312527e-06,-2.03969636295e-06,-0.707142002667,0.707071557946
1521814635477684020,1.99470219631e-06,-2.02703168397e-06,-0.707142001119,0.707071559494
1521814635478297948,1.98119911937e-06,-2.01370344327e-06,-0.707141999441,0.707071561172
1521814635514005899,1.96733110271e-06,-2.00001664349e-06,-0.707141997673,0.707071562941
1521814635514158010,1.95341557944e-06,-1.98628449207e-06,-0.707141995855,0.707071564759
1521814635528919935,1.93977107034e-06,-1.97282123378e-06,-0.707141994028,0.707071566586
1521814635553968906,1.9267098934e-06,-1.95993495985e-06,-0.707141992237,0.707071568378
1521814635617825031,1.91453101618e-06,-1.94792055755e-06,-0.707141990521,0.707071570094
1521814635655579090,1.90351321303e-06,-1.9370529629e-06,-0.70714198892,0.707071571694
1521814635698206901,1.89390868506e-06,-1.92758086828e-06,-0.707141987472,0.707071573143
1521814635698374032,1.88593728777e-06,-1.91972103185e-06,-0.707141986211,0.707071574405
1521814635738240003,1.87978150036e-06,-1.9136533169e-06,-0.707141985164,0.707071575451
1521814635738411903,1.87558224941e-06,-1.90951657539e-06,-0.707141984358,0.707071576258
1521814635738534927,1.87343568363e-06,-1.90740547073e-06,-0.70714198381,0.707071576806
1521814635780415058,1.87339097481e-06,-1.90736830978e-06,-0.707141983533,0.707071577082
1521814635780689954,1.87544919206e-06,-1.90940593796e-06,-0.707141983535,0.70707157708
1521814635818888902,1.87956327911e-06,-1.91347171838e-06,-0.707141983816,0.707071576799
1521814635858921051,1.88563913077e-06,-1.91947259929e-06,-0.70714198437,0.707071576245
1521814635899125099,1.89353774753e-06,-1.92727124236e-06,-0.707141985184,0.707071575431
1521814635899230957,1.90307841712e-06,-1.9366891653e-06,-0.707141986241,0.707071574374
1521814635939249038,1.91404285033e-06,-1.94751082677e-06,-0.707141987516,0.707071573098
1521814635974174022,1.92618017679e-06,-1.95948855807e-06,-0.707141988982,0.707071571633
1521814636012658119,1.93921268603e-06,-1.97234823172e-06,-0.707141990603,0.707071570011
1521814636050477981,1.95284218256e-06,-1.98579553491e-06,-0.707141992346,0.707071568269
1521814636050640106,1.96675681022e-06,-1.99952270534e-06,-0.707141994168,0.707071566446
1521814636090076923,1.98063818803e-06,-2.01321557482e-06,-0.70714199603,0.707071564583
1521814636090364933,1.99416869606e-06,-2.02656075979e-06,-0.70714199789,0.707071562724
1521814636090459108,2.00703874359e-06,-2.039252834e-06,-0.707141999704,0.707071560909
1521814636133347988,2.01895385379e-06,-2.05100131856e-06,-0.707142001432,0.707071559181
1521814636133814096,2.0296414019e-06,-2.06153733027e-06,-0.707142003035,0.707071557577
1521814636173881053,2.03885685466e-06,-2.07061973527e-06,-0.707142004477,0.707071556135
1521814636219459056,2.04638936546e-06,-2.07804066815e-06,-0.707142005725,0.707071554887
1521814636219743013,2.05206660058e-06,-2.08363028875e-06,-0.707142006751,0.707071553861
1521814636259365081,2.0557586827e-06,-2.08726066868e-06,-0.707142007532,0.70707155308
1521814636262211084,2.05738116352e-06,-2.08884871895e-06,-0.70714200805,0.707071552562
1521814636303194999,2.05689695712e-06,-2.08835809106e-06,-0.707142008295,0.707071552317
1521814636341839075,2.05431718915e-06,-2.08580000811e-06,-0.70714200826,0.707071552352
1521814636341958045,2.049700943e-06,-2.08123300708e-06,-0.707142007948,0.707071552664
1521814636383184909,2.04315390758e-06,-2.07476159941e-06,-0.707142007365,0.707071553247
1521814636401154994,2.03482595994e-06,-2.06653387778e-06,-0.707142006526,0.707071554087
1521814636438024997,2.02490773565e-06,-2.05673812692e-06,-0.70714200545,0.707071555163
1521814636478260040,2.01362626585e-06,-2.04559851446e-06,-0.707142004162,0.707071556451
1521814636478419065,2.0012397816e-06,-2.03336996032e-06,-0.707142002692,0.707071557921
1521814636520714044,1.98803180444e-06,-2.02033230352e-06,-0.707142001075,0.707071559538
1521814636520977020,1.97430465772e-06,-2.00678389723e-06,-0.707141999347,0.707071561266
1521814636558480024,1.96037254714e-06,-1.99303478265e-06,-0.707141997549,0.707071563064
1521814636558867931,1.94655436951e-06,-1.97939959288e-06,-0.707141995723,0.707071564891
1521814636610761880,1.93316641427e-06,-1.96619035359e-06,-0.70714199391,0.707071566705
1521814636611005067,1.92051512432e-06,-1.95370934342e-06,-0.707141992152,0.707071568462
1521814636650660037,1.90889008271e-06,-1.94224217568e-06,-0.70714199049,0.707071570124
1521814636690114021,1.8985573847e-06,-1.93205126375e-06,-0.707141988964,0.707071571651
1521814636731026887,1.88975354821e-06,-1.92336981511e-06,-0.707141987607,0.707071573008
1521814636770137071,1.88268010029e-06,-1.91639649496e-06,-0.707141986451,0.707071574164
1521814636770277976,1.8774989662e-06,-1.91129087957e-06,-0.707141985524,0.707071575091
1521814636770320892,1.87432876269e-06,-1.90816980431e-06,-0.707141984847,0.707071575768
1521814636813958883,1.87324208471e-06,-1.90710468926e-06,-0.707141984436,0.707071576179
1521814636814096927,1.87426384417e-06,-1.90811990454e-06,-0.707141984301,0.707071576314
1521814636857837915,1.87737070059e-06,-1.91119221171e-06,-0.707141984445,0.70707157617
1521814636878770112,1.8824915961e-06,-1.91625129498e-06,-0.707141984866,0.707071575749
1521814636918615102,1.88950938138e-06,-1.92318137028e-06,-0.707141985555,0.707071575061
1521814636918718099,1.89826349836e-06,-1.9318238338e-06,-0.707141986495,0.70707157412
1521814636964857101,1.90855365385e-06,-1.94198089153e-06,-0.707141987666,0.707071572949
1521814636965672016,1.92014440406e-06,-1.95342008579e-06,-0.707141989042,0.707071571572
1521814637007180929,1.93277054285e-06,-1.96587961476e-06,-0.707141990592,0.707071570022
1521814637046211004,1.94614317063e-06,-1.97907432403e-06,-0.70714199228,0.707071568334
1521814637046320915,1.95995630567e-06,-1.9927022326e-06,-0.707141994069,0.707071566545
1521814637087145090,1.9738938864e-06,-2.00645144473e-06,-0.707141995918,0.707071564696
1521814637087430953,1.98763700305e-06,-2.02000728747e-06,-0.707141997784,0.707071562829
1521814637125900983,2.00087119663e-06,-2.0330595136e-06,-0.707141999627,0.707071560986
1521814637144957065,2.0132936538e-06,-2.0453094016e-06,-0.707142001403,0.707071559209
1521814637183022975,2.02462013676e-06,-2.05647659309e-06,-0.707142003074,0.707071557539
1521814637183341979,2.03459148756e-06,-2.06630550847e-06,-0.707142004601,0.707071556012
1521814637222019910,2.04297955858e-06,-2.07457119778e-06,-0.707142005949,0.707071554663
1521814637227305889,2.0495924342e-06,-2.08108448711e-06,-0.707142007089,0.707071553523
1521814637270359039,2.05427882218e-06,-2.08569630894e-06,-0.707142007994,0.707071552618
1521814637310667991,2.05693151689e-06,-2.08830111324e-06,-0.707142008645,0.707071551967
1521814637310914993,2.05748985291e-06,-2.08883928246e-06,-0.707142009026,0.707071551586
1521814637350646972,2.05594109393e-06,-2.08729849529e-06,-0.707142009131,0.707071551481
1521814637352539062,2.05232072491e-06,-2.08371400789e-06,-0.707142008956,0.707071551656
1521814637389931917,2.04671164027e-06,-2.07816784708e-06,-0.707142008506,0.707071552106
1521814637429848909,2.03924224807e-06,-2.07078693197e-06,-0.707142007792,0.70707155282
1521814637429950952,2.03008353128e-06,-2.06174016899e-06,-0.707142006831,0.707071553781
1521814637476514101,2.01944513525e-06,-2.05123458587e-06,-0.707142005645,0.707071554967
1521814637479335069,2.00757057025e-06,-2.03951059394e-06,-0.707142004262,0.707071556351
1521814637518922090,1.99473163833e-06,-2.02683648618e-06,-0.707142002714,0.707071557899
1521814637558949947,1.98122221306e-06,-2.01350229702e-06,-0.707142001037,0.707071559576
1521814637559344053,1.96735151374e-06,-1.99981316569e-06,-0.707141999269,0.707071561344
1521814637598303079,1.95343702848e-06,-1.98608235309e-06,-0.707141997452,0.707071563161
1521814637602623939,1.93979724761e-06,-1.97262407373e-06,-0.707141995628,0.707071564986
1521814637643354892,1.92674437427e-06,-1.95974630491e-06,-0.707141993839,0.707071566776
1521814637684448957,1.91457717944e-06,-1.94774373984e-06,-0.707141992125,0.707071568489
1521814637722851037,1.90357416335e-06,-1.93689104367e-06,-0.707141990528,0.707071570087
1521814637762048959,1.89398718216e-06,-1.92743656816e-06,-0.707141989084,0.707071571531
1521814637762190103,1.88603568315e-06,-1.91959666871e-06,-0.707141987826,0.707071572789
1521814637803329944,1.87990168384e-06,-1.91355075232e-06,-0.707141986783,0.707071573832
1521814637803916931,1.8757256051e-06,-1.9094371728e-06,-0.707141985981,0.707071574634
1521814637843069076,1.8736030592e-06,-1.90735006326e-06,-0.707141985438,0.707071575177
1521814637849100112,1.87358266131e-06,-1.90733718214e-06,-0.707141985167,0.707071575449
1521814637887362003,1.87566491822e-06,-1.90939881921e-06,-0.707141985174,0.707071575442
1521814637887794971,1.87980221646e-06,-1.91348778866e-06,-0.707141985459,0.707071575156
1521814637926662921,1.88589991316e-06,-1.91951050791e-06,-0.707141986018,0.707071574598
1521814637926991939,1.89381850265e-06,-1.92732913921e-06,-0.707141986836,0.707071573779
1521814637966013908,1.9033768091e-06,-1.93676474326e-06,-0.707141987897,0.707071572718
1521814638005790948,1.91435613306e-06,-1.94760137417e-06,-0.707141989176,0.707071571438
1521814638005887031,1.92650525696e-06,-1.95959102095e-06,-0.707141990645,0.707071569969
1521814638063632965,1.93954619401e-06,-1.97245928356e-06,-0.70714199227,0.707071568344
1521814638064166069,1.95318054935e-06,-1.98591165307e-06,-0.707141994015,0.707071566599
1521814638102929115,1.96709634923e-06,-1.99964025121e-06,-0.70714199584,0.707071564774
1521814638103065967,1.98097517944e-06,-2.01333087761e-06,-0.707141997704,0.70707156291
1521814638142364025,1.99449947183e-06,-2.02667020033e-06,-0.707141999564,0.707071561049
1521814638165626049,2.00735977171e-06,-2.03935292744e-06,-0.707142001379,0.707071559234
1521814638202896118,2.01926181852e-06,-2.05108879408e-06,-0.707142003108,0.707071557505
1521814638242845058,2.02993328068e-06,-2.06160920618e-06,-0.707142004711,0.707071555902
1521814638283227920,2.03912998585e-06,-2.0706733873e-06,-0.707142006152,0.70707155446
1521814638283582925,2.04664151081e-06,-2.07807388923e-06,-0.707142007399,0.707071553213
1521814638283798933,2.05229599541e-06,-2.08364133973e-06,-0.707142008424,0.707071552188
1521814638321752071,2.05596407665e-06,-2.08724831808e-06,-0.707142009203,0.707071551409
1521814638326441049,2.057561849e-06,-2.08881227121e-06,-0.70714200972,0.707071550892
1521814638366005897,2.05705278594e-06,-2.08829740202e-06,-0.707142009963,0.707071550649
1521814638405883073,2.05444857547e-06,-2.08571548886e-06,-0.707142009926,0.707071550686
1521814638406054973,2.04980885379e-06,-2.08112561443e-06,-0.707142009612,0.707071551
1521814638480963945,2.04323984143e-06,-2.07463281364e-06,-0.707142009028,0.707071551584
1521814638481244087,2.03489191163e-06,-2.0663856691e-06,-0.707142008187,0.707071552425
1521814638517919063,2.02495615115e-06,-2.05657291027e-06,-0.70714200711,0.707071553503
1521814638558109045,2.01365998601e-06,-2.04541909428e-06,-0.707142005821,0.707071554791
1521814638558218955,2.00126197748e-06,-2.0331794664e-06,-0.707142004351,0.707071556262
1521814638558299064,1.98804590492e-06,-2.02013411908e-06,-0.707142002734,0.707071557879
1521814638598892927,1.97431427029e-06,-2.00658158205e-06,-0.707142001006,0.707071559607
1521814638607947111,1.96038137591e-06,-1.99283199101e-06,-0.707141999209,0.707071561404
1521814638645950078,1.94656613026e-06,-1.97919999012e-06,-0.707141997384,0.70707156323
1521814638691294908,1.93318474954e-06,-1.96599753274e-06,-0.707141995573,0.707071565041
1521814638730534076,1.92054351991e-06,-1.9535267422e-06,-0.707141993817,0.707071566797
1521814638730648994,1.90893178801e-06,-1.94207299845e-06,-0.707141992159,0.707071568456
1521814638771019935,1.89861533841e-06,-1.93189840783e-06,-0.707141990635,0.70707156998
1521814638771430015,1.88983031086e-06,-1.92323580455e-06,-0.707141989282,0.707071571333
1521814638810681104,1.88277779595e-06,-1.91628342275e-06,-0.70714198813,0.707071572485
1521814638810764074,1.8776192334e-06,-1.91120035996e-06,-0.707141987208,0.707071573408
1521814638852075099,1.87447271727e-06,-1.90810293559e-06,-0.707141986535,0.70707157408
1521814638880366086,1.87341029463e-06,-1.90706202882e-06,-0.707141986129,0.707071574487
1521814638923259973,1.87445631582e-06,-1.90810145593e-06,-0.707141985998,0.707071574617
1521814638923707962,1.87758687909e-06,-1.91119742448e-06,-0.707141986147,0.707071574468
1521814638961952924,1.88273037808e-06,-1.91627907789e-06,-0.707141986573,0.707071574042
1521814638962094068,1.88976914001e-06,-1.92323011559e-06,-0.707141987265,0.70707157335
1521814639002233982,1.89854212065e-06,-1.93189145391e-06,-0.70714198821,0.707071572405
1521814639002548933,1.90884858901e-06,-1.94206486769e-06,-0.707141989385,0.70707157123
1521814639061379909,1.92045272189e-06,-1.953517525e-06,-0.707141990765,0.70707156985
1521814639098388910,1.93308900113e-06,-1.9659873158e-06,-0.707141992318,0.707071568297
1521814639098900079,1.94646828888e-06,-1.97918885142e-06,-0.707141994009,0.707071566605
1521814639138031005,1.96028444484e-06,-1.99281999479e-06,-0.7071419958,0.707071564814
1521814639138168096,1.97422133238e-06,-2.00656877628e-06,-0.70714199765,0.707071562963
1521814639177859067,1.9879600519e-06,-2.02012053328e-06,-0.707141999518,0.707071561095
1521814639201368093,2.00118623843e-06,-2.03316511212e-06,-0.707142001362,0.707071559251
1521814639238526105,2.01359725618e-06,-2.04540396664e-06,-0.707142003139,0.707071557474
1521814639238634109,2.0249091231e-06,-2.05655699108e-06,-0.707142004809,0.707071555803
1521814639282027006,2.03486300972e-06,-2.06636893063e-06,-0.707142006335,0.707071554277
1521814639282155036,2.04323116214e-06,-2.07461522377e-06,-0.707142007683,0.707071552929
1521814639340742111,2.04982211456e-06,-2.08110714098e-06,-0.707142008821,0.707071551791
1521814639346622943,2.05448507059e-06,-2.08569610403e-06,-0.707142009725,0.707071550887
1521814639388946056,2.05711335471e-06,-2.08827708647e-06,-0.707142010374,0.707071550238
1521814639389235019,2.0576468542e-06,-2.08879101598e-06,-0.707142010754,0.707071549858
1521814639425947904,2.05607339527e-06,-2.0872261261e-06,-0.707142010856,0.707071549756
1521814639430627107,2.05242902209e-06,-2.0836182252e-06,-0.707142010679,0.707071549933
1521814639469943046,2.04679717282e-06,-2.07804987609e-06,-0.707142010227,0.707071550384
1521814639510051965,2.03930677044e-06,-2.07064850584e-06,-0.707142009512,0.7070715511
1521814639549855947,2.03012927311e-06,-2.0615834889e-06,-0.70714200855,0.707071552063
1521814639549943923,2.0194747496e-06,-2.05106227146e-06,-0.707142007363,0.70707155325
1521814639590010881,2.0075870736e-06,-2.03932562286e-06,-0.707142005979,0.707071554634
1521814639590128898,1.99473834157e-06,-2.0266421256e-06,-0.70714200443,0.707071556182
1521814639629981994,1.98122264545e-06,-2.01330202947e-06,-0.707142002753,0.70707155786
1521814639630090951,1.96734934237e-06,-1.99961060903e-06,-0.707142000986,0.707071559627
1521814639688282012,1.95343597382e-06,-1.98588117792e-06,-0.70714199917,0.707071561443
1521814639689764022,1.93980099903e-06,-1.97242791911e-06,-0.707141997347,0.707071563266
1521814639730412006,1.92675650512e-06,-1.95955869546e-06,-0.70714199556,0.707071565054
1521814639769907951,1.91460106559e-06,-1.9475680047e-06,-0.707141993849,0.707071566765
1521814639770035028,1.90361290593e-06,-1.9367302406e-06,-0.707141992254,0.70707156836
1521814639810255050,1.89404353651e-06,-1.92729341322e-06,-0.707141990813,0.707071569801
1521814639810406923,1.88611199547e-06,-1.91947347481e-06,-0.707141989559,0.707071571056
1521814639850677013,1.87999983793e-06,-1.91344937559e-06,-0.707141988521,0.707071572094
1521814639854037046,1.87584697944e-06,-1.90935897023e-06,-0.707141987723,0.707071572892
1521814639914705038,1.87374849449e-06,-1.90729586208e-06,-0.707141987184,0.707071573431
1521814639956271886,1.87375244233e-06,-1.90730726035e-06,-0.707141986917,0.707071573698
1521814639957283973,1.8758587668e-06,-1.90939289939e-06,-0.707141986929,0.707071573687
1521814639995007038,1.88001929755e-06,-1.91350504429e-06,-0.707141987219,0.707071573396
1521814639995162010,1.88613885478e-06,-1.91954958241e-06,-0.707141987782,0.707071572833
1521814640035121917,1.89407742653e-06,-1.92738817703e-06,-0.707141988605,0.70707157201
1521814640035356044,1.90365337409e-06,-1.93684143224e-06,-0.707141989669,0.707071570945
1521814640101963043,1.91464758883e-06,-1.94769299803e-06,-0.707141990952,0.707071569662
1521814640110795974,1.92680850635e-06,-1.95969452238e-06,-0.707141992424,0.70707156819
1521814640150232076,1.93985786443e-06,-1.9725713334e-06,-0.707141994052,0.707071566562
1521814640150300025,1.95349707023e-06,-1.98602872645e-06,-0.707141995799,0.707071564814
1521814640190154075,1.96741403285e-06,-1.9997587091e-06,-0.707141997626,0.707071562987
1521814640190258979,1.98129030614e-06,-2.01344704914e-06,-0.707141999491,0.707071561122
1521814640231128931,1.99480837455e-06,-2.02678046742e-06,-0.707142001353,0.70707155926
1521814640231720924,2.00765892043e-06,-2.03945380697e-06,-0.707142003168,0.707071557444
1521814640274884939,2.01954790066e-06,-2.05117701885e-06,-0.707142004897,0.707071555715
1521814640276398897,2.0302032769e-06,-2.06168179811e-06,-0.7071420065,0.707071554113
1521814640313915014,2.03938123991e-06,-2.07072772673e-06,-0.70714200794,0.707071552672
1521814640358519077,2.04687178925e-06,-2.07810777435e-06,-0.707142009186,0.707071551426
1521814640358695030,2.05250353939e-06,-2.08365303693e-06,-0.707142010209,0.707071550403
1521814640411525964,2.05614764172e-06,-2.08723660224e-06,-0.707142010987,0.707071549625
1521814640414940118,2.05772073451e-06,-2.08877645268e-06,-0.707142011501,0.70707154911
1521814640454473018,2.05718684973e-06,-2.08823734365e-06,-0.707142011742,0.70707154887
1521814640494041919,2.05455823843e-06,-2.08563160798e-06,-0.707142011704,0.707071548908
1521814640494165897,2.04989508963e-06,-2.08101887405e-06,-0.707142011387,0.707071549224
1521814640535171985,2.04330415406e-06,-2.0745047002e-06,-0.707142010801,0.707071549811
1521814640535557985,2.03493630168e-06,-2.06623815824e-06,-0.707142009959,0.707071550653
1521814640574012041,2.02498306957e-06,-2.05640842178e-06,-0.70714200888,0.707071551732
1521814640617851972,2.01367227759e-06,-2.04524043696e-06,-0.707142007591,0.707071553022
1521814640655381917,2.00126281692e-06,-2.03298977309e-06,-0.70714200612,0.707071554493
1521814640694221019,1.98803872327e-06,-2.01993677575e-06,-0.707142004502,0.707071556111
1521814640694396018,1.97430267676e-06,-2.0063801499e-06,-0.707142002775,0.707071557838
1521814640694502115,1.96036907497e-06,-1.99263012492e-06,-0.707142000979,0.707071559635
1521814640735291004,1.94655683764e-06,-1.97900135536e-06,-0.707141999154,0.707071561459
1521814640735842943,1.93318210614e-06,-1.96580572075e-06,-0.707141997345,0.707071563269
1521814640751465082,1.92055100936e-06,-1.95334518842e-06,-0.707141995591,0.707071565023
1521814640802855014,1.90895265643e-06,-1.94190490407e-06,-0.707141993935,0.707071566679
1521814640842109918,1.89865252026e-06,-1.93174666594e-06,-0.707141992414,0.7070715682
1521814640842245101,1.88988636166e-06,-1.92310293477e-06,-0.707141991065,0.70707156955
1521814640884105920,1.88285483432e-06,-1.91617151271e-06,-0.707141989917,0.707071570698
1521814640884712934,-5.20483044099e-05,2.79664313647e-05,-0.707722794693,0.706490228086
1521814640922914981,9.93630713179e-05,5.25824492675e-05,-0.709365164623,0.70484115273
1521814640963416099,0.0006443285342,0.000186685471212,-0.71233105809,0.70184329709
1521814641003145933,-0.000208543593935,-6.72543581103e-05,-0.716682489698,0.69739957051
1521814641003621101,0.000156547841284,-0.000171002058574,-0.719394260175,0.694601932533
1521814641042293071,-2.17757835015e-05,-1.52136838468e-05,-0.720428990257,0.693528708339
1521814641042424917,8.50133936659e-06,-2.85672369326e-07,-0.720684931132,0.693262742376
1521814641082032918,3.25776261791e-05,2.70232549397e-06,-0.721326686568,0.692594982783
1521814641082154035,-6.07930968024e-05,-3.57448139816e-06,-0.723131641665,0.69071023238
1521814641125982046,0.000696425395203,0.000440668006879,-0.725866412222,0.687835207307
1521814641150484085,-0.000458703892508,-0.000230318445728,-0.730286008302,0.683141334295
1521814641186427116,0.000791167434526,0.000177949609324,-0.733979598944,0.679171032011
1521814641186855077,-0.000300727104561,-9.11542186468e-05,-0.73854526724,0.674203818954
1521814641226023912,9.26038370239e-05,-0.000138657623747,-0.741215344184,0.671267298284
1521814641226344108,6.67677094479e-05,-2.08231881228e-05,-0.743033627422,0.669254080024
1521814641266963958,-7.29285152948e-05,2.57681237871e-06,-0.744660826845,0.667443066963
1521814641318667888,0.000483835012301,0.00035389014367,-0.747210917912,0.664586702258
1521814641358089923,-0.00019994851533,-0.000237406254309,-0.751239934604,0.66002913899
1521814641358221054,0.000742197614408,0.000698614128909,-0.754574406178,0.656213704994
1521814641399108886,-0.000268612478462,-0.00027402639139,-0.75889200992,0.651216377279
1521814641399463891,0.000813131079506,0.000671009022147,-0.762236187762,0.647298140451
1521814641438714981,-0.000290425070569,-0.000214052811896,-0.766549826823,0.642184734195
1521814641439724922,0.000852186679765,0.000571098355175,-0.769842040312,0.63823364107
1521814641477926969,-0.000265567919914,-0.000240777876433,-0.773955203683,0.633240249978
1521814641478049039,-0.000127419080951,-3.08426709321e-05,-0.775519836933,0.631323186123
1521814641518459081,1.26338999255e-05,-1.34502098952e-05,-0.776617733834,0.629972138395
1521814641526460886,-1.97599639983e-06,-5.86271443239e-06,-0.776606340743,0.629986183563
1521814641567884922,-1.01425758467e-07,-4.24241636992e-06,-0.776584800733,0.630012735786
1521814641606848955,1.0770157833e-06,-4.46758623382e-06,-0.776574563718,0.630025354224
1521814641607053995,3.9082371268e-07,-4.99076893965e-06,-0.776570139866,0.630030807059
1521814641656482934,-9.06873827088e-07,-6.29172082262e-06,-0.776565126063,0.630036986963
1521814641688929080,-1.1943739358e-06,-6.5058982772e-06,-0.776562654795,0.630040032962
1521814641727653026,-1.29677237709e-06,-6.49519669737e-06,-0.776561523505,0.630041427343
1521814641766993999,2.06145039469e-05,5.22399859043e-06,-0.776767719264,0.629787194103
1521814641767230033,0.000238451189522,2.66604645045e-05,-0.777672196548,0.628669942933
1521814641767321109,9.63926274251e-05,6.96337638685e-06,-0.780097112822,0.625658441346
1521814641807477951,0.000287486719793,0.000205657315443,-0.783581802588,0.621288526942
1521814641810260057,0.000145364327143,-1.40272372028e-05,-0.787334855157,0.616525591138
1521814641851402997,0.000430513293608,0.000308084921969,-0.790771874036,0.612110744046
1521814641890094995,0.000309456296701,-1.63799262507e-05,-0.79453692707,0.607215756952
1521814641890216112,0.000517444408884,0.000369980378518,-0.798044550118,0.602598117648
1521814641930013895,-8.64611594686e-05,-0.000201551402957,-0.801803676318,0.597587496978
1521814641930131912,0.000512354548706,0.000354615267132,-0.805110236072,0.593124876829
1521814641971673965,0.000331306769619,-2.33343164459e-05,-0.808900556197,0.587945388514
1521814641980612039,0.000495306971015,0.000331560906101,-0.81211962992,0.583490660968
1521814642019263982,0.000189663365221,-3.98604632014e-05,-0.815936575477,0.578141390351
1521814642058504104,-0.000212391473873,2.12852718755e-06,-0.818403566346,0.574643852728
1521814642058819055,0.000459135349792,-0.00025130779233,-0.821932315878,0.569584931467
1521814642098897933,-0.000248721368783,-0.000117240545293,-0.82399768499,0.566593098726
1521814642129760980,0.000653654920824,-0.000520437672435,-0.826631081674,0.562743597645
1521814642166098117,-0.000252391337936,-0.000172447685712,-0.829161268629,0.559009389157
1521814642166213035,0.00051170310813,-0.000632988717611,-0.831144682335,0.556055621778
1521814642206773996,0.00015412733204,-4.01005574615e-05,-0.834354973673,0.551227496179
1521814642207081079,9.57454262554e-05,-0.000265854633272,-0.835382239643,0.549669385943
1521814642245872020,0.000429373485907,-0.000274596327938,-0.838825578162,0.544400027238
