%time,field.x,field.y,field.z,field.w
1521814625645030021,0.0,0.0,1.19513012321e-08,1.0
1521814625681008100,0.0,0.0,2.25709588454e-06,0.999999999997
1521814625704977989,0.0,0.0,2.2928913676e-06,0.999999999997
1521814625709239959,0.0,0.0,2.29335708299e-06,0.999999999997
1521814625735775947,0.0,0.0,2.29462080314e-06,0.999999999997
1521814625761285066,0.0,0.0,2.29874356303e-06,0.999999999997
1521814625793903112,0.0,0.0,2.3977061251e-06,0.999999999997
1521814625812727928,0.0,0.0,2.40140046204e-06,0.999999999997
1521814625840967893,0.0,0.0,1.07463768984e-06,0.999999999999
1521814625861949920,0.0,0.0,3.13626673826e-07,1.0
1521814625885426998,0.0,0.0,1.66534860771e-07,1.0
1521814625923600912,0.0,0.0,2.47737431031e-06,0.999999999997
1521814625943279027,0.0,0.0,2.4098428064e-06,0.999999999997
1521814625968719959,0.0,0.0,2.3760227645e-06,0.999999999997
1521814625990283012,0.0,0.0,7.96961471269e-06,0.999999999968
1521814626012980937,0.0,0.0,7.96971880212e-06,0.999999999968
1521814626038976907,0.0,0.0,7.97182125657e-06,0.999999999968
1521814626060560941,0.0,0.0,7.97201165544e-06,0.999999999968
1521814626091526985,0.0,0.0,8.5000701541e-06,0.999999999964
1521814626112981081,0.0,0.0,9.73129572898e-06,0.999999999953
1521814626135953903,0.0,0.0,1.000798748e-05,0.99999999995
1521814626167803049,0.0,0.0,1.09670651551e-05,0.99999999994
1521814626189299106,0.0,0.0,1.1292380666e-05,0.999999999936
1521814626210802078,0.0,0.0,1.14598021021e-05,0.999999999934
1521814626245876073,0.0,0.0,-1.29284091036e-05,0.999999999916
1521814626261853933,0.0,0.0,-1.29211589998e-05,0.999999999917
1521814626288614988,0.0,0.0,-1.29143541681e-05,0.999999999917
1521814626311815023,0.0,0.0,-1.29075727505e-05,0.999999999917
1521814626354938030,0.0,0.0,-1.28785050058e-05,0.999999999917
1521814626364006042,0.0,0.0,-1.28708723663e-05,0.999999999917
1521814626392668962,0.0,0.0,6.69744547538e-05,0.999999997757
1521814626411288022,0.0,0.0,6.69774202438e-05,0.999999997757
1521814626437380075,0.0,0.0,6.69803857338e-05,0.999999997757
1521814626466675043,0.0,0.0,6.69751751088e-05,0.999999997757
1521814626495726108,0.0,0.0,0.00010468494365,0.999999994521
1521814626514544010,0.0,0.0,0.000104690552356,0.99999999452
1521814626538964033,0.0,0.0,0.0001046958731,0.999999994519
1521814626575793981,0.0,0.0,0.000104710501886,0.999999994518
1521814626589420080,0.0,0.0,0.000104713613977,0.999999994518
1521814626626765012,0.0,0.0,-0.000392178551174,0.999999923098
1521814626645986080,0.0,0.0,-0.000392178507884,0.999999923098
1521814626670274972,0.0,0.0,-0.000392174809947,0.999999923099
1521814626691529989,0.0,0.0,-0.000392173170468,0.9999999231
1521814626722040891,0.0,0.0,-0.000392168694073,0.999999923102
1521814626742012977,0.0,0.0,-0.000392166700602,0.999999923103
1521814626774096012,0.0,0.0,-0.000227712143219,0.999999974074
1521814626793961048,0.0,0.0,-0.000227709314324,0.999999974074
1521814626815047979,0.0,0.0,-0.000227708243052,0.999999974074
1521814626846339941,0.0,0.0,-0.000227703211234,0.999999974076
1521814626867336988,0.0,0.0,-0.000141201013444,0.999999990031
1521814626894675970,0.0,0.0,-0.000141187066313,0.999999990033
1521814626922281026,0.0,0.0,-0.000141182997117,0.999999990034
1521814626942234992,0.0,0.0,-0.00014117632213,0.999999990035
1521814626976687908,0.0,0.0,-0.000141169188315,0.999999990036
1521814626996243953,0.0,0.0,-8.50693092221e-05,0.999999996382
1521814627015311002,0.0,0.0,-8.50653398404e-05,0.999999996382
1521814627049954891,0.0,0.0,-8.50541534225e-05,0.999999996383
1521814627066406965,0.0,0.0,-8.50523054739e-05,0.999999996383
1521814627098189115,0.0,0.0,-8.50460056965e-05,0.999999996384
1521814627116537094,0.0,0.0,-8.504240509e-05,0.999999996384
1521814627150305032,0.0,0.0,-5.10391496393e-05,0.999999998698
1521814627180877923,0.0,0.0,-5.10146121945e-05,0.999999998699
1521814627192399024,0.0,0.0,-5.10109988874e-05,0.999999998699
1521814627217884063,0.0,0.0,-5.10073855804e-05,0.999999998699
1521814627248872041,0.0,0.0,-5.09963618319e-05,0.9999999987
1521814627269718885,0.0,0.0,-5.09906475008e-05,0.9999999987
1521814627294384002,0.0,0.0,-5.09772151168e-05,0.999999998701
1521814627325484037,0.0,0.0,-5.0960126228e-05,0.999999998702
1521814627346482992,0.0,0.0,-5.09560204821e-05,0.999999998702
1521814627373617887,0.0,0.0,-5.09529928592e-05,0.999999998702
1521814627400994062,0.0,0.0,-5.09364076966e-05,0.999999998703
1521814627425240993,0.0,0.0,-5.09305433394e-05,0.999999998703
1521814627444370985,0.0,0.0,-5.09284290939e-05,0.999999998703
1521814627480885982,0.0,0.0,-5.09206947013e-05,0.999999998704
1521814627497311115,0.0,0.0,-5.09159867345e-05,0.999999998704
1521814627522710084,0.0,0.0,-5.09096045138e-05,0.999999998704
1521814627550132989,0.0,0.0,-5.09014346342e-05,0.999999998705
1521814627578912019,0.0,0.0,-5.08980377694e-05,0.999999998705
1521814627600250005,0.0,0.0,-5.08939550871e-05,0.999999998705
1521814627629478931,0.0,0.0,-5.08906296791e-05,0.999999998705
1521814627646686077,0.0,0.0,-5.0887866933e-05,0.999999998705
1521814627675456047,0.0,0.0,-5.08848921478e-05,0.999999998705
1521814627699948072,0.0,0.0,-5.08818296305e-05,0.999999998706
1521814627722820997,0.0,0.0,-5.08802908926e-05,0.999999998706
1521814627754642009,0.0,0.0,-5.08635487985e-05,0.999999998706
1521814627776638031,0.0,0.0,-5.08619556315e-05,0.999999998707
1521814627802253961,0.0,0.0,-5.08557438278e-05,0.999999998707
1521814627823029994,0.0,0.0,-5.08513364364e-05,0.999999998707
1521814627846582889,0.0,0.0,-5.08513736691e-05,0.999999998707
1521814627879563093,0.0,0.0,-5.08508469069e-05,0.999999998707
1521814627899713993,0.0,0.0,-5.08503416511e-05,0.999999998707
1521814627926034927,0.0,0.0,-5.08530746121e-05,0.999999998707
1521814627959055900,0.0,0.0,-5.08465278711e-05,0.999999998707
1521814627976856946,0.0,0.0,-5.08392581756e-05,0.999999998708
1521814627998944044,0.0,0.0,-5.08358754827e-05,0.999999998708
1521814628031399965,0.0,0.0,-5.08249732351e-05,0.999999998708
1521814628058973073,0.0,0.0,-5.08162314208e-05,0.999999998709
1521814628077852964,0.0,0.0,-5.08119087928e-05,0.999999998709
1521814628099323987,0.0,0.0,-5.08097603045e-05,0.999999998709
1521814628129303932,0.0,0.0,-5.08008829628e-05,0.99999999871
1521814628149672031,0.0,0.0,-5.07981992665e-05,0.99999999871
1521814628187721967,0.0,0.0,-5.07819969319e-05,0.999999998711
1521814628201226949,0.0,0.0,-5.077219578e-05,0.999999998711
1521814628230288028,0.0,0.0,-5.07631568875e-05,0.999999998712
1521814628251274108,0.0,0.0,-5.07576882653e-05,0.999999998712
1521814628277750968,0.0,0.0,-5.07508141599e-05,0.999999998712
1521814628306636095,0.0,0.0,-5.0746480343e-05,0.999999998712
1521814628327595949,0.0,0.0,-5.07427877318e-05,0.999999998713
1521814628353871107,0.0,0.0,-5.07409581456e-05,0.999999998713
1521814628377976894,0.0,0.0,-5.07351702359e-05,0.999999998713
1521814628406929969,0.0,0.0,-5.07295801648e-05,0.999999998713
1521814628432246923,0.0,0.0,-5.07212821682e-05,0.999999998714
1521814628458538055,0.0,0.0,-5.07030583312e-05,0.999999998715
1521814628480000019,0.0,0.0,-5.06936243283e-05,0.999999998715
1521814628503256082,0.0,0.0,-5.06920889994e-05,0.999999998715
1521814628535410881,0.0,0.0,-5.06844903948e-05,0.999999998716
1521814628553395032,0.0,0.0,-5.06830744147e-05,0.999999998716
1521814628580962896,0.0,0.0,-5.06795965547e-05,0.999999998716
1521814628605253934,0.0,0.0,-5.06788174542e-05,0.999999998716
1521814628631023883,0.0,0.0,-5.06732120975e-05,0.999999998716
1521814628657996892,0.0,0.0,-5.0664791539e-05,0.999999998717
1521814628680635929,0.0,0.0,-5.06573017008e-05,0.999999998717
1521814628707983016,0.0,0.0,-5.06488578613e-05,0.999999998717
1521814628730487108,0.0,0.0,-5.06490556134e-05,0.999999998717
1521814628757142066,0.0,0.0,-5.06424427129e-05,0.999999998718
1521814628784250974,0.0,0.0,-5.06346621951e-05,0.999999998718
1521814628810228109,0.0,0.0,-5.06302093233e-05,0.999999998718
1521814628834342956,0.0,0.0,-5.06238160359e-05,0.999999998719
1521814628858671903,0.0,0.0,-5.06222884112e-05,0.999999998719
1521814628881308078,0.0,0.0,-5.06207607865e-05,0.999999998719
1521814628909820079,0.0,0.0,-5.06231289422e-05,0.999999998719
1521814628941381931,0.0,0.0,-5.06204924369e-05,0.999999998719
1521814628959920883,0.0,0.0,-5.06169980516e-05,0.999999998719
1521814628988217115,0.0,0.0,-5.06146976955e-05,0.999999998719
1521814629008636951,0.0,0.0,-5.06135876971e-05,0.999999998719
1521814629045505046,0.0,0.0,-5.06082309208e-05,0.999999998719
1521814629062544107,0.0,0.0,-5.0605006201e-05,0.99999999872
1521814629089245080,0.0,0.0,-5.06022471268e-05,0.99999999872
1521814629109256029,0.0,0.0,3.67422526724e-06,0.999999999993
1521814629143065929,0.0,0.0,3.69246499277e-06,0.999999999993
1521814629162125110,0.0,0.0,3.69877993234e-06,0.999999999993
1521814629191929101,0.0,0.0,3.71208993546e-06,0.999999999993
1521814629209475040,0.0,0.0,3.71539325315e-06,0.999999999993
1521814629244453907,0.0,0.0,5.81460591763e-06,0.999999999983
1521814629262687921,0.0,0.0,5.8183981987e-06,0.999999999983
1521814629287184953,0.0,0.0,5.82219047978e-06,0.999999999983
1521814629326463937,0.0,0.0,5.84654800572e-06,0.999999999983
1521814629338891029,0.0,0.0,5.85228904073e-06,0.999999999983
1521814629368263959,0.0,0.0,4.70846875676e-06,0.999999999989
1521814629395953893,0.0,0.0,4.7192710145e-06,0.999999999989
1521814629421175956,0.0,0.0,4.72484239697e-06,0.999999999989
1521814629443773984,0.0,0.0,4.73017067869e-06,0.999999999989
1521814629469480037,0.0,0.0,3.39622614813e-06,0.999999999994
1521814629495204925,0.0,0.0,3.40142408301e-06,0.999999999994
1521814629525996923,0.0,0.0,3.41081713193e-06,0.999999999994
1521814629547686100,0.0,0.0,3.41626171827e-06,0.999999999994
1521814629571423053,0.0,0.0,3.42028240127e-06,0.999999999994
1521814629596312999,0.0,0.0,3.42532897952e-06,0.999999999994
1521814629628406047,0.0,0.0,1.08599429461e-05,0.999999999941
1521814629649324893,0.0,0.0,1.08635508202e-05,0.999999999941
1521814629671808958,0.0,0.0,1.08700479619e-05,0.999999999941
1521814629698571920,0.0,0.0,1.08731383393e-05,0.999999999941
1521814629734107971,0.0,0.0,-4.46040601056e-05,0.999999999005
1521814629744692087,0.0,0.0,-4.46021051039e-05,0.999999999005
1521814629774797916,0.0,0.0,-4.46000913092e-05,0.999999999005
1521814629795090913,0.0,0.0,-4.45980187914e-05,0.999999999006
1521814629829050064,0.0,0.0,-4.45958988217e-05,0.999999999006
1521814629849673032,0.0,0.0,-4.45936167013e-05,0.999999999006
1521814629878720045,0.0,0.0,-5.05633204498e-05,0.999999998722
1521814629911899089,0.0,0.0,-5.05561761416e-05,0.999999998722
1521814629923193931,0.0,0.0,-5.05545135011e-05,0.999999998722
1521814629961092948,0.0,0.0,-5.05535967861e-05,0.999999998722
1521814629978048086,0.0,0.0,-5.05528623379e-05,0.999999998722
1521814630005233049,0.0,0.0,-3.142939633e-05,0.999999999506
1521814630026329994,0.0,0.0,-3.1428305407e-05,0.999999999506
1521814630049402952,0.0,0.0,-3.14284138477e-05,0.999999999506
1521814630080096960,0.0,0.0,-3.14281809186e-05,0.999999999506
1521814630098392009,0.0,0.0,-3.14278442685e-05,0.999999999506
1521814630132441043,0.0,0.0,-7.47684400821e-05,0.999999997205
1521814630155911922,0.0,0.0,-7.47527197999e-05,0.999999997206
1521814630174174070,0.0,0.0,-7.47480704881e-05,0.999999997206
1521814630204616069,0.0,0.0,-7.47480704874e-05,0.999999997206
1521814630236773014,0.0,0.0,-5.08503654533e-05,0.999999998707
1521814630255913019,0.0,0.0,-5.08491466074e-05,0.999999998707
1521814630282234907,0.0,0.0,-5.08454005451e-05,0.999999998707
1521814630302074909,0.0,0.0,-5.08431612512e-05,0.999999998707
1521814630334172010,0.0,0.0,-5.08266295742e-05,0.999999998708
1521814630364053010,0.0,0.0,0.000233147752065,0.999999972821
1521814630376792907,0.0,0.0,0.0002331512424,0.99999997282
1521814630413244962,0.0,0.0,0.000233159465656,0.999999972818
1521814630431359052,0.0,0.0,0.000233175267377,0.999999972815
1521814630455558061,0.0,0.0,0.000233179075464,0.999999972814
1521814630485172986,0.0,0.0,0.000233184066789,0.999999972813
1521814630502906084,0.0,0.0,0.000233186802604,0.999999972812
1521814630535192012,0.0,0.0,0.000134800287507,0.999999990914
1521814630560743093,0.0,0.0,0.000134815242795,0.999999990912
1521814630584635972,0.0,0.0,8.62728945816e-05,0.999999996278
1521814630608983993,0.0,0.0,8.6279579018e-05,0.999999996278
1521814630633213043,0.0,0.0,8.62828798438e-05,0.999999996278
1521814630660557031,0.0,0.0,8.6286592752e-05,0.999999996277
1521814630692414999,0.0,0.0,8.62935139867e-05,0.999999996277
1521814630707010984,0.0,0.0,8.62961035667e-05,0.999999996276
1521814630743819952,0.0,0.0,4.9402151454e-05,0.99999999878
1521814630762805938,0.0,0.0,4.94058926426e-05,0.99999999878
1521814630781939983,0.0,0.0,4.94076554596e-05,0.999999998779
1521814630810724020,0.0,0.0,4.94124328861e-05,0.999999998779
1521814630833357095,0.0,0.0,4.94138196268e-05,0.999999998779
1521814630863533020,0.0,0.0,2.90444001783e-05,0.999999999578
1521814630891592979,0.0,0.0,2.90459247188e-05,0.999999999578
1521814630907097101,0.0,0.0,2.90471817705e-05,0.999999999578
1521814630940174102,0.0,0.0,2.90522457172e-05,0.999999999578
1521814630959774017,0.0,0.0,2.90548467499e-05,0.999999999578
1521814630995430946,0.0,0.0,1.75610419981e-05,0.999999999846
1521814631010293006,0.0,0.0,1.75622182134e-05,0.999999999846
1521814631046032905,0.0,0.0,1.75667804048e-05,0.999999999846
1521814631063942909,0.0,0.0,1.75689213754e-05,0.999999999846
1521814631092439889,0.0,0.0,1.14300979112e-05,0.999999999935
1521814631130268096,0.0,0.0,1.14314121666e-05,0.999999999935
1521814631174899101,0.0,0.0,1.14501225831e-05,0.999999999934
1521814631175280094,0.0,0.0,1.14616267511e-05,0.999999999934
1521814631214776039,0.0,0.0,1.14648356531e-05,0.999999999934
1521814631219700098,0.0,0.0,1.14679895568e-05,0.999999999934
1521814631259861946,0.0,0.0,7.80454807576e-06,0.99999999997
1521814631298091888,0.0,0.0,7.80650649285e-06,0.99999999997
1521814631298219919,0.0,0.0,7.81234901794e-06,0.999999999969
1521814631338421106,0.0,0.0,7.81426464198e-06,0.999999999969
1521814631343364953,0.0,0.0,7.81717665591e-06,0.999999999969
1521814631382966995,0.0,0.0,7.83879446853e-06,0.999999999969
1521814631424166917,0.0,0.0,7.84142357441e-06,0.999999999969
1521814631462189912,0.0,0.0,7.85207127817e-06,0.999999999969
1521814631462502002,0.0,0.0,7.858310695e-06,0.999999999969
1521814631503153085,0.0,0.0,7.86142712225e-06,0.999999999969
1521814631503635883,0.0,0.0,7.87966710151e-06,0.999999999969
1521814631541835069,0.0,0.0,7.88332884234e-06,0.999999999969
1521814631544646978,0.0,0.0,7.89168660818e-06,0.999999999969
1521814631582765102,0.0,0.0,7.90468782441e-06,0.999999999969
1521814631621933937,0.0,0.0,7.90789724029e-06,0.999999999969
1521814631622047901,0.0,0.0,7.91110665617e-06,0.999999999969
1521814631662058115,0.0,0.0,7.92510442379e-06,0.999999999969
1521814631674751996,0.0,0.0,7.93522522195e-06,0.999999999969
1521814631714916944,0.0,0.0,7.93821728662e-06,0.999999999968
1521814631754599094,0.0,0.0,7.94394287077e-06,0.999999999968
1521814631754710912,0.0,0.0,7.94515682452e-06,0.999999999968
1521814631794161081,0.0,0.0,7.95092612888e-06,0.999999999968
1521814631802068948,0.0,0.0,7.95682083889e-06,0.999999999968
1521814631839015007,0.0,0.0,7.95789431887e-06,0.999999999968
1521814631877706050,0.0,0.0,7.96290089397e-06,0.999999999968
1521814631877774953,0.0,0.0,7.96437449068e-06,0.999999999968
1521814631918020963,0.0,0.0,7.96523193622e-06,0.999999999968
1521814631923358917,0.0,0.0,7.9721421567e-06,0.999999999968
1521814631965837001,0.0,0.0,7.97367613705e-06,0.999999999968
1521814632005768060,0.0,0.0,7.97897647981e-06,0.999999999968
1521814632005835056,0.0,0.0,7.98060751248e-06,0.999999999968
1521814632045943021,0.0,0.0,7.98535045403e-06,0.999999999968
1521814632048147916,0.0,0.0,7.99185661092e-06,0.999999999968
1521814632085953950,0.0,0.0,7.99335936617e-06,0.999999999968
1521814632127449989,0.0,0.0,8.00222437543e-06,0.999999999968
1521814632127599954,0.0,0.0,8.00396328573e-06,0.999999999968
1521814632166402101,0.0,0.0,8.00916882416e-06,0.999999999968
1521814632171547889,0.0,0.0,8.01085555344e-06,0.999999999968
1521814632209893941,0.0,0.0,8.01788309142e-06,0.999999999968
1521814632251291990,0.0,0.0,8.03305867626e-06,0.999999999968
1521814632251492023,0.0,0.0,8.03556038754e-06,0.999999999968
1521814632289854049,0.0,0.0,8.04296272107e-06,0.999999999968
1521814632298399925,0.0,0.0,8.05210297414e-06,0.999999999968
1521814632340826988,0.0,0.0,8.05423482367e-06,0.999999999968
1521814632378767013,0.0,0.0,8.05728150611e-06,0.999999999968
1521814632378855943,0.0,0.0,8.05964623734e-06,0.999999999968
1521814632417748928,0.0,0.0,8.0638248494e-06,0.999999999967
1521814632429152965,0.0,0.0,8.08323400246e-06,0.999999999967
1521814632466058015,0.0,0.0,8.08643599149e-06,0.999999999967
1521814632507129907,0.0,0.0,8.10296852251e-06,0.999999999967
1521814632507684946,0.0,0.0,8.10587476347e-06,0.999999999967
1521814632546077013,0.0,0.0,8.10736068713e-06,0.999999999967
1521814632548975944,0.0,0.0,8.10891982149e-06,0.999999999967
1521814632586024045,0.0,0.0,8.11048284175e-06,0.999999999967
1521814632625907897,0.0,0.0,8.12325055601e-06,0.999999999967
1521814632626004934,0.0,0.0,8.12607747505e-06,0.999999999967
1521814632666558980,0.0,0.0,8.12787171625e-06,0.999999999967
1521814632684454917,0.0,0.0,8.13566243903e-06,0.999999999967
1521814632722544908,0.0,0.0,8.15305475503e-06,0.999999999967
1521814632762532949,0.0,0.0,8.15593576198e-06,0.999999999967
1521814632762594938,0.0,0.0,8.1586830424e-06,0.999999999967
1521814632803513050,0.0,0.0,8.16151535987e-06,0.999999999967
1521814632808974027,0.0,0.0,8.17746855645e-06,0.999999999967
1521814632845937013,0.0,0.0,8.19152156907e-06,0.999999999966
1521814632885870933,0.0,0.0,8.19166067518e-06,0.999999999966
1521814632885966062,0.0,0.0,8.19179978129e-06,0.999999999966
1521814632925723075,0.0,0.0,8.19348452779e-06,0.999999999966
1521814632935137033,0.0,0.0,8.20611346047e-06,0.999999999966
1521814632975436925,0.0,0.0,-1.6689585693e-05,0.999999999861
1521814633017919063,0.0,0.0,2.66573827537e-06,0.999999999996
1521814633018039941,0.0,0.0,2.66647758777e-06,0.999999999996
1521814633058914899,0.0,0.0,2.66671386315e-06,0.999999999996
1521814633060094118,0.0,0.0,2.67116913317e-06,0.999999999996
1521814633097975015,0.0,0.0,2.6720729886e-06,0.999999999996
1521814633137996912,0.0,0.0,2.67644707039e-06,0.999999999996
1521814633138104915,0.0,0.0,-2.6047348084e-06,0.999999999997
1521814633178201913,0.0,0.0,-2.59701958219e-06,0.999999999997
1521814633178374052,0.0,0.0,-2.59562057578e-06,0.999999999997
1521814633219335079,0.0,0.0,-2.58551426953e-06,0.999999999997
1521814633236912012,0.0,0.0,-9.77723394475e-06,0.999999999952
1521814633277966976,0.0,0.0,-9.77441552643e-06,0.999999999952
1521814633318442106,0.0,0.0,-9.76467335076e-06,0.999999999952
1521814633318855047,0.0,0.0,-9.7548820964e-06,0.999999999952
1521814633357774972,0.0,0.0,-9.75336780707e-06,0.999999999952
1521814633360789060,0.0,0.0,-3.0921850159e-05,0.999999999522
1521814633398922920,0.0,0.0,-3.09203449955e-05,0.999999999522
1521814633439131021,0.0,0.0,-3.09129777463e-05,0.999999999522
1521814633439534902,0.0,0.0,-3.08999044009e-05,0.999999999523
1521814633479069948,0.0,0.0,-3.09231834227e-05,0.999999999522
1521814633484009027,0.0,0.0,-3.09164054858e-05,0.999999999522
1521814633522073030,0.0,0.0,-3.0910648639e-05,0.999999999522
1521814633562150955,0.0,0.0,-3.09075880538e-05,0.999999999522
1521814633562335968,0.0,0.0,-3.08992967184e-05,0.999999999523
1521814633605937957,0.0,0.0,-3.08834419402e-05,0.999999999523
1521814633606317043,0.0,0.0,-6.47582670055e-05,0.999999997903
1521814633647707939,0.0,0.0,-6.47399193082e-05,0.999999997904
1521814633685986042,0.0,0.0,-6.47358462786e-05,0.999999997905
1521814633725841045,0.0,0.0,-6.472366477e-05,0.999999997905
1521814633725955963,0.0,0.0,-6.47087164271e-05,0.999999997906
1521814633765922069,0.0,0.0,-3.47347609537e-05,0.999999999397
1521814633766030073,0.0,0.0,-3.47203168267e-05,0.999999999397
1521814633805852890,0.0,0.0,-3.4716777726e-05,0.999999999397
1521814633811439990,0.0,0.0,-3.47091355635e-05,0.999999999398
1521814633850040912,0.0,0.0,-3.47039551839e-05,0.999999999398
1521814633890489101,0.0,0.0,-3.47018684183e-05,0.999999999398
1521814633930068016,0.0,0.0,-1.85539631242e-05,0.999999999828
1521814633930218935,0.0,0.0,-1.85519895031e-05,0.999999999828
1521814633969913959,0.0,0.0,-1.85477055374e-05,0.999999999828
1521814633983607053,0.0,0.0,-1.23540572735e-05,0.999999999924
1521814634021899938,0.0,0.0,-1.23524622065e-05,0.999999999924
1521814634022015094,0.0,0.0,-1.23463940783e-05,0.999999999924
1521814634064645051,0.0,0.0,-1.23425059231e-05,0.999999999924
1521814634065967082,0.0,0.0,-1.2340927376e-05,0.999999999924
1521814634105818033,0.0,0.0,-1.04253788523e-05,0.999999999946
1521814634146270990,0.0,0.0,-1.0418807873e-05,0.999999999946
1521814634146399974,0.0,0.0,-1.04171105907e-05,0.999999999946
1521814634185884952,0.0,0.0,-1.04111685559e-05,0.999999999946
1521814634191139936,0.0,0.0,-1.0411342644e-05,0.999999999946
1521814634233978986,0.0,0.0,-0.00012893738852,0.999999991688
1521814634274702072,0.0,0.0,-0.000128932331342,0.999999991688
1521814634274812936,0.0,0.0,-0.000128930230721,0.999999991688
1521814634314343929,0.0,0.0,-0.000128926190418,0.999999991689
1521814634323977947,0.0,0.0,-0.000128921858777,0.99999999169
1521814634362087011,0.0,0.0,2.9032545913e-05,0.999999999579
1521814634401715040,0.0,0.0,-4.56059939127e-05,0.99999999896
1521814634441855907,0.0,0.0,-4.55842303132e-05,0.999999998961
1521814634441962003,0.0,0.0,-4.55815558793e-05,0.999999998961
1521814634482213973,0.0,0.0,-4.55745829146e-05,0.999999998961
1521814634482435941,0.0,0.0,-2.90292191568e-05,0.999999999579
1521814634523262977,0.0,0.0,-2.90271858617e-05,0.999999999579
1521814634523724079,0.0,0.0,-2.90244232597e-05,0.999999999579
1521814634565944910,0.0,0.0,-2.90136054761e-05,0.999999999579
1521814634566035985,0.0,0.0,-2.90108041813e-05,0.999999999579
1521814634605967998,0.0,0.0,-2.89902595159e-05,0.99999999958
1521814634624600887,0.0,0.0,-2.89817681508e-05,0.99999999958
1521814634661830902,0.0,0.0,-1.27095713368e-05,0.999999999919
1521814634702502012,0.0,0.0,-1.270673426e-05,0.999999999919
1521814634702604055,0.0,0.0,-1.26983019077e-05,0.999999999919
1521814634742204904,0.0,0.0,-6.80248111036e-06,0.999999999977
1521814634742335081,0.0,0.0,-6.79922887831e-06,0.999999999977
1521814634783559083,0.0,0.0,-6.79098326943e-06,0.999999999977
1521814634797605037,0.0,0.0,-6.78217709568e-06,0.999999999977
1521814634838027954,0.0,0.0,-6.77981253621e-06,0.999999999977
1521814634877897024,0.0,0.0,-2.83111993195e-06,0.999999999996
1521814634877976894,0.0,0.0,-2.82868858264e-06,0.999999999996
1521814634917834997,0.0,0.0,-2.82009388933e-06,0.999999999996
1521814634917913913,0.0,0.0,-2.81908631146e-06,0.999999999996
1521814634957962036,0.0,0.0,-2.8180787336e-06,0.999999999996
1521814634973916053,0.0,0.0,-2.81117221421e-06,0.999999999996
1521814635009927034,0.0,0.0,-8.48892243978e-05,0.999999996397
1521814635049931049,0.0,0.0,3.34887976933e-05,0.999999999439
1521814635050036907,0.0,0.0,3.34917804423e-05,0.999999999439
1521814635090894937,0.0,0.0,3.34920605396e-05,0.999999999439
1521814635101351022,0.0,0.0,3.34951948984e-05,0.999999999439
1521814635138833999,0.0,0.0,3.34958172854e-05,0.999999999439
1521814635178066015,0.0,0.0,1.88465371818e-05,0.999999999822
1521814635220910072,0.0,0.0,1.88551045117e-05,0.999999999822
1521814635221338033,0.0,0.0,1.88583965054e-05,0.999999999822
1521814635258131027,0.0,0.0,1.8862379182e-05,0.999999999822
1521814635258325099,0.0,0.0,1.88632319039e-05,0.999999999822
1521814635297918081,0.0,0.0,1.88650007266e-05,0.999999999822
1521814635306548118,0.0,0.0,1.88734373683e-05,0.999999999822
1521814635345844984,0.0,0.0,1.88755216528e-05,0.999999999822
1521814635387824058,0.0,0.0,1.88887921684e-05,0.999999999822
1521814635388565063,0.0,0.0,1.88913009562e-05,0.999999999822
1521814635427141904,0.0,0.0,1.89106413811e-05,0.999999999821
1521814635427323102,0.0,0.0,1.89151924114e-05,0.999999999821
1521814635465799093,0.0,0.0,1.8919757191e-05,0.999999999821
1521814635472347021,0.0,0.0,1.89243185408e-05,0.999999999821
1521814635510802030,0.0,0.0,1.89531257294e-05,0.99999999982
1521814635550878047,0.0,0.0,1.89642807873e-05,0.99999999982
1521814635591046094,0.0,0.0,1.89748717726e-05,0.99999999982
1521814635591471910,0.0,0.0,1.8977421989e-05,0.99999999982
1521814635630274057,0.0,0.0,1.89799557135e-05,0.99999999982
1521814635630503892,0.0,0.0,1.89825016821e-05,0.99999999982
1521814635670025110,0.0,0.0,1.898639172e-05,0.99999999982
1521814635685281038,0.0,0.0,1.90035035855e-05,0.999999999819
1521814635721980094,0.0,0.0,1.90059626376e-05,0.999999999819
1521814635762073040,0.0,0.0,1.9014834325e-05,0.999999999819
1521814635762239933,0.0,0.0,1.90184947894e-05,0.999999999819
1521814635803096055,0.0,0.0,1.90303757229e-05,0.999999999819
1521814635803497076,0.0,0.0,1.90328870075e-05,0.999999999819
1521814635841747045,0.0,0.0,1.90396780753e-05,0.999999999819
1521814635861679077,0.0,0.0,1.90529073458e-05,0.999999999818
1521814635898416042,0.0,0.0,1.90551336781e-05,0.999999999818
1521814635940464019,0.0,0.0,1.9059695775e-05,0.999999999818
1521814635940548896,0.0,0.0,1.90606833657e-05,0.999999999818
1521814635978045940,0.0,0.0,1.90643913296e-05,0.999999999818
1521814635978157043,0.0,0.0,1.9065670335e-05,0.999999999818
1521814636018063068,0.0,0.0,1.90680452946e-05,0.999999999818
1521814636034521102,0.0,0.0,1.90681449584e-05,0.999999999818
1521814636070106029,0.0,0.0,1.90686543197e-05,0.999999999818
1521814636113667964,0.0,0.0,1.9076668178e-05,0.999999999818
1521814636113809108,0.0,0.0,1.90780671724e-05,0.999999999818
1521814636150574922,0.0,0.0,1.90784088523e-05,0.999999999818
1521814636153111934,0.0,0.0,1.90769785272e-05,0.999999999818
1521814636189846038,0.0,0.0,1.90852413501e-05,0.999999999818
1521814636230299949,0.0,0.0,1.90856071763e-05,0.999999999818
1521814636270684957,0.0,0.0,1.9089139696e-05,0.999999999818
1521814636270855903,0.0,0.0,1.90900683544e-05,0.999999999818
1521814636310153007,0.0,0.0,1.90949543363e-05,0.999999999818
1521814636311433076,0.0,0.0,1.91005008262e-05,0.999999999818
1521814636350028991,0.0,0.0,1.91018784916e-05,0.999999999818
1521814636389995098,0.0,0.0,1.91081575529e-05,0.999999999817
1521814636390100002,0.0,0.0,1.91098976981e-05,0.999999999817
1521814636430073976,0.0,0.0,1.91282390051e-05,0.999999999817
1521814636430250883,0.0,0.0,1.91329343428e-05,0.999999999817
1521814636470038890,0.0,0.0,1.91542932575e-05,0.999999999817
1521814636482981920,0.0,0.0,1.91640050616e-05,0.999999999816
1521814636522015094,0.0,0.0,1.91677720143e-05,0.999999999816
1521814636563182115,0.0,0.0,1.918226395e-05,0.999999999816
1521814636563618898,0.0,0.0,1.91857733901e-05,0.999999999816
1521814636606559038,0.0,0.0,1.91969075446e-05,0.999999999816
1521814636606892108,0.0,0.0,1.92005804348e-05,0.999999999816
1521814636647371053,0.0,0.0,1.92106606621e-05,0.999999999815
1521814636661226034,0.0,0.0,1.92313831026e-05,0.999999999815
1521814636697925090,0.0,0.0,1.92354395876e-05,0.999999999815
1521814636738131046,0.0,0.0,1.92469903344e-05,0.999999999815
1521814636738280057,0.0,0.0,1.9254629488e-05,0.999999999815
1521814636778101921,0.0,0.0,1.92599807455e-05,0.999999999815
1521814636786004066,0.0,0.0,1.92728487011e-05,0.999999999814
1521814636823003053,0.0,0.0,1.92750137514e-05,0.999999999814
1521814636861937046,0.0,0.0,1.92816108593e-05,0.999999999814
1521814636862056016,0.0,0.0,1.92857194719e-05,0.999999999814
1521814636903081893,0.0,0.0,1.92898280846e-05,0.999999999814
1521814636913471937,0.0,0.0,1.92932388586e-05,0.999999999814
1521814636951050996,0.0,0.0,1.9301223225e-05,0.999999999814
1521814636990165948,0.0,0.0,1.93020550599e-05,0.999999999814
1521814637030359983,0.0,0.0,1.45587076536e-05,0.999999999894
1521814637030524015,0.0,0.0,1.45657523549e-05,0.999999999894
1521814637069983005,0.0,0.0,1.45680251646e-05,0.999999999894
1521814637070213079,0.0,0.0,1.45735325406e-05,0.999999999894
1521814637110007047,0.0,0.0,1.45747563789e-05,0.999999999894
1521814637154953956,0.0,0.0,8.42193140222e-06,0.999999999965
1521814637155185937,0.0,0.0,8.42690266043e-06,0.999999999964
1521814637194071054,0.0,0.0,8.4272824779e-06,0.999999999964
1521814637194230079,0.0,0.0,8.4286694461e-06,0.999999999964
1521814637234606981,0.0,0.0,8.43456762079e-06,0.999999999964
1521814637244206905,0.0,0.0,3.11480711654e-06,0.999999999995
1521814637282532930,0.0,0.0,3.11526641262e-06,0.999999999995
1521814637323426008,0.0,0.0,3.11578495038e-06,0.999999999995
1521814637323858022,0.0,0.0,3.12054224312e-06,0.999999999995
1521814637366472005,0.0,0.0,3.12199853154e-06,0.999999999995
1521814637371944904,0.0,0.0,3.69834363685e-06,0.999999999993
1521814637410034894,0.0,0.0,3.69952583874e-06,0.999999999993
1521814637450645923,0.0,0.0,3.70082719418e-06,0.999999999993
1521814637450788974,0.0,0.0,3.71046447505e-06,0.999999999993
1521814637490978956,0.0,0.0,8.79208377853e-07,1.0
1521814637492384910,0.0,0.0,8.87646049287e-07,1.0
1521814637532159090,0.0,0.0,9.01199311842e-07,1.0
1521814637571152925,0.0,0.0,9.03785504783e-07,1.0
1521814637610194921,0.0,0.0,9.12725298068e-07,1.0
1521814637610318899,0.0,0.0,-1.0508496193e-06,0.999999999999
1521814637654499053,0.0,0.0,-1.04030800381e-06,0.999999999999
1521814637654671907,0.0,0.0,-1.01509743556e-06,0.999999999999
1521814637695460081,0.0,0.0,-1.00988433716e-06,0.999999999999
1521814637695724010,0.0,0.0,-1.00615385904e-06,0.999999999999
1521814637735709905,0.0,0.0,-1.00165473052e-06,0.999999999999
1521814637745393037,0.0,0.0,-4.48035497121e-06,0.99999999999
1521814637783597946,0.0,0.0,-4.47762144971e-06,0.99999999999
1521814637821894884,0.0,0.0,-4.46360726551e-06,0.99999999999
1521814637867079019,0.0,0.0,-4.44940890596e-06,0.99999999999
1521814637867403984,0.0,0.0,-4.44630614472e-06,0.99999999999
1521814637905985116,0.0,0.0,-9.61027617545e-07,1.0
1521814637906099081,0.0,0.0,-9.57898189541e-07,1.0
1521814637947189092,0.0,0.0,-9.42423834818e-07,1.0
1521814637947781085,0.0,0.0,3.60233674335e-07,1.0
1521814637985770940,0.0,0.0,3.6297216551e-07,1.0
1521814637993290901,0.0,0.0,3.69934934722e-07,1.0
1521814638030076980,0.0,0.0,3.72498810902e-07,1.0
1521814638070991992,0.0,0.0,3.79988771001e-07,1.0
1521814638071434020,0.0,0.0,3.82510373275e-07,1.0
1521814638110738992,0.0,0.0,3.87859824931e-07,1.0
1521814638123150110,0.0,0.0,1.62740028393e-06,0.999999999999
1521814638162065029,0.0,0.0,1.6287057963e-06,0.999999999999
1521814638203397989,0.0,0.0,1.62870579606e-06,0.999999999999
1521814638203687906,0.0,0.0,1.6336150925e-06,0.999999999999
1521814638243217945,0.0,0.0,1.64107135822e-06,0.999999999999
1521814638246114969,0.0,0.0,-1.49686299081e-06,0.999999999999
1521814638286010980,0.0,0.0,-1.48730992992e-06,0.999999999999
1521814638326164960,0.0,0.0,-1.48049929223e-06,0.999999999999
1521814638326359033,0.0,0.0,-1.47872123341e-06,0.999999999999
1521814638365958929,0.0,0.0,-6.54821764792e-05,0.999999997856
1521814638375582933,0.0,0.0,-6.54766212202e-05,0.999999997856
1521814638414248943,0.0,0.0,-6.54754409199e-05,0.999999997856
1521814638455724000,0.0,0.0,-6.54666803422e-05,0.999999997857
1521814638456197023,0.0,0.0,-6.5464604641e-05,0.999999997857
1521814638494056940,0.0,0.0,-6.54559800204e-05,0.999999997858
1521814638497250080,0.0,0.0,-0.000171481929581,0.999999985297
1521814638534276008,0.0,0.0,-0.000171478979173,0.999999985297
1521814638575480937,0.0,0.0,-0.000171465618275,0.9999999853
1521814638614384889,0.0,0.0,-0.000171451190983,0.999999985302
1521814638615154027,0.0,0.0,-0.000113700822164,0.999999993536
1521814638657972097,0.0,0.0,-0.000113681793803,0.999999993538
1521814638658082962,0.0,0.0,-0.00011367716303,0.999999993539
1521814638698210000,0.0,0.0,-0.000113669618855,0.99999999354
1521814638698389053,0.0,0.0,-0.000113666812657,0.99999999354
1521814638737938880,0.0,0.0,-0.000113666812658,0.99999999354
1521814638744071960,0.0,0.0,-6.85501862626e-05,0.99999999765
1521814638786617994,0.0,0.0,-6.85268128241e-05,0.999999997652
1521814638825968980,0.0,0.0,-6.85061777936e-05,0.999999997653
1521814638866224050,0.0,0.0,-6.8492016684e-05,0.999999997654
1521814638866537094,0.0,0.0,-6.84885093443e-05,0.999999997655
1521814638908288955,0.0,0.0,-6.84876389332e-05,0.999999997655
1521814638908539056,0.0,0.0,-3.92422592612e-05,0.99999999923
1521814638945938110,0.0,0.0,-3.92390269476e-05,0.99999999923
1521814638950438022,0.0,0.0,-3.92333709331e-05,0.99999999923
1521814638986872911,0.0,0.0,-3.92308568246e-05,0.99999999923
1521814639025880098,0.0,0.0,-2.84866070302e-05,0.999999999594
1521814639066119909,0.0,0.0,-2.84693807999e-05,0.999999999595
1521814639066251993,0.0,0.0,-2.8466496223e-05,0.999999999595
1521814639106417894,0.0,0.0,-2.84674202098e-05,0.999999999595
1521814639106544017,0.0,0.0,-1.43823938904e-05,0.999999999897
1521814639147170066,0.0,0.0,-1.43816354247e-05,0.999999999897
1521814639147552013,0.0,0.0,-1.43815263986e-05,0.999999999897
1521814639186072111,0.0,0.0,-1.43815618476e-05,0.999999999897
1521814639197024106,0.0,0.0,-1.43807739168e-05,0.999999999897
1521814639233978033,0.0,0.0,-1.43781406518e-05,0.999999999897
1521814639273966073,0.0,0.0,-1.4371314414e-05,0.999999999897
1521814639274091958,0.0,0.0,-1.43703188066e-05,0.999999999897
1521814639313965082,0.0,0.0,-1.43622165726e-05,0.999999999897
1521814639323363065,0.0,0.0,-1.43608651978e-05,0.999999999897
1521814639362040042,0.0,0.0,-1.4359513823e-05,0.999999999897
1521814639402096033,0.0,0.0,-1.43551556366e-05,0.999999999897
1521814639441859006,0.0,0.0,-1.43481683986e-05,0.999999999897
1521814639441963911,0.0,0.0,-1.43465087445e-05,0.999999999897
1521814639482162952,0.0,0.0,-1.43407021294e-05,0.999999999897
1521814639482299089,0.0,0.0,-1.43371159331e-05,0.999999999897
1521814639521939992,0.0,0.0,-1.4335371218e-05,0.999999999897
1521814639523334026,0.0,0.0,-1.43326263784e-05,0.999999999897
1521814639563023090,0.0,0.0,-1.432513719e-05,0.999999999897
1521814639603176116,0.0,0.0,-1.43094483173e-05,0.999999999898
1521814639603669881,0.0,0.0,-1.43065729192e-05,0.999999999898
1521814639642106056,0.0,0.0,-1.42970419523e-05,0.999999999898
1521814639650804996,0.0,0.0,-1.42889562299e-05,0.999999999898
1521814639689815998,0.0,0.0,-1.4284595054e-05,0.999999999898
1521814639730540990,0.0,0.0,-1.4280342074e-05,0.999999999898
1521814639730731964,0.0,0.0,-1.42761972588e-05,0.999999999898
1521814639770070075,0.0,0.0,-1.42515759615e-05,0.999999999898
1521814639782077074,0.0,0.0,-1.42379925883e-05,0.999999999899
1521814639821769952,0.0,0.0,-1.4231560524e-05,0.999999999899
1521814639862127065,0.0,0.0,-1.42283433257e-05,0.999999999899
1521814639862277984,0.0,0.0,-1.42248367932e-05,0.999999999899
1521814639903048992,0.0,0.0,-1.42110199902e-05,0.999999999899
1521814639905720949,0.0,0.0,-1.42074872657e-05,0.999999999899
1521814639942233085,0.0,0.0,-1.41980185329e-05,0.999999999899
1521814639982088088,0.0,0.0,-1.4185758832e-05,0.999999999899
1521814639982259988,0.0,0.0,-1.41826070757e-05,0.999999999899
1521814640021979093,0.0,0.0,-1.41786462548e-05,0.999999999899
1521814640033036947,0.0,0.0,-1.41765166987e-05,0.9999999999
1521814640071171998,0.0,0.0,-1.41749768587e-05,0.9999999999
1521814640110060930,0.0,0.0,-1.41719481774e-05,0.9999999999
1521814640110209941,0.0,0.0,-1.41704419163e-05,0.9999999999
1521814640149857997,0.0,0.0,-1.41635702672e-05,0.9999999999
1521814640168468952,0.0,0.0,-1.41599036945e-05,0.9999999999
1521814640206516027,0.0,0.0,-1.41593381425e-05,0.9999999999
1521814640247215032,0.0,0.0,-1.41574042781e-05,0.9999999999
1521814640247684001,0.0,0.0,-1.41536912557e-05,0.9999999999
1521814640287295103,0.0,0.0,-1.41528054329e-05,0.9999999999
1521814640294267892,0.0,0.0,-1.41446643666e-05,0.9999999999
1521814640334038972,0.0,0.0,-1.41421041915e-05,0.9999999999
1521814640373928070,0.0,0.0,-1.41385995858e-05,0.9999999999
1521814640374067068,0.0,0.0,-1.41311090559e-05,0.9999999999
1521814640414093971,0.0,0.0,-1.412806269e-05,0.9999999999
1521814640414237022,0.0,0.0,-1.41259855313e-05,0.9999999999
1521814640454473018,0.0,0.0,-1.41237690203e-05,0.9999999999
1521814640467529058,0.0,0.0,-1.41165420725e-05,0.9999999999
1521814640506031036,0.0,0.0,-1.41148672578e-05,0.9999999999
1521814640546209096,0.0,0.0,-1.41089070739e-05,0.9999999999
1521814640546521902,0.0,0.0,-1.4099214271e-05,0.999999999901
1521814640586069107,0.0,0.0,-1.40967782517e-05,0.999999999901
1521814640591711044,0.0,0.0,-1.40865047902e-05,0.999999999901
1521814640629941940,0.0,0.0,-1.40834401216e-05,0.999999999901
1521814640671612977,0.0,0.0,-1.40741663525e-05,0.999999999901
1521814640672110080,0.0,0.0,-1.40673930232e-05,0.999999999901
1521814640710011005,0.0,0.0,-1.40644915641e-05,0.999999999901
1521814640719830036,0.0,0.0,-1.40499568318e-05,0.999999999901
1521814640759200096,0.0,0.0,-1.40374894817e-05,0.999999999901
1521814640798099994,0.0,0.0,-1.40291478041e-05,0.999999999902
1521814640798211097,0.0,0.0,-1.40209757338e-05,0.999999999902
1521814640839169979,0.0,0.0,-1.40168897393e-05,0.999999999902
1521814640845913887,0.0,0.0,-1.40035935575e-05,0.999999999902
1521814640887408971,0.0,0.0,-1.3985860353e-05,0.999999999902
1521814640927217006,0.0,0.0,-1.3984769555e-05,0.999999999902
1521814640927591085,0.0,0.0,-0.000654302254848,0.999999785944
1521814640965908050,0.0,0.0,-0.0012263024965,0.999999248091
1521814640966990947,0.0,0.0,-0.00225409666964,0.999997459521
1521814641005881071,0.0,0.0,-0.00373754422049,0.999993015357
1521814641045995950,0.0,0.0,-0.014107874349,0.999900478988
1521814641046133041,0.0,0.0,-0.0161174021324,0.999870106238
1521814641087502002,0.0,0.0,-0.019700930121,0.999805917842
1521814641093880891,0.0,0.0,-0.0203653214953,0.999792605334
1521814641130218029,0.0,0.0,-0.0212604070978,0.999773972001
1521814641170959949,0.0,0.0,-0.0217081941106,0.999764349389
1521814641210491895,0.0,0.0,-0.023032289164,0.999734721642
1521814641210746049,0.0,0.0,-0.0332247574854,0.999447905341
1521814641251029968,0.0,0.0,-0.0349129991154,0.999390355413
1521814641252582073,0.0,0.0,-0.0449185602581,0.998990652081
1521814641291017055,0.0,0.0,-0.0472934830364,0.998881037192
1521814641330044984,0.0,0.0,-0.0487993342069,0.998808602777
1521814641330151081,0.0,0.0,-0.0496722995524,0.998765569419
1521814641371493101,0.0,0.0,-0.0608925429029,0.998144327349
1521814641372184038,0.0,0.0,-0.062716550058,0.998031379441
1521814641409738063,0.0,0.0,-0.0732471513644,0.997313819626
1521814641421582937,0.0,0.0,-0.0753184870738,0.997159528614
1521814641457933902,0.0,0.0,-0.0834375003128,0.996513012229
1521814641497828960,0.0,0.0,-0.0918090512192,0.995776630633
1521814641497946023,0.0,0.0,-0.0943624915011,0.995537904953
1521814641539345026,0.0,0.0,-0.0962005534667,0.9953619711
1521814641552344083,0.0,0.0,-0.0993002363928,0.995057517459
1521814641590147972,0.0,0.0,-0.100248098451,0.994962471029
1521814641633904933,0.0,0.0,-0.100999567731,0.994886469562
1521814641634000062,0.0,0.0,-0.100987107744,0.994887734405
1521814641674151897,0.0,0.0,-0.100956380625,0.994890852914
1521814641674345970,0.0,0.0,-0.100953596462,0.994891135432
1521814641714076042,0.0,0.0,-0.100941493606,0.994892363459
1521814641755359888,0.0,0.0,-0.100940716954,0.994892442257
1521814641756000995,0.0,0.0,-0.100939940303,0.994892521055
1521814641794013023,0.0,0.0,-0.10097858506,0.994888599472
1521814641807101011,0.0,0.0,-0.103092654001,0.99467175726
1521814641845942974,0.0,0.0,-0.104724634407,0.994501257389
1521814641889000892,0.0,0.0,-0.110328645913,0.993895160412
1521814641889137029,0.0,0.0,-0.113028400372,0.993591757569
1521814641925931930,0.0,0.0,-0.128373798,0.991725853241
1521814641926152944,0.0,0.0,-0.138256140543,0.990396506255
1521814641966226100,0.0,0.0,-0.142957026937,0.989728896441
1521814642006855964,0.0,0.0,-0.147802341975,0.989016919828
1521814642047230958,0.0,0.0,-0.156808745386,0.987628987713
1521814642047692060,0.0,0.0,-0.159081995927,0.987265373935
1521814642087274074,0.0,0.0,-0.161992139007,0.986792048458
1521814642087641000,0.0,0.0,-0.166353807314,0.986066129016
1521814642126140117,0.0,0.0,-0.178013030881,0.984028130104
1521814642126899957,0.0,0.0,-0.179927557088,0.983679863675
1521814642166086912,0.0,0.0,-0.185329916923,0.982676356637
1521814642206757068,0.0,0.0,-0.187080320463,0.982344620638
1521814642207078933,0.0,0.0,-0.190041564318,0.98177604566
1521814642246371984,0.0,0.0,-0.196262506554,0.980551390046
1521814642251075983,0.0,0.0,-0.198018589439,0.980198264759
1521814642289849042,0.0,0.0,-0.204842822603,0.978794880467
1521814642329864025,0.0,0.0,-0.209069658964,0.977900750435
1521814642329981088,0.0,0.0,-0.213128121497,0.97702425959
1521814642370498895,0.0,0.0,-0.213826147213,0.97687173097
1521814642378329992,0.0,0.0,-0.215406301351,0.976524513434
1521814642418020963,0.0,0.0,-0.217867084067,0.975978449393
1521814642458901882,0.0,0.0,-0.22105830022,0.975260594869
1521814642499067068,0.0,0.0,-0.231888065376,0.972742476268
1521814642499355077,0.0,0.0,-0.233326168409,0.972398528966
1521814642538132905,0.0,0.0,-0.242624027441,0.970120395265
1521814642538254022,0.0,0.0,-0.246156649961,0.969230057148
1521814642578563928,0.0,0.0,-0.247922252491,0.968779932038
1521814642580857038,0.0,0.0,-0.255012153682,0.966937847783
1521814642618952989,0.0,0.0,-0.260625394356,0.965440005291
1521814642657788038,0.0,0.0,-0.261406111994,0.965228907883
1521814642698431015,0.0,0.0,-0.269213765198,0.963080447641
1521814642698659896,0.0,0.0,-0.270982397591,0.962584302903
1521814642737891912,0.0,0.0,-0.280905677525,0.95973538037
1521814642738013982,0.0,0.0,-0.283200111085,0.959060841178
1521814642778023004,0.0,0.0,-0.285237827111,0.958456771057
1521814642780385017,0.0,0.0,-0.286368653742,0.958119509328
1521814642819773912,0.0,0.0,-0.285415371224,0.958403915825
1521814642858086109,0.0,0.0,-0.285379964003,0.958414459483
1521814642858246088,0.0,0.0,-0.285374029749,0.958416226462
1521814642898585081,0.0,0.0,-0.285370934923,0.958417147959
1521814642911840915,0.0,0.0,-0.28536660537,0.958418437082
1521814642951164007,0.0,0.0,-0.285366620549,0.958418432563
1521814642990437984,0.0,0.0,-0.285366678169,0.958418415407
1521814642990539073,0.0,0.0,-0.285366721344,0.958418402551
1521814643029814958,0.0,0.0,-0.285366925852,0.95841834166
1521814643035864114,0.0,0.0,-0.285359967467,0.958420413476
1521814643073987007,0.0,0.0,-0.285357494663,0.958421149725
1521814643114190101,0.0,0.0,-0.285353558108,0.958422321774
1521814643114303112,0.0,0.0,-0.285352362623,0.958422677708
1521814643154874086,0.0,0.0,-0.28535117476,0.958423031371
1521814643160564899,0.0,0.0,-0.285350397122,0.958423262897
1521814643198174953,0.0,0.0,-0.28535001679,0.958423376133
1521814643237998008,0.0,0.0,-0.285349684106,0.958423475182
1521814643277880907,0.0,0.0,-0.285347830892,0.958424026934
1521814643277995109,0.0,0.0,-0.285347526693,0.958424117502
1521814643320672035,0.0,0.0,-0.285346415769,0.958424448252
1521814643321427106,0.0,0.0,-0.28534566155,0.958424672802
1521814643357906103,0.0,0.0,-0.28534542708,0.958424742609
1521814643362175941,0.0,0.0,-0.285375425154,0.95841581097
1521814643403491020,0.0,0.0,-0.286278361979,0.958146491651
1521814643441807985,0.0,0.0,-0.286934240498,0.957950281398
1521814643481780052,0.0,0.0,-0.289734905709,0.957106934681
1521814643481890916,0.0,0.0,-0.291548004752,0.956556198519
1521814643522284030,0.0,0.0,-0.298785906945,0.95432016735
1521814643522458076,0.0,0.0,-0.30054578977,0.953767386867
1521814643561947107,0.0,0.0,-0.302064593168,0.953287460084
1521814643565395116,0.0,0.0,-0.305674002654,0.952136231903
1521814643602833986,0.0,0.0,-0.307079380934,0.951683904353
1521814643641990900,0.0,0.0,-0.311625806688,0.950204902432
1521814643642106056,0.0,0.0,-0.318074241644,0.948065808266
1521814643685951948,0.0,0.0,-0.327243767941,0.94493995383
1521814643690454959,0.0,0.0,-0.335892781316,0.941900227975
1521814643730138063,0.0,0.0,-0.340387878716,0.940285112093
1521814643770087003,0.0,0.0,-0.342594915128,0.939483221845
1521814643770224094,0.0,0.0,-0.342961542954,0.939349445124
1521814643809740066,0.0,0.0,-0.34688495193,0.937907687421
1521814643811110019,0.0,0.0,-0.347640737338,0.937627814084
1521814643850126028,0.0,0.0,-0.347324399431,0.937745040808
1521814643890500068,0.0,0.0,-0.347637031979,0.937629187897
1521814643930005073,0.0,0.0,-0.348131469697,0.937445720992
1521814643930140972,0.0,0.0,-0.3482724272,0.93739336271
1521814643970406055,0.0,0.0,-0.347995625444,0.937496157151
1521814643970594882,0.0,0.0,-0.347994632392,0.937496525767
1521814644009903907,0.0,0.0,-0.347993872155,0.937496807964
1521814644022722005,0.0,0.0,-0.347992108049,0.937497462789
1521814644066503047,0.0,0.0,-0.347991823468,0.937497568423
1521814644105890989,0.0,0.0,-0.34799055649,0.937498038715
1521814644106021881,0.0,0.0,-0.34799032129,0.937498126019
1521814644146132946,0.0,0.0,-0.347989636572,0.937498380179
1521814644146239995,0.0,0.0,-0.34798941457,0.937498462584
1521814644186064958,0.0,0.0,-0.347988341104,0.937498861042
1521814644197077035,0.0,0.0,-0.347987517012,0.937499166935
1521814644234105110,0.0,0.0,-0.347986940045,0.937499381098
1521814644279658079,0.0,0.0,-0.347986540974,0.937499529227
1521814644280141115,0.0,0.0,-0.347986144988,0.937499676211
1521814644318377017,0.0,0.0,-0.347985946997,0.937499749703
1521814644318650007,0.0,0.0,-0.347985754939,0.937499820992
1521814644358117103,0.0,0.0,-0.347985559009,0.937499893718
1521814644374655961,0.0,0.0,-0.347984879568,0.937500145916
1521814644414381027,0.0,0.0,-0.347984038037,0.937500458278
1521814644458919048,0.0,0.0,-0.347983865852,0.93750052219
1521814644459224939,0.0,0.0,-0.348016790684,0.937488300408
1521814644498030900,0.0,0.0,-0.348023285681,0.937485889293
1521814644500997066,0.0,0.0,-0.355416996583,0.934707846624
1521814644541846036,0.0,0.0,-0.360885435297,0.932610155741
1521814644541943073,0.0,0.0,-0.363114861044,0.931744384308
1521814644586710929,0.0,0.0,-0.373696944112,0.927550857884
1521814644591797113,0.0,0.0,-0.375742726178,0.926724017022
1521814644629766941,0.0,0.0,-0.378123733524,0.925755065958
1521814644670105934,0.0,0.0,-0.379471687941,0.925203349568
1521814644670258998,0.0,0.0,-0.379747157029,0.925090318147
1521814644714337110,0.0,0.0,-0.379063719604,0.925370572517
1521814644719645023,0.0,0.0,-0.379058427966,0.925372740137
1521814644758867025,0.0,0.0,-0.379045338956,0.925378101651
1521814644798182964,0.0,0.0,-0.379041181748,0.92537980448
1521814644838179111,0.0,0.0,-0.37903305922,0.925383131475
1521814644838363885,0.0,0.0,-0.379040624786,0.925380032615
1521814644877849102,0.0,0.0,-0.379041988781,0.925379473914
1521814644877974987,0.0,0.0,-0.380330505133,0.924850640301
1521814644918488979,0.0,0.0,-0.381961620513,0.924178186529
1521814644918740987,0.0,0.0,-0.38242108002,0.923988158775
1521814644958197116,0.0,0.0,-0.389993215731,0.920817729892
1521814644967101097,0.0,0.0,-0.392072861394,0.919934166861
1521814645005985975,0.0,0.0,-0.399470515254,0.916746043047
1521814645045838117,0.0,0.0,-0.401292009545,0.915950174996
1521814645086194992,0.0,0.0,-0.407471447167,0.913217947559
1521814645086371898,0.0,0.0,-0.409721541603,0.912210643627
1521814645127043962,0.0,0.0,-0.415413915631,0.909632496506
1521814645132531881,0.0,0.0,-0.425683202012,0.904872262546
1521814645171133041,0.0,0.0,-0.426287893029,0.904587548144
1521814645210166931,0.0,0.0,-0.426675303616,0.904404879069
1521814645210269927,0.0,0.0,-0.426981724216,0.904260254122
1521814645251071929,0.0,0.0,-0.427016886815,0.904243649895
1521814645251390933,0.0,0.0,-0.427052048768,0.9042270443
1521814645290002107,0.0,0.0,-0.42720273189,0.904155863701
1521814645309736967,0.0,0.0,-0.431150389894,0.902280079185
1521814645348037004,0.0,0.0,-0.431907757951,0.901917783737
1521814645387197971,0.0,0.0,-0.4500442543,0.893006253714
1521814645387475013,0.0,0.0,-0.453490734588,0.891260990756
1521814645426125049,0.0,0.0,-0.457176008469,0.889376240564
1521814645426331043,0.0,0.0,-0.459824370846,0.888009880562
1521814645466597080,0.0,0.0,-0.465642153198,0.884973098555
1521814645474028110,0.0,0.0,-0.467731386333,0.883870663751
1521814645510174989,0.0,0.0,-0.476510704627,0.8791686689
1521814645551104068,0.0,0.0,-0.484126831251,0.874997835005
1521814645551405906,0.0,0.0,-0.485826604197,0.874055210301
1521814645590055942,0.0,0.0,-0.488344074269,0.872651170358
1521814645605318069,0.0,0.0,-0.489971755817,0.871738308497
1521814645642479896,0.0,0.0,-0.490520978027,0.871429383321
1521814645683198928,0.0,0.0,-0.490367316907,0.871515860159
1521814645683612108,0.0,0.0,-0.488983703245,0.872292919816
1521814645723059892,0.0,0.0,-0.488983423203,0.8722930768
1521814645732853889,0.0,0.0,-0.488971252624,0.872299899179
1521814645771248102,0.0,0.0,-0.488969402483,0.87230093628
1521814645811408996,0.0,0.0,-0.488969220491,0.872301038296
1521814645812108993,0.0,0.0,-0.488968777892,0.872301286395
1521814645849875926,0.0,0.0,-0.488968758348,0.87230129735
1521814645849978923,0.0,0.0,-0.488969034757,0.87230114241
1521814645890067100,0.0,0.0,-0.48896984778,0.872300686668
1521814645899346113,0.0,0.0,-0.488969908338,0.872300652723
1521814645939024925,0.0,0.0,-0.488969947397,0.872300630828
1521814645978364944,0.0,0.0,-0.48896998884,0.872300607597
1521814645978513956,0.0,0.0,-0.488969985255,0.872300609606
1521814646017929077,0.0,0.0,-0.48896997181,0.872300617143
1521814646030433893,0.0,0.0,-0.488969947272,0.872300630898
1521814646070045948,0.0,0.0,-0.488969939453,0.872300635281
1521814646110091924,0.0,0.0,-0.488969919127,0.872300646674
1521814646149930953,0.0,0.0,-0.488969891932,0.872300661919
1521814646150074005,0.0,0.0,-0.48896988667,0.872300664868
1521814646189970970,0.0,0.0,-0.488969856065,0.872300682024
1521814646190057992,0.0,0.0,-0.488969845764,0.872300687798
1521814646229845046,0.0,0.0,-0.488969879998,0.872300668608
1521814646241117954,0.0,0.0,-0.489682822833,0.871900644009
1521814646278225898,0.0,0.0,-0.489851668554,0.871805794208
1521814646318093061,0.0,0.0,-0.500313364703,0.865844406981
1521814646318219900,0.0,0.0,-0.502557707502,0.864543666121
1521814646358530998,0.0,0.0,-0.508706505537,0.860940004428
1521814646358802080,0.0,0.0,-0.512303139839,0.858804688454
1521814646398663043,0.0,0.0,-0.514724035082,0.857355916588
1521814646439523935,0.0,0.0,-0.521477428424,0.853265077009
1521814646440226078,0.0,0.0,-0.523237405054,0.852186961853
1521814646478413105,0.0,0.0,-0.530178657742,0.847885953932
1521814646493793964,0.0,0.0,-0.535616873753,0.844461108963
1521814646530483007,0.0,0.0,-0.536902205446,0.843644487795
1521814646570488929,0.0,0.0,-0.537029816335,0.843563261627
1521814646570774078,0.0,0.0,-0.541161959564,0.840918386956
1521814646612128973,0.0,0.0,-0.543591262087,0.839350069865
1521814646613090038,0.0,0.0,-0.549350962046,0.835591718783
1521814646650752067,0.0,0.0,-0.551150287691,0.834405992535
1521814646689974069,0.0,0.0,-0.558617291026,0.829425537446
1521814646690108060,0.0,0.0,-0.565129666857,0.825002096747
1521814646730720996,0.0,0.0,-0.567108336088,0.82364320864
1521814646738038063,0.0,0.0,-0.573911485835,0.818917337969
1521814646778752088,0.0,0.0,-0.577653629084,0.816281988535
1521814646818113088,0.0,0.0,-0.578520199625,0.815668056642
1521814646818265914,0.0,0.0,-0.578546221505,0.815649599756
1521814646857991933,0.0,0.0,-0.579175800498,0.815202669351
1521814646864382982,0.0,0.0,-0.5794490639,0.815008455383
1521814646903038024,0.0,0.0,-0.578954428666,0.815359901839
1521814646941843032,0.0,0.0,-0.578951983148,0.815361638298
1521814646941924095,0.0,0.0,-0.578948496147,0.815364114252
1521814646981930971,0.0,0.0,-0.578947072869,0.815365124847
1521814646982013940,0.0,0.0,-0.578946882353,0.815365260122
1521814647022862911,0.0,0.0,-0.578947069633,0.815365127144
1521814647043631076,0.0,0.0,-0.578948790381,0.815363905331
1521814647083820104,0.0,0.0,-0.578948854976,0.815363859465
1521814647122071027,0.0,0.0,-0.578948935333,0.815363802408
1521814647122201919,0.0,0.0,-0.578948937934,0.815363800561
1521814647162954092,0.0,0.0,-0.578948927334,0.815363808088
1521814647167871952,0.0,0.0,-0.578948884473,0.815363838521
1521814647206057071,0.0,0.0,-0.578948871149,0.815363847982
1521814647246634960,0.0,0.0,-0.578948857825,0.815363857442
1521814647246871948,0.0,0.0,-0.578948808482,0.815363892478
1521814647289407014,0.0,0.0,-0.578948789766,0.815363905768
1521814647301160097,0.0,0.0,-0.578948669716,0.815363991009
1521814647339469909,0.0,0.0,-0.578948656078,0.815364000693
1521814647377964019,0.0,0.0,-0.578948642548,0.815364010299
1521814647378138065,0.0,0.0,-0.578948633672,0.815364016602
1521814647417967081,0.0,0.0,-0.578948633671,0.815364016602
1521814647418451070,0.0,0.0,-0.578948585443,0.815364050847
1521814647459259986,0.0,0.0,-0.578948577166,0.815364056724
1521814647497972965,0.0,0.0,-0.578948549415,0.815364076428
1521814647498080015,0.0,0.0,-0.578948540082,0.815364083055
1521814647537986993,0.0,0.0,-0.578948497436,0.815364113336
1521814647538249969,0.0,0.0,-0.578948461882,0.815364138581
1521814647577917098,0.0,0.0,-0.578948422794,0.815364166336
1521814647618161916,0.0,0.0,-0.578948379605,0.815364197002
1521814647618357896,0.0,0.0,-0.578948369981,0.815364203836
1521814647659514904,0.0,0.0,-0.578948345396,0.815364221292
1521814647667090892,0.0,0.0,-0.578948324974,0.815364235792
1521814647708548069,0.0,0.0,-0.578948306549,0.815364248875
1521814647746130943,0.0,0.0,-0.57894827209,0.815364273343
1521814647746251106,0.0,0.0,-0.578948263005,0.815364279793
1521814647786806106,0.0,0.0,-0.578948237342,0.815364298015
1521814647791842937,0.0,0.0,-0.578948221022,0.815364309604
1521814647829783916,0.0,0.0,-0.57894820681,0.815364319695
1521814647869962930,0.0,0.0,-0.578948173689,0.815364343212
1521814647870102882,0.0,0.0,-0.578948164972,0.815364349402
1521814647914905071,0.0,0.0,-0.5789481563,0.815364355559
1521814647917932033,0.0,0.0,-0.578948131286,0.81536437332
1521814647959121942,0.0,0.0,-0.578948120645,0.815364380876
1521814647997966051,0.0,0.0,-0.578948041052,0.815364437391
1521814647998049974,0.0,0.0,-0.578948007763,0.815364461028
1521814648037849903,0.0,0.0,-0.578947990772,0.815364473092
1521814648042954921,0.0,0.0,-0.578947976159,0.815364483468
1521814648083503961,0.0,0.0,-0.578947959414,0.815364495358
1521814648122064113,0.0,0.0,-0.578947951388,0.815364501057
1521814648162147998,0.0,0.0,-0.578947927423,0.815364518073
1521814648162370920,0.0,0.0,-0.578947893816,0.815364541936
1521814648203171014,0.0,0.0,-0.578947885854,0.815364547589
1521814648203670978,0.0,0.0,-0.578947862401,0.815364564242
1521814648242151975,0.0,0.0,-0.578947854784,0.81536456965
1521814648254749059,0.0,0.0,-0.578947832617,0.81536458539
1521814648293936967,0.0,0.0,-0.578947791713,0.815364614434
1521814648335088014,0.0,0.0,-0.578947780772,0.815364622203
1521814648335208892,0.0,0.0,-0.578947734405,0.815364655125
1521814648375102043,0.0,0.0,-0.578947707232,0.815364674419
1521814648375484943,0.0,0.0,-0.578947696567,0.815364681992
1521814648414278030,0.0,0.0,-0.578947659142,0.815364708565
1521814648426589965,0.0,0.0,-0.578947646121,0.815364717811
1521814648466006994,0.0,0.0,-0.578947597763,0.815364752148
1521814648506958961,0.0,0.0,-0.578947582357,0.815364763087
1521814648507384061,0.0,0.0,-0.578947529017,0.815364800961
1521814648546403884,0.0,0.0,-0.578947480867,0.815364835149
1521814648546731948,0.0,0.0,-0.578947472613,0.81536484101
1521814648586251020,0.0,0.0,-0.578947441079,0.815364863401
1521814648626533985,0.0,0.0,-0.578947429632,0.815364871529
1521814648667820930,0.0,0.0,-0.578947391638,0.815364898506
1521814648668477058,0.0,0.0,-0.578947383523,0.815364904268
1521814648707467079,0.0,0.0,-0.578947360728,0.815364920454
1521814648709527969,0.0,0.0,-0.579040021671,0.815299118915
1521814648745955944,0.0,0.0,-0.579119687596,0.815242532894
1521814648792119979,0.0,0.0,-0.579199347991,0.815185939088
1521814648792218923,0.0,0.0,-0.580777346193,0.814062451013
1521814648830054998,0.0,0.0,-0.584252366398,0.811572037689
1521814648830168008,0.0,0.0,-0.584766783304,0.81120146027
1521814648871901988,0.0,0.0,-0.584684667971,0.811260648029
1521814648878201961,0.0,0.0,-0.585392832024,0.810749796309
1521814648919504880,0.0,0.0,-0.585762615951,0.81048266962
1521814648958143949,0.0,0.0,-0.593271983723,0.80500208281
1521814648958337068,0.0,0.0,-0.599083520185,0.800686540316
1521814649001741886,0.0,0.0,-0.59937068994,0.800471596024
1521814649006623029,0.0,0.0,-0.599803237603,0.800147533997
1521814649046653985,0.0,0.0,-0.59974916226,0.800188066875
1521814649090032100,0.0,0.0,-0.599740160947,0.800194813372
1521814649090173959,0.0,0.0,-0.599735577108,0.800198248905
1521814649130362033,0.0,0.0,-0.599728606979,0.800203472856
1521814649130604028,0.0,0.0,-0.599837091886,0.800122155172
1521814649169910907,0.0,0.0,-0.599952755524,0.800035431177
1521814649175328016,0.0,0.0,-0.600030692137,0.799976979978
1521814649217689037,0.0,0.0,-0.611413498145,0.791311275218
1521814649255031108,0.0,0.0,-0.616815976453,0.787107394954
1521814649293929100,0.0,0.0,-0.618094255217,0.786103995453
1521814649294086933,0.0,0.0,-0.618330339833,0.78591831054
1521814649335165977,0.0,0.0,-0.618312905405,0.785932026965
1521814649335800886,0.0,0.0,-0.618308585326,0.785935425663
1521814649374093055,0.0,0.0,-0.618294069266,0.785946845474
1521814649376493930,0.0,0.0,-0.618291835769,0.785948602531
1521814649415730953,0.0,0.0,-0.618290187729,0.785949899013
1521814649457866907,0.0,0.0,-0.618288062272,0.78595157106
1521814649498214960,0.0,0.0,-0.618285181298,0.78595383744
1521814649498363971,0.0,0.0,-0.618284874173,0.785954079046
1521814649539386987,0.0,0.0,-0.618283479527,0.785955176167
1521814649539868116,0.0,0.0,-0.618283207613,0.785955390072
1521814649581306934,0.0,0.0,-0.618282859807,0.785955663679
1521814649582652091,0.0,0.0,-0.618282433205,0.785955999271
1521814649619158029,0.0,0.0,-0.618282227794,0.78595616086
1521814649658011913,0.0,0.0,-0.618281236003,0.785956941064
1521814649658154010,0.0,0.0,-0.618281059557,0.785957079867
1521814649697969913,0.0,0.0,-0.618282954562,0.785955589138
1521814649705821037,0.0,0.0,-0.618283383833,0.785955251446
1521814649742372989,0.0,0.0,-0.618284110817,0.785954679553
1521814649782270908,0.0,0.0,-0.618284151609,0.785954647463
1521814649782769918,0.0,0.0,-0.618284158951,0.785954641687
1521814649822113037,0.0,0.0,-0.618284157988,0.785954642445
1521814649834204912,0.0,0.0,-0.618284150039,0.785954648699
1521814649875037908,0.0,0.0,-0.618286590247,0.785952729062
1521814649914688110,0.0,0.0,-0.618524406408,0.785765587613
1521814649914988040,0.0,0.0,-0.62317451904,0.782082808159
1521814649954646110,0.0,0.0,-0.62440701426,0.781099148984
1521814649961457967,0.0,0.0,-0.62595225701,0.779861379954
1521814649997961997,0.0,0.0,-0.628920852685,0.777469331265
1521814650039206981,0.0,0.0,-0.630400377105,0.776270162087
1521814650081862926,0.0,0.0,-0.634065009041,0.773279745183
1521814650081954956,0.0,0.0,-0.633451591981,0.77378232121
1521814650081998109,0.0,0.0,-0.633758736818,0.77353077735
1521814650121893882,0.0,0.0,-0.635808437839,0.771846895681
1521814650131472110,0.0,0.0,-0.636700549008,0.771111153397
1521814650170985937,0.0,0.0,-0.63891628261,0.76927627275
1521814650210140943,0.0,0.0,-0.639018506407,0.769191360111
1521814650210370063,0.0,0.0,-0.639004867007,0.769202691065
1521814650250921964,0.0,0.0,-0.639252651854,0.768996779641
1521814650260195970,0.0,0.0,-0.640011642513,0.768365210982
1521814650298065900,0.0,0.0,-0.641835600381,0.766842266756
1521814650337960004,0.0,0.0,-0.642499744665,0.766285898412
1521814650338105916,0.0,0.0,-0.645967084197,0.763365263904
1521814650377888917,0.0,0.0,-0.647192579377,0.762326547616
1521814650383560895,0.0,0.0,-0.647292654713,0.762241575326
1521814650421791076,0.0,0.0,-0.647307930552,0.762228602877
1521814650462464094,0.0,0.0,-0.647299733898,0.762235563652
1521814650502650976,0.0,0.0,-0.647284342744,0.76224863374
1521814650502794027,0.0,0.0,-0.647274359438,0.762257111226
1521814650542104005,0.0,0.0,-0.647272397709,0.762258777033
1521814650544909954,0.0,0.0,-0.647267875034,0.762262617442
1521814650582210063,0.0,0.0,-0.647266882368,0.762263460353
1521814650621982097,0.0,0.0,-0.647500848654,0.762064728873
1521814650622119903,0.0,0.0,-0.647582574823,0.761995281341
1521814650662708044,0.0,0.0,-0.651216754794,0.75889178298
1521814650663002014,0.0,0.0,-0.651862696739,0.758337012548
1521814650702047109,0.0,0.0,-0.652407545258,0.757868322924
1521814650709727048,0.0,0.0,-0.652977140711,0.757377616324
1521814650746299982,0.0,0.0,-0.653733332997,0.756725002447
