%time,field.x,field.y,field.z
1521814625645265102,1.0543149105e-07,4.60568238738e-16,0.0
1521814625681039094,0.00545215155593,-0.00657228394444,0.0
1521814625704957008,0.00545246785008,-0.00657228394324,0.0
1521814625709192991,0.0054524942079,-0.00657228394313,0.0
1521814625735738039,0.00545252056572,-0.00657228394302,0.0
1521814625761316061,0.00545257328136,-0.0065722839428,0.0
1521814625793900966,0.00545325874461,-0.00657284663379,0.0
1521814625812623977,0.00545331146185,-0.00657284663501,0.0
1521814625841186046,0.00547479573509,-0.00657284653466,0.0
1521814625861896038,0.00599398808425,-0.00657284541524,0.0
1521814625884471893,0.00666189766008,-0.00657284499316,0.0
1521814625923530101,0.0147325028765,-0.00657971184708,0.0
1521814625943336963,0.0276859490037,-0.00657964823459,0.0
1521814625968698978,0.0561948245931,-0.006579511354,0.0
1521814625990243911,0.0481238775113,0.00637930209192,0.0
1521814626012886047,0.0612640672343,0.00637951322763,0.0
1521814626038950920,0.0911836976468,0.00637999333154,0.0
1521814626060554027,0.0995579927845,0.00638012725532,0.0
1521814626091406106,0.132958301775,0.00756776470764,0.0
1521814626112953901,0.162545954636,0.00756833513511,0.0
1521814626135714054,0.17243012523,0.00756852777938,0.0
1521814626167707920,0.211459421625,0.00756933181015,0.0
1521814626189364910,0.231608020892,0.00756977331623,0.0
1521814626210796117,0.2416983456,0.00757000174008,0.0
1521814626246237993,0.199846850957,-0.0065360086503,0.0
1521814626261883974,0.209949888374,-0.00653626953487,0.0
1521814626288579940,0.220052403625,-0.00653653030736,0.0
1521814626311558008,0.230154545633,-0.00653679087555,0.0
1521814626354924917,0.312348578108,-0.00653890568518,0.0
1521814626363974094,0.341790328852,-0.00653966130863,0.0
1521814626392657041,0.392552732249,0.000666930045379,0.0
1521814626411279916,0.402648268713,0.000668282720888,0.0
1521814626437412977,0.412744327214,0.000669636230481,0.0
1521814626466582059,0.433058671491,0.000672357811726,0.0
1521814626495723962,0.445778605077,0.000520300244154,0.0
1521814626514502048,0.466056410355,0.00052454720404,0.0
1521814626538963079,0.486330738265,0.000528793666803,0.0
1521814626575786113,0.52686912834,0.000537285166286,0.0
1521814626589380979,0.537001045537,0.000539407404945,0.0
1521814626626095056,0.590033965694,-0.00223944388923,0.0
1521814626645983934,0.610291536637,-0.00225533172757,0.0
1521814626670253992,0.630545883277,-0.00227121701686,0.0
1521814626691534042,0.659907403905,-0.00229424390778,0.0
1521814626722037076,0.700223994268,-0.00232586332928,0.0
1521814626742007017,0.720378601335,-0.00234167004634,0.0
1521814626774149894,0.70533990768,-0.000471415297075,0.0
1521814626793915987,0.734672507046,-0.000484771141551,0.0
1521814626814838886,0.744747403133,-0.000489359056306,0.0
1521814626846276044,0.795113649898,-0.000512293441821,0.0
1521814626867127895,0.774287959102,0.00247214491919,0.0
1521814626894673109,0.814572944568,0.00246077169904,0.0
1521814626920417070,0.834712773537,0.00245508605082,0.0
1521814626941973924,0.865929552152,0.00244627490399,0.0
1521814626976639032,0.906346506983,0.00243486617817,0.0
1521814626996134996,0.995132341418,0.0019574693224,0.0
1521814627015237092,1.00523355253,0.00195575113607,0.0
1521814627049945116,1.05573190246,0.00194716343296,0.0
1521814627066483020,1.06582935455,0.00194544618879,0.0
1521814627098191976,1.09611882777,0.00194029564034,0.0
1521814627116609096,1.10621385177,0.00193857897969,0.0
1521814627150285005,1.05751830968,-0.0065988923259,0.0
1521814627178879976,1.12702587573,-0.00660598198447,0.0
1521814627192390918,1.13708357794,-0.00660700782996,0.0
1521814627217854022,1.14714178913,-0.00660803304353,0.0
1521814627248862981,1.18744588653,-0.00661214282496,0.0
1521814627269700050,1.19850850077,-0.00661327073041,0.0
1521814627294378042,1.22775139752,-0.0066162503667,0.0
1521814627325401067,1.26796854987,-0.00662034789709,0.0
1521814627346117019,1.2780213819,-0.00662137214577,0.0
1521814627373603105,1.28807381383,-0.00662239635856,0.0
1521814627400981903,1.33939727001,-0.00662762207019,0.0
1521814627425234079,1.35955486247,-0.0066296743757,0.0
1521814627444205999,1.36963251961,-0.00663070055183,0.0
1521814627480874061,1.42001503953,-0.00663582953922,0.0
1521814627497303962,1.44016493723,-0.00663788042946,0.0
1521814627522703886,1.46937809431,-0.00664085272769,0.0
1521814627549647092,1.50956495202,-0.00664494194361,0.0
1521814627576725006,1.52965621326,-0.00664698611901,0.0
1521814627600250959,1.54974633805,-0.00664902998909,0.0
1521814627628787040,1.56983534121,-0.0066510736384,0.0
1521814627646653890,1.58992323688,-0.00665311706323,0.0
1521814627675450086,1.61001003904,-0.00665516022524,0.0
1521814627699934959,1.63009576147,-0.00665720314799,0.0
1521814627722912073,1.64013788623,-0.00665822473896,0.0
1521814627754578113,1.70149788291,-0.00666446403516,0.0
1521814627775774002,1.72162359425,-0.00666651020059,0.0
1521814627802216053,1.76187033231,-0.00667060168595,0.0
1521814627823024988,1.78199139697,-0.00667264702217,0.0
1521814627846812009,1.79205100263,-0.00667366978151,0.0
1521814627879393100,1.82222814045,-0.00667673745687,0.0
1521814627899689912,1.84234472928,-0.00667878216513,0.0
1521814627926074028,1.87151048853,-0.00668174587177,0.0
1521814627959043025,1.9026620089,-0.00668491254346,0.0
1521814627977860927,1.92277280817,-0.00668695647334,0.0
1521814627998797893,1.93282738496,-0.00668797846412,0.0
1521814628031388998,1.97203690498,-0.00669196208632,0.0
1521814628058901071,2.01217357898,-0.00669603941877,0.0
1521814628077780961,2.03224033728,-0.00669807766935,0.0
1521814628099302053,2.04227310489,-0.00669909690973,0.0
1521814628129287958,2.0723706813,-0.0067021537788,0.0
1521814628149663925,2.08240263623,-0.0067031727198,0.0
1521814628187715053,2.13256051477,-0.00670826534717,0.0
1521814628201193094,2.1526224532,-0.00671030140081,0.0
1521814628227915048,2.17268362298,-0.00671233721249,0.0
1521814628251238107,2.1927440337,-0.00671437298543,0.0
1521814628277908086,2.21280369485,-0.00671640819707,0.0
1521814628306533098,2.25293529422,-0.00672047935803,0.0
1521814628327588081,2.27299377934,-0.00672251399998,0.0
1521814628353610038,2.28302197665,-0.00672353139003,0.0
1521814628377893924,2.30409241121,-0.00672566834117,0.0
1521814628406888008,2.32417805888,-0.00672770529778,0.0
1521814628432214975,2.35329934487,-0.00673065845632,0.0
1521814628458550930,2.40446804728,-0.0067358447151,0.0
1521814628479902029,2.42454905989,-0.0067378798758,0.0
1521814628503205060,2.43458890645,-0.00673889747944,0.0
1521814628535362005,2.48473367778,-0.00674397871594,0.0
1521814628553327083,2.49477123876,-0.00674499587668,0.0
1521814628580957889,2.52488511564,-0.00674804584786,0.0
1521814628605202913,2.54496031372,-0.00675007956367,0.0
1521814628631020069,2.56503454704,-0.0067521130589,0.0
1521814628657989025,2.60518025405,-0.00675617927413,0.0
1521814628680423974,2.62525175198,-0.00675821195276,0.0
1521814628708009958,2.66539209354,-0.00676227635771,0.0
1521814628730437040,2.68546095944,-0.00676430819998,0.0
1521814628757138013,2.70552897002,-0.00676633985682,0.0
1521814628784123897,2.7346256433,-0.00676928452917,0.0
1521814628809956073,2.75466864874,-0.00677131314069,0.0
1521814628834408998,2.79475234694,-0.00677536964092,0.0
1521814628858696937,2.80477270078,-0.00677638384985,0.0
1521814628881278991,2.81479353227,-0.00677739749057,0.0
1521814628909774065,2.82582691089,-0.00677851509148,0.0
1521814628941374063,2.87497614934,-0.00678348883376,0.0
1521814628959687948,2.90603963153,-0.00678663102109,0.0
1521814628988198041,2.93512438282,-0.00678957299886,0.0
1521814629008622884,2.94514320434,-0.00679058688349,0.0
1521814629045298099,2.97522832822,-0.00679363003425,0.0
1521814629062279939,2.99526537069,-0.00679565700581,0.0
1521814629088179111,3.00628602315,-0.00679677206667,0.0
1521814629109185934,3.11413633059,-0.00331291327469,0.0
1521814629143105030,3.19435971714,-0.00331230982594,0.0
1521814629162070989,3.21441276966,-0.00331216039938,0.0
1521814629191925048,3.25451690572,-0.00331186079129,0.0
1521814629209419012,3.26454227326,-0.00331178597387,0.0
1521814629244417905,3.20642202014,-0.00391331967824,0.0
1521814629262645006,3.21644706794,-0.00391320274041,0.0
1521814629287206888,3.22647258739,-0.00391308509356,0.0
1521814629326371908,3.31566160011,-0.00391203895888,0.0
1521814629338886022,3.33569243061,-0.00391180349162,0.0
1521814629366905927,3.36720692354,-0.0039450150551,0.0
1521814629395906925,3.40726622906,-0.00394463513154,0.0
1521814629421309947,3.42729533766,-0.00394444484315,0.0
1521814629443764925,3.44732408964,-0.00394425435822,0.0
1521814629469618082,3.39459051995,-0.00399599528178,0.0
1521814629495182037,3.41461857077,-0.00399585795402,0.0
1521814629525999069,3.45467364706,-0.0039955828363,0.0
1521814629547230005,3.47470068115,-0.00399544491999,0.0
1521814629571281909,3.49472738489,-0.00399530694556,0.0
1521814629596313953,3.51475376249,-0.0039951686822,0.0
1521814629628391981,3.60205616341,-0.00574263655077,0.0
1521814629649302005,3.62208159672,-0.00574220052088,0.0
1521814629671669960,3.64210672018,-0.00574176414306,0.0
1521814629698404073,3.66213153773,-0.00574132789212,0.0
1521814629734251976,3.74961482259,0.0128178619729,0.0
1521814629744462966,3.75963278515,0.0128169690306,0.0
1521814629774909019,3.76965063721,0.0128160759802,0.0
1521814629794764041,3.77966850203,0.0128151831222,0.0
1521814629829044103,3.80972181304,0.0128125055131,0.0
1521814629849667072,3.82975703924,0.0128107210895,0.0
1521814629879475116,3.79525033857,-0.00761434501372,0.0
1521814629911884069,3.83531865361,-0.00761839499307,0.0
1521814629923160076,3.84533523504,-0.00761940751894,0.0
1521814629960732936,3.87538474583,-0.00762244469269,0.0
1521814629977977991,3.89541745781,-0.00762446921242,0.0
1521814630005239963,4.02294792743,-0.00850414208865,0.0
1521814630026304960,4.05397964558,-0.00850609161686,0.0
1521814630049400091,4.06399452624,-0.00850672093955,0.0
1521814630079785108,4.10303925212,-0.00850917366028,0.0
1521814630098218917,4.11304878918,-0.00850980260141,0.0
1521814630132391929,4.09166616583,0.00888998398117,0.0
1521814630155860900,4.12269663091,0.00888535150279,0.0
1521814630174171924,4.13271063369,0.00888385522177,0.0
1521814630204521894,4.13271022331,0.00888385516335,0.0
1521814630236821889,4.24690316785,-0.0169187843605,0.0
1521814630256581068,4.25691649596,-0.0169198026336,0.0
1521814630282181024,4.27594104458,-0.0169217371899,0.0
1521814630302047014,4.28594973636,-0.0169227548667,0.0
1521814630334136009,4.33600931622,-0.0169278434864,0.0
1521814630364016056,4.39794616125,0.0134980789636,0.0
1521814630376590013,4.40795418182,0.0135027466107,0.0
1521814630413244962,4.43797834026,0.0135167512479,0.0
1521814630431343078,4.47801023124,0.0135354262594,0.0
1521814630455468893,4.48801786559,0.0135400942621,0.0
1521814630485183954,4.51804087039,0.0135540995558,0.0
1521814630502827882,4.5280483189,0.0135587676713,0.0
1521814630534954071,4.50442937062,0.00334099571842,0.0
1521814630560537099,4.55348470522,0.00335422951734,0.0
1521814630584017038,4.57508559598,-0.00763893218072,0.0
1521814630608503103,4.5951001246,-0.00763547861025,0.0
1521814630633198022,4.60510704545,-0.00763375154331,0.0
1521814630660592079,4.61511388615,-0.00763202445401,0.0
1521814630692421913,4.68617829996,-0.00761975625812,0.0
1521814630707010984,4.6961883866,-0.00761802833013,0.0
1521814630743967056,4.74616403351,-0.000301984115681,0.0
1521814630762782096,4.78620387714,-0.000298024525701,0.0
1521814630781583070,4.7962134785,-0.000297034961628,0.0
1521814630810545921,4.82623658808,-0.000294066147713,0.0
1521814630832825899,4.83624576391,-0.00029307649141,0.0
1521814630863533020,4.81348463458,0.00315518382539,0.0
1521814630887608051,4.82449128198,0.00315582381179,0.0
1521814630907084941,4.83450012049,0.00315640584378,0.0
1521814630940145969,4.8735270292,0.00315867690322,0.0
1521814630959767103,4.89353879605,0.00315984167264,0.0
1521814630995424985,5.01186096997,0.00225655962621,0.0
1521814631010288000,5.02186940018,0.00225691168828,0.0
1521814631046031951,5.06090286995,0.00225828716716,0.0
1521814631064291954,5.08091406425,0.00225899211671,0.0
1521814631092277050,5.11316153038,0.00491472739583,0.0
1521814631131375074,5.12316676287,0.00491495672009,0.0
1521814631175782918,5.20421034338,0.00491682099166,0.0
1521814631175875902,5.24424116456,0.00491774235537,0.0
1521814631215250968,5.25424858314,0.00491797239843,0.0
1521814631219690084,5.26425589365,0.00491820235227,0.0
1521814631258569955,5.20152156744,0.00271824403967,0.0
1521814631298084020,5.21152866619,0.00271840080262,0.0
1521814631298216104,5.24154387786,0.00271887376867,0.0
1521814631342453956,5.25155080224,0.00271903069546,0.0
1521814631343693017,5.26155765225,0.00271918754901,0.0
1521814631380883932,5.3215994922,0.0027201329626,0.0
1521814631418920040,5.33160613161,0.00272029037808,0.0
1521814631458880901,5.37062522923,0.00272090962899,0.0
1521814631459367036,5.39063400889,0.00272122577007,0.0
1521814631498573064,5.40063816314,0.00272138353141,0.0
1521814631499013900,5.45065927101,0.0027221749044,0.0
1521814631538676023,5.46066327715,0.00272233308926,0.0
1521814631544693946,5.49067547275,0.00272280855834,0.0
1521814631582748889,5.530691729,0.00272344419922,0.0
1521814631622024059,5.54069554654,0.00272360288843,0.0
1521814631622158050,5.55069977819,0.00272376261906,0.0
1521814631662029027,5.58171723148,0.00272425525076,0.0
1521814631671802043,5.62174038515,0.00272489356431,0.0
1521814631709896087,5.6317459106,0.00272505291986,0.0
1521814631754556894,5.66176255152,0.00272553176252,0.0
1521814631754720926,5.67176794418,0.00272569127308,0.0
1521814631794138908,5.70178418738,0.00272617055649,0.0
1521814631801862955,5.76181633817,0.00272713098986,0.0
1521814631839023113,5.77182141376,0.00272729076641,0.0
1521814631877724885,5.81083688927,0.00272791522786,0.0
1521814631877793073,5.82084012129,0.0027280750504,0.0
1521814631918066024,5.83084327284,0.00272823475099,0.0
1521814631923360109,5.87085663028,0.00272887602023,0.0
1521814631962063074,5.88085974954,0.00272903603446,0.0
1521814632004061937,5.91086927498,0.00272951690406,0.0
1521814632004713058,5.92087232188,0.00272967705323,0.0
1521814632042511940,5.97088790943,0.00273047933137,0.0
1521814632048185110,6.01090025981,0.00273112221262,0.0
1521814632085944890,6.0209031334,0.00273128261084,0.0
1521814632126251935,6.05091673989,0.0027317666631,0.0
1521814632126528978,6.06091957021,0.00273192727773,0.0
1521814632167574882,6.09092816115,0.00273240986433,0.0
1521814632172665119,6.10093090331,0.00273257060985,0.0
1521814632209898948,6.13093928755,0.00273305367956,0.0
1521814632251244068,6.19096116461,0.00273402488337,0.0
1521814632251514911,6.20096377278,0.00273418609968,0.0
1521814632289838075,6.23097169056,0.00273467054897,0.0
1521814632298698902,6.27098235372,0.00273531779767,0.0
1521814632339188098,6.28098482112,0.00273547939996,0.0
1521814632377850055,6.29098719561,0.00273564091903,0.0
1521814632377939939,6.30098963419,0.0027358026163,0.0
1521814632417764902,6.31099197009,0.00273596428499,0.0
1521814632429146051,6.37100716514,0.00273693826558,0.0
1521814632466070890,6.38100949173,0.00273710047095,0.0
1521814632506735086,6.43102145827,0.00273791360222,0.0
1521814632507438898,6.47103400504,0.00273856574381,0.0
1521814632546066045,6.48103604877,0.00273872838683,0.0
1521814632549685955,6.49103804944,0.00273889087607,0.0
1521814632586786031,6.5010401544,0.00273905358726,0.0
1521814632625900030,6.54205234646,0.00273972267426,0.0
1521814632626003980,6.57106156136,0.00274019594198,0.0
1521814632666536092,6.58106366707,0.00274035899725,0.0
1521814632683912038,6.61107159895,0.00274084898139,0.0
1521814632724355936,6.67108618391,0.00274183463149,0.0
1521814632762028932,6.68108813812,0.00274199822278,0.0
1521814632762140035,6.69108998738,0.00274216165019,0.0
1521814632805119991,6.70109191933,0.002742325353,0.0
1521814632808964967,6.75110317531,0.00274314689223,0.0
1521814632846057891,6.80211599697,0.0027439872894,0.0
1521814632885895967,6.81211872129,0.00274415165281,0.0
1521814632885972023,6.82212182921,0.0027443169258,0.0
1521814632925700902,6.82212131326,0.00274431580248,0.0
1521814632935184955,6.90214347065,0.00274563473898,0.0
1521814632974879026,6.95730813942,-0.0264515569611,0.0
1521814633017940998,7.00625072807,-0.00374119515101,0.0
1521814633018047094,7.0162524134,-0.00374114153111,0.0
1521814633058902978,7.01725264998,-0.00374113622049,0.0
1521814633060079097,7.06626424461,-0.00374087138854,0.0
1521814633098048925,7.07626586174,-0.00374081765837,0.0
1521814633141992092,7.10627095697,-0.0037406559191,0.0
1521814633142102003,7.06435869881,-0.00361667238755,0.0
1521814633182995080,7.12436908329,-0.0036169814183,0.0
1521814633183339118,7.13437061171,-0.00361703307049,0.0
1521814633222090959,7.17537944707,-0.00361724323288,0.0
1521814633236699104,7.19522658769,-0.0035732473175,0.0
1521814633273746967,7.20522877536,-0.00357344259204,0.0
1521814633313841104,7.23523552862,-0.00357402772752,0.0
1521814633313973903,7.27524465058,-0.00357480673017,0.0
1521814633354687929,7.28524673943,-0.00357500156661,0.0
1521814633360626935,7.38983050971,-0.00348884245096,0.0
1521814633398899078,7.39983187968,-0.00348946067086,0.0
1521814633439115047,7.42983624346,-0.00349131465765,0.0
1521814633439559936,7.46984223218,-0.00349378552241,0.0
1521814633479043960,7.37455939216,-0.00380565533999,0.0
1521814633483999013,7.39456233131,-0.00380689140811,0.0
1521814633522059917,7.41456524282,-0.00380812724017,0.0
1521814633562069892,7.4245665207,-0.00380874524072,0.0
1521814633562203884,7.46557283042,-0.00381127745413,0.0
1521814633602982044,7.52558419806,-0.00381498204674,0.0
1521814633606411933,7.56892125189,-0.00331145202506,0.0
1521814633646527051,7.61793108743,-0.00331779571658,0.0
1521814633686048030,7.62793226793,-0.00331909035457,0.0
1521814633725827932,7.65793603666,-0.00332297346683,0.0
1521814633725946903,7.6979412367,-0.00332814954089,0.0
1521814633765912055,7.70120032333,0.0124122853723,0.0
1521814633766035079,7.74120543579,0.0124095136032,0.0
1521814633805860996,7.75120653354,0.0124088200428,0.0
1521814633811254978,7.79221298967,0.0124059794628,0.0
1521814633850018024,7.81221642516,0.0124045940959,0.0
1521814633890122890,7.82221797656,0.0124039008398,0.0
1521814633932037115,7.79840628344,0.0118584643332,0.0
1521814633932178974,7.80840733117,0.0118580940846,0.0
1521814633970036029,7.8384106979,0.0118569847297,0.0
1521814633983347892,8.02030237338,0.0108734973117,0.0
1521814634021949052,8.03030336156,0.0108732510422,0.0
1521814634022027015,8.08030879636,0.0108720225307,0.0
1521814634063117027,8.10031101362,0.0108715317273,0.0
1521814634065999031,8.11031195589,0.0108712856787,0.0
1521814634105865001,8.12021552415,-0.00554625206013,0.0
1521814634146122932,8.16021986694,-0.00554708477953,0.0
1521814634146282911,8.1702207813,-0.005547292974,0.0
1521814634186017990,8.20022377955,-0.00554791703717,0.0
1521814634190900087,8.2312276702,-0.00554856135731,0.0
1521814634230026960,8.20267649481,0.00322220177141,0.0
1521814634271295070,8.23367951345,0.00321420950924,0.0
1521814634271753072,8.24368072483,0.00321163109132,0.0
1521814634309973001,8.26268299915,0.0032067328541,0.0
1521814634323983907,8.28268498847,0.00320157722623,0.0
1521814634362210988,8.28159864769,-0.0180011865743,0.0
1521814634401710033,8.30127468208,0.00834846920888,0.0
1521814634441832065,8.38128240708,0.00834118364906,0.0
1521814634441932916,8.39128319816,0.00834027263547,0.0
1521814634481895923,8.43228668225,0.00833653861643,0.0
1521814634482006072,8.40191880973,0.0061725397662,0.0
1521814634523205041,8.41191957195,0.00617195979292,0.0
1521814634523699045,8.42192029893,0.00617137976375,0.0
1521814634565896034,8.46192387277,0.00616906252169,0.0
1521814634566004037,8.4719246066,0.00616848285909,0.0
1521814634605961084,8.51292902104,0.00616610944909,0.0
1521814634624298095,8.54193279961,0.00616443270629,0.0
1521814634661936998,8.57316796813,0.00255893767724,0.0
1521814634702496051,8.5831686659,0.0025586839689,0.0
1521814634702601909,8.61317100605,0.00255792383895,0.0
1521814634742405891,8.76231584739,0.00983649690343,0.0
1521814634742501020,8.77231652124,0.00983636158023,0.0
1521814634783385038,8.80231879279,0.00983595687279,0.0
1521814634797550916,8.84232202384,0.00983541892742,0.0
1521814634837960958,8.8523226721,0.00983528401466,0.0
1521814634877861976,8.81651205062,0.00375921135065,0.0
1521814634877965927,8.82651293882,0.00375915527486,0.0
1521814634922111034,8.86551654274,0.00375893747971,0.0
1521814634922346115,8.87551716704,0.00375888158704,0.0
1521814634961893081,8.88551812223,0.00375882665111,0.0
1521814634973747968,8.91652065641,0.00375865341817,0.0
1521814635009919881,8.92024614523,0.0707396337853,0.0
1521814635049923896,8.96038184987,-0.00302572133278,0.0
1521814635050031900,9.00038571233,-0.00302303997846,0.0
1521814635090847969,9.01038652899,-0.00302236980903,0.0
1521814635101344108,9.0693909765,-0.00301841458186,0.0
1521814635141150951,9.07939154061,-0.0030177443704,0.0
1521814635178018093,9.10825537971,0.00661037591742,0.0
1521814635219130039,9.13725781305,0.00661147244147,0.0
1521814635219491958,9.1472583642,0.00661185029112,0.0
1521814635258912086,9.16825998887,0.00661264524785,0.0
1521814635259022951,9.17826073317,0.00661302328133,0.0
1521814635297899961,9.19726218687,0.00661374235436,0.0
1521814635307085990,9.24826543846,0.00661567292549,0.0
1521814635345839977,9.25826614571,0.00661605119773,0.0
1521814635388012886,9.31727014501,0.00661828657155,0.0
1521814635388528108,9.32727064769,0.00661866507707,0.0
1521814635427025079,9.35727343218,0.00661980459958,0.0
1521814635427160024,9.36727392878,0.00662018354997,0.0
1521814635465792894,9.37727438315,0.00662056243243,0.0
1521814635472213983,9.38727487232,0.00662094156278,0.0
1521814635510715961,9.45728054857,0.00662360335875,0.0
1521814635550947904,9.49728295907,0.00662512493005,0.0
1521814635591312885,9.53728532447,0.00662664735789,0.0
1521814635591573953,9.54728577861,0.0066270275826,0.0
1521814635634545087,9.55728618507,0.00662740766853,0.0
1521814635635109901,9.56728663504,0.00662778799317,0.0
1521814635670104980,9.57728702957,0.00662816823756,0.0
1521814635685117959,9.64829160781,0.00663087599188,0.0
1521814635726089000,9.65829219454,0.00663125681809,0.0
1521814635766061067,9.68829410827,0.00663240024221,0.0
1521814635766176939,9.6982946864,0.00663278130031,0.0
1521814635807113885,9.72829656412,0.00663392549038,0.0
1521814635807413101,9.73829713128,0.00663430683375,0.0
1521814635845896005,9.76829897338,0.00663545178222,0.0
1521814635861524105,9.80830164672,0.00663698013215,0.0
1521814635898088932,9.81830219311,0.00663736192486,0.0
1521814635939604997,9.85730493496,0.00663885385871,0.0
1521814635940048933,9.86730533279,0.00663923575806,0.0
1521814635977812051,9.89730668674,0.0066403822862,0.0
1521814635977912902,9.90730707624,0.00664076427183,0.0
1521814636017978906,9.93730840888,0.00664191100472,0.0
1521814636034508943,9.97731098986,0.00664344205947,0.0
1521814636070010900,9.98731137016,0.00664382411848,0.0
1521814636110493898,10.0483149181,0.00664615802224,0.0
1521814636110723972,10.0583154109,0.00664654028816,0.0
1521814636150633096,10.0683158248,0.00664692225,0.0
1521814636153182029,10.0883170037,0.0066476876464,0.0
1521814636189810991,10.137319713,0.00664956260143,0.0
1521814636230271100,10.1473200741,0.0066499449919,0.0
1521814636270642995,10.1973228246,0.00665186106314,0.0
1521814636270817995,10.2073231749,0.00665224352418,0.0
1521814636310089111,10.2373243616,0.00665339169698,0.0
1521814636311433076,10.2773261726,0.00665492391613,0.0
1521814636350002050,10.287326513,0.00665530660682,0.0
1521814636389961957,10.3173276632,0.0066564555469,0.0
1521814636390105962,10.3273279986,0.00665683838463,0.0
1521814636430165052,10.3483286054,0.00665764339651,0.0
1521814636430358886,10.3583290343,0.00665802670607,0.0
1521814636469999074,10.4083320593,0.00665994782962,0.0
1521814636483043909,10.4483342084,0.00666148617308,0.0
1521814636522010087,10.4583346236,0.0066618701625,0.0
1521814636563160896,10.4973372801,0.00666337375751,0.0
1521814636563611030,10.5073375929,0.00666375807178,0.0
1521814636607639074,10.5373386354,0.00666491184375,0.0
1521814636607808113,10.5473389428,0.00666529644553,0.0
1521814636646888971,10.5683394761,0.00666610398069,0.0
1521814636661214113,10.6173420302,0.00666799397754,0.0
1521814636697921991,10.6273423278,0.00666837927034,0.0
1521814636738122940,10.6573433165,0.00666953594573,0.0
1521814636738265037,10.6773440951,0.00667030794261,0.0
1521814636778069019,10.6973448682,0.00667108010416,0.0
1521814636786056041,10.7573475643,0.0066733992271,0.0
1521814636826035976,10.7673478486,0.00667378533469,0.0
1521814636866413116,10.8083495669,0.00667537017618,0.0
1521814636866617918,10.8183499232,0.00667575651699,0.0
1521814636905849933,10.8283505628,0.00667614411454,0.0
1521814636913302898,10.8483510394,0.00667691602987,0.0
1521814636951025009,10.8883527704,0.00667846380399,0.0
1521814636989773988,10.8983531161,0.00667885050446,0.0
1521814637030216932,10.9792022005,-0.00102073561655,0.0
1521814637030425071,11.0192040351,-0.0010195683051,0.0
1521814637070014953,11.0292043731,-0.00101927662596,0.0
1521814637070377111,11.0682063394,-0.00101813739441,0.0
1521814637109977006,11.0782066029,-0.00101784558143,0.0
1521814637154783964,11.1152121779,-0.00254060373515,0.0
1521814637154941082,11.1352130661,-0.00254026587352,0.0
1521814637194071054,11.1552139493,-0.00253992785133,0.0
1521814637194214105,11.1652142721,-0.00253975900906,0.0
1521814637234577894,11.2152162878,-0.00253891388903,0.0
1521814637244205951,11.2163019558,-0.00305317236362,0.0
1521814637282481908,11.2263022668,-0.00305310982343,0.0
1521814637323669910,11.2563033803,-0.00305292183455,0.0
1521814637323890924,11.3053056791,-0.00305261364213,0.0
1521814637362406969,11.3153059213,-0.00305255099896,0.0
1521814637371326923,11.3481566566,0.0182914398298,0.0
1521814637410027027,11.358156897,0.0182915149967,0.0
1521814637450633049,11.3681571132,0.0182915899977,0.0
1521814637450786113,11.4081588939,0.018291896616,0.0
1521814637491178989,11.3763594942,0.00838005607195,0.0
1521814637492330074,11.4073604582,0.0083801131338,0.0
1521814637530626058,11.4563626444,0.00838020809357,0.0
1521814637571160078,11.4663628718,0.0083802268016,0.0
1521814637610223054,11.4963637534,0.00838028416648,0.0
1521814637610325098,11.5768824908,-0.00504898804157,0.0
1521814637650218009,11.6168838895,-0.00504907208301,0.0
1521814637650366067,11.6678861041,-0.00504917619311,0.0
1521814637691453933,11.6778863748,-0.00504919640799,0.0
1521814637691937923,11.6878866086,-0.00504921655698,0.0
1521814637730259895,11.7078873591,-0.00504925659446,0.0
1521814637745286941,11.7361799744,-0.00407251879304,0.0
1521814637783255100,11.74618024,-0.00407260827297,0.0
1521814637821892976,11.7961819615,-0.00407305466136,0.0
1521814637862202882,11.8651850091,-0.00407366807118,0.0
1521814637862606048,11.8761852369,-0.00407376583113,0.0
1521814637901880025,11.7835165681,-0.00444760003296,0.0
1521814637901988029,11.7935167707,-0.00444761915448,0.0
1521814637941787958,11.843518718,-0.00444771340257,0.0
1521814637946171045,12.005365849,-0.00512351437199,0.0
1521814637983242034,12.0153660518,-0.00512350709752,0.0
1521814638022124052,12.0453674157,-0.0051234848572,0.0
1521814638022311925,12.0553676173,-0.00512347739286,0.0
1521814638061933040,12.0853684204,-0.00512345465241,0.0
1521814638062180042,12.0953686198,-0.00512344698701,0.0
1521814638103439092,12.125369415,-0.00512342374136,0.0
1521814638141997098,12.1313758128,-0.00656021430388,0.0
1521814638142124891,12.1413760453,-0.00656018175485,0.0
1521814638182171106,12.1413760213,-0.00656018175523,0.0
1521814638194443941,12.171377335,-0.00656008398132,0.0
1521814638234292030,12.2003781795,-0.00655998908342,0.0
1521814638273912906,12.1763136763,-0.00531635733263,0.0
1521814638274039030,12.2273156604,-0.00531650876817,0.0
1521814638315201044,12.2763180423,-0.00531665332283,0.0
1521814638316646099,12.28631823,-0.00531668286214,0.0
1521814638354777097,12.3356406899,-0.00605182836099,0.0
1521814638393779039,12.3756418889,-0.00605706672997,0.0
1521814638393862962,12.3856420747,-0.00605837626495,0.0
1521814638435352087,12.415642825,-0.00606230439317,0.0
1521814638442694902,12.4256430091,-0.00606361373197,0.0
1521814638481827974,12.4466436707,-0.00606636289251,0.0
1521814638522269964,12.4931082186,0.00499652116586,0.0
1521814638522469997,12.5031084032,0.00499309215365,0.0
1521814638561767101,12.5441097003,0.00497903460247,0.0
1521814638580204963,12.6041123221,0.0049584660381,0.0
1521814638619297027,12.5623846217,-0.00737319681387,0.0
1521814638657918930,12.6223864732,-0.00738684406245,0.0
1521814638658020019,12.6423870832,-0.00739139225028,0.0
1521814638698203086,12.6623876893,-0.00739594022056,0.0
1521814638698385953,12.6723878892,-0.0073982138876,0.0
1521814638737807035,12.6723878659,-0.00739821384796,0.0
1521814638744105100,12.7020993882,0.0100791901858,0.0
1521814638785147905,12.7721019879,0.0100696052656,0.0
1521814638823548078,12.8211037121,0.0100628963848,0.0
1521814638863337039,12.8611047967,0.0100574201387,0.0
1521814638863605976,12.8711049604,0.0100560508487,0.0
1521814638903927087,12.881105097,0.0100546813991,0.0
1521814638904426097,12.8205041908,0.00844833837094,0.0
1521814638941890001,12.8305043467,0.00844755399837,0.0
1521814638950386047,12.8605049943,0.00844520161779,0.0
1521814638986773014,12.8705051489,0.00844441742015,0.0
1521814639026391029,13.0016680141,0.00316418805244,0.0
1521814639066117048,13.06166959,0.00316077319167,0.0
1521814639066248893,13.071669746,0.00316020405837,0.0
1521814639106606006,13.1126710827,0.00315787127049,0.0
1521814639106705904,13.0943012335,-0.000169829793399,0.0
1521814639146591901,13.1143017859,-0.000170404941013,0.0
1521814639147170066,13.1243019629,-0.000170692478336,0.0
1521814639186068058,13.1633031999,-0.000171813428914,0.0
1521814639196995973,13.1743033677,-0.000172129720347,0.0
1521814639234141111,13.2033044545,-0.000172963103389,0.0
1521814639273869991,13.2633059743,-0.00017468719988,0.0
1521814639273993015,13.273306126,-0.000174974527411,0.0
1521814639314008951,13.3233072489,-0.000176410442829,0.0
1521814639323282957,13.3333073997,-0.000176697590908,0.0
1521814639361988067,13.3433077798,-0.000176984537293,0.0
1521814639402081012,13.3633080289,-0.000177558633271,0.0
1521814639441849946,13.4033090026,-0.00017870622769,0.0
1521814639441939115,13.4133091518,-0.000178993095655,0.0
1521814639482155084,13.4433097554,-0.000179853328012,0.0
1521814639482297897,13.4943114075,-0.000181315332727,0.0
1521814639521958112,13.5043115737,-0.000181601972261,0.0
1521814639523026943,13.5143116976,-0.000181888603454,0.0
1521814639562880039,13.5343121952,-0.000182461560661,0.0
1521814639603154897,13.594313695,-0.000184178844162,0.0
1521814639603693008,13.604313857,-0.000184464921164,0.0
1521814639642110109,13.6343144575,-0.000185322798837,0.0
1521814639650794982,13.6543149461,-0.000185894347576,0.0
1521814639689842939,13.6643151054,-0.000186180027445,0.0
1521814639730439901,13.6743152174,-0.00018646565796,0.0
1521814639730638027,13.6843153757,-0.000186751169427,0.0
1521814639769926071,13.7433169059,-0.000188433795592,0.0
1521814639781502962,13.8033184569,-0.000190142535627,0.0
1521814639819031000,13.8233188984,-0.000190711733957,0.0
1521814639857852935,13.8333190328,-0.000190996281431,0.0
1521814639857943058,13.8433191234,-0.000191280785229,0.0
1521814639898869991,13.8833199898,-0.000192417860808,0.0
1521814639905049085,13.8933201222,-0.000192701992809,0.0
1521814639942218065,13.9233206347,-0.000193554033034,0.0
1521814639982076883,13.9633214894,-0.000194689045222,0.0
1521814639982261896,13.9733216196,-0.000194972669995,0.0
1521814640022237062,14.0033221204,-0.0001958236591,0.0
1521814640032692909,14.0133222499,-0.000196107134477,0.0
1521814640071089982,14.0543233446,-0.000197269385945,0.0
1521814640110151052,14.0833238669,-0.000198091145125,0.0
1521814640110253095,14.0933239952,-0.000198374494715,0.0
1521814640149849891,14.1343250747,-0.000199535599562,0.0
1521814640168473958,14.1633255882,-0.000200356682306,0.0
1521814640206536054,14.1733257158,-0.000200639792172,0.0
1521814640247170925,14.2033261942,-0.000201488984764,0.0
1521814640247694015,14.243327008,-0.000202620916441,0.0
1521814640286932945,14.2533271353,-0.00020290390273,0.0
1521814640294274091,14.29432798,-0.000204063477801,0.0
1521814640333895921,14.3043281206,-0.000204346273472,0.0
1521814640373920917,14.3233282701,-0.000204883556109,0.0
1521814640374056100,14.374329665,-0.000206324516535,0.0
1521814640419609069,14.3843298047,-0.000206607037363,0.0
1521814640420133113,14.394329877,-0.00020688956308,0.0
1521814640459057092,14.4143302813,-0.000207454345738,0.0
1521814640467472076,14.4633315364,-0.000208837428684,0.0
1521814640506002902,14.4733316618,-0.000209119676574,0.0
1521814640546319961,14.5033321106,-0.000209966167013,0.0
1521814640546525001,14.543332885,-0.00021109405047,0.0
1521814640586003065,14.5533330088,-0.000211375953452,0.0
1521814640591557025,14.5833334473,-0.000212221145026,0.0
1521814640629950046,14.5933335701,-0.000212502794267,0.0
1521814640671308994,14.6343345613,-0.000213657050632,0.0
1521814640671931028,14.6633350214,-0.000214472971432,0.0
1521814640710050106,14.6733351418,-0.000214754234387,0.0
1521814640719820022,14.7143360732,-0.000215906590121,0.0
1521814640759360074,14.7433368837,-0.000216720872113,0.0
1521814640798086881,14.763337247,-0.000217282105007,0.0
1521814640798209905,14.7833376082,-0.000217843002107,0.0
1521814640838331937,14.7933377247,-0.000218123336471,0.0
1521814640845909118,14.8343386631,-0.000219271919101,0.0
1521814640887361049,14.8943397521,-0.000220950781231,0.0
1521814640927182912,14.9043398763,-0.000221230419442,0.0
1521814640927577972,14.9341102324,-0.000231309082069,0.0
1521814640965976953,14.9436984109,-0.000245758242786,0.0
1521814640967128038,14.9529784474,-0.000273057913116,0.0
1521814641005875110,14.962130028,-0.000319700090325,0.0
1521814641046031951,15.0041591679,-0.000871064432763,0.0
1521814641046128988,15.0121579388,-0.00109340902491,0.0
1521814641087577104,15.0625007727,-0.00285458613612,0.0
1521814641094983100,15.0813680883,-0.00360003421622,0.0
1521814641133909940,15.0998943369,-0.00436181871154,0.0
1521814641174806118,15.1087563845,-0.00473780173304,0.0
1521814641174957990,15.1172685055,-0.00513572821965,0.0
1521814641215054035,15.1635706119,-0.00768962516891,0.0
1521814641217607021,15.1701820653,-0.00812672779498,0.0
1521814641254942893,15.2014953478,-0.0105731500626,0.0
1521814641295049905,15.2147753508,-0.0117045572028,0.0
1521814641295212984,15.2215682389,-0.0123522079311,0.0
1521814641338023900,15.2282015241,-0.0129668048311,0.0
1521814641353801012,15.2645892863,-0.017002931169,0.0
1521814641390512943,15.2696856938,-0.0176251115753,0.0
1521814641429965972,15.2901962523,-0.0204133201873,0.0
1521814641430100917,15.2946099582,-0.0210631428047,0.0
1521814641469782114,15.3047190412,-0.0226834093796,0.0
1521814641475579977,15.3140412058,-0.0243147819189,0.0
1521814641515327930,15.3156793439,-0.0246224091482,0.0
1521814641555615901,15.317363405,-0.0249371692947,0.0
1521814641556272029,15.3227873107,-0.0259615102614,0.0
1521814641593767881,15.3253000109,-0.026467971036,0.0
1521814641600820064,15.3372302487,-0.0288567569424,0.0
1521814641638011932,15.3408103968,-0.0295912668799,0.0
1521814641677829027,15.3630172282,-0.0340830156078,0.0
1521814641677939891,15.3683712616,-0.0351809171834,0.0
1521814641718272924,15.3995316758,-0.0415072348604,0.0
1521814641722834110,15.4066822993,-0.0429733253429,0.0
1521814641762016057,15.4138309571,-0.0444390010389,0.0
1521814641803642988,15.429898417,-0.0477009312824,0.0
1521814641841833114,15.461880719,-0.0543091197912,0.0
1521814641841933965,15.4695049736,-0.055911774573,0.0
1521814641883770942,15.4909678776,-0.0605778618697,0.0
1521814641884507894,15.4975905266,-0.0620707938149,0.0
1521814641921825885,15.5293737589,-0.0698212659931,0.0
1521814641926450967,15.5449745581,-0.0740649696256,0.0
1521814641966216087,15.550959605,-0.0757892592655,0.0
1521814642006856918,15.5557583903,-0.0772374616622,0.0
1521814642046945095,15.5618274895,-0.0791683949153,0.0
1521814642047313928,15.5625724858,-0.0794120773933,0.0
1521814642087312936,15.5629943859,-0.0795888331668,0.0
1521814642087631940,15.563580777,-0.0797910925876,0.0
1521814642126135110,15.5637122442,-0.0798294929118,0.0
1521814642126847982,15.5636297604,-0.0798008579905,0.0
1521814642166058063,15.5634254233,-0.0797161175472,0.0
1521814642206758022,15.5633408782,-0.0796849146873,0.0
1521814642207068920,15.5632799085,-0.0796641099422,0.0
1521814642245868921,15.5630267357,-0.0795548874595,0.0
1521814642250888109,15.5629702081,-0.0795319743681,0.0
1521814642290034055,15.5624863017,-0.0793195361578,0.0
1521814642335388898,15.5623264776,-0.0792495544679,0.0
1521814642335649013,15.5620255058,-0.0791102000102,0.0
1521814642374068975,15.561917765,-0.0790550275223,0.0
1521814642378277063,15.5617924703,-0.0790042014669,0.0
1521814642418018102,15.5616559668,-0.078950230243,0.0
1521814642458897113,15.5613383726,-0.0787793576558,0.0
1521814642498918056,15.5607138138,-0.0784757255741,0.0
1521814642499274969,15.5606319861,-0.0784312932957,0.0
1521814642542557001,15.5601553237,-0.0781797872266,0.0
1521814642543092012,15.560004174,-0.0780984786342,0.0
1521814642581964969,15.5599467293,-0.0780658332002,0.0
1521814642582091093,15.5597646596,-0.077985668622,0.0
1521814642626843929,15.559553744,-0.0778671102947,0.0
1521814642628113985,15.5594865972,-0.0778170288599,0.0
1521814642667371988,15.5590997366,-0.077587131424,0.0
1521814642708017110,15.5590241338,-0.0775452657852,0.0
1521814642745898008,15.5590898945,-0.0775242185632,0.0
1521814642746015071,15.5599724405,-0.0780209290678,0.0
1521814642788067102,15.5616946683,-0.0790628368727,0.0
1521814642788738012,15.5629335737,-0.0798745346919,0.0
1521814642825704097,15.5701896673,-0.0844182385568,0.0
1521814642835155963,15.5836485642,-0.0929757199033,0.0
1521814642873867988,15.5873845809,-0.0954170418632,0.0
1521814642915756940,15.5915581133,-0.0980646458126,0.0
1521814642916430950,15.6151609233,-0.11332782179,0.0
1521814642954040050,15.6204298711,-0.116770670004,0.0
1521814642961199045,15.6315615896,-0.123890113931,0.0
1521814642998068094,15.6378304026,-0.12798627793,0.0
1521814643038928985,15.6653773047,-0.145826224065,0.0
1521814643039323091,15.6959760781,-0.165694811723,0.0
1521814643077821016,15.7041110575,-0.171010234999,0.0
1521814643086816072,15.7290062686,-0.187241216986,0.0
1521814643125772953,15.7457666725,-0.198186669792,0.0
1521814643166239023,15.7701610802,-0.21412582392,0.0
1521814643166424036,15.786987695,-0.22511969576,0.0
1521814643206145048,15.7954041463,-0.230618792979,0.0
1521814643210082054,15.8038212993,-0.236118424518,0.0
1521814643251620054,15.8543342746,-0.269123154507,0.0
1521814643291124105,15.8627528724,-0.274623589914,0.0
1521814643329967975,15.904929962,-0.302181801431,0.0
1521814643330071926,15.9310369332,-0.319236388497,0.0
1521814643370048999,15.9394770986,-0.324750860994,0.0
1521814643370153903,15.9479157973,-0.330265056656,0.0
1521814643410511016,15.9810994599,-0.352038740067,0.0
1521814643410828113,15.9889950549,-0.35722083679,0.0
1521814643451107978,16.0109835852,-0.371830611908,0.0
1521814643489948034,16.0179730847,-0.376492008939,0.0
1521814643530836105,16.0445002085,-0.394499229535,0.0
1521814643531306982,16.0666052105,-0.409809547303,0.0
1521814643571566104,16.0811303041,-0.420004207117,0.0
1521814643572115898,16.1013963468,-0.434412953066,0.0
1521814643609812021,16.1077145675,-0.43893469777,0.0
1521814643615525960,16.120087947,-0.447977025008,0.0
1521814643657943964,16.1365998024,-0.460286300257,0.0
1521814643698765993,16.1545221677,-0.474158491383,0.0
1521814643698911905,16.1684840619,-0.485355277048,0.0
1521814643739289045,16.1748033001,-0.490491005069,0.0
1521814643739553928,16.1780588685,-0.493203490926,0.0
1521814643777785062,16.1816188153,-0.496058488776,0.0
1521814643800898075,16.2058478423,-0.516117162196,0.0
1521814643838591098,16.2106076961,-0.520199688392,0.0
1521814643879024028,16.2158300013,-0.524509601694,0.0
1521814643879148006,16.2264946955,-0.533502033894,0.0
1521814643919609069,16.2639090526,-0.565262697573,0.0
1521814643919995069,16.2709434983,-0.571323843036,0.0
1521814643957948923,16.3010698378,-0.597095722127,0.0
1521814643962338924,16.3085566272,-0.60354210517,0.0
1521814644002897977,16.3161131527,-0.610032007116,0.0
1521814644042486906,16.3464492996,-0.636140488456,0.0
1521814644042707920,16.3540624334,-0.642695548053,0.0
1521814644082202911,16.3921806491,-0.675514223067,0.0
1521814644087670087,16.3998080165,-0.682081493609,0.0
1521814644125809907,16.4226904924,-0.701784522787,0.0
1521814644166944026,16.4303183173,-0.708352161052,0.0
1521814644210107088,16.4684531292,-0.741188408787,0.0
1521814644210236072,16.4989394646,-0.767438804319,0.0
1521814644250829935,16.5210433754,-0.786474704225,0.0
1521814644250943899,16.5362599919,-0.799576857191,0.0
1521814644290071010,16.5514754814,-0.812677957527,0.0
1521814644290262937,16.5590829315,-0.819227954507,0.0
1521814644330120086,16.5666890061,-0.825777334023,0.0
1521814644339983940,16.5742960929,-0.832327007135,0.0
1521814644377958059,16.6055304402,-0.859217629801,0.0
1521814644417959928,16.6428372807,-0.891343335857,0.0
1521814644418121099,16.6504426228,-0.897891458236,0.0
1521814644458916902,16.6834677696,-0.926343398768,0.0
1521814644466377973,16.6910061421,-0.9328346623,0.0
1521814644506011962,16.7086293034,-0.948810153274,0.0
1521814644546205043,16.7262164016,-0.964732276541,0.0
1521814644546331882,16.731663027,-0.969690036452,0.0
1521814644586725950,16.7522011381,-0.988950899923,0.0
1521814644591869115,16.7568650752,-0.993433737159,0.0
1521814644629765033,16.7758910325,-1.01171218009,0.0
1521814644670104980,16.7986778799,-1.03385331819,0.0
1521814644670253992,16.8048644526,-1.03995579269,0.0
1521814644714339017,16.8238887953,-1.05846316647,0.0
1521814644723788022,16.8307662807,-1.06523379424,0.0
1521814644763504981,16.8518549805,-1.08593521428,0.0
1521814644804341077,16.8589383903,-1.09290799969,0.0
1521814644846060991,16.8945686548,-1.12796616471,0.0
1521814644846221923,16.9231035401,-1.15607666035,0.0
1521814644846295118,16.9301748302,-1.16303736295,0.0
1521814644886784076,16.9308090142,-1.16380850848,0.0
1521814644898240089,16.9635700154,-1.19657574552,0.0
1521814644937793016,16.9696185942,-1.2026035373,0.0
1521814644978142023,16.9922695615,-1.22574938077,0.0
1521814644978255033,16.9973964061,-1.23104167898,0.0
1521814645018668889,17.0111333336,-1.24572147311,0.0
1521814645022139072,17.0153271609,-1.25022894669,0.0
1521814645062177896,17.0263037624,-1.2624899258,0.0
1521814645102005958,17.0296077735,-1.26617220475,0.0
1521814645102123975,17.0379770837,-1.27594379977,0.0
1521814645142091989,17.052323814,-1.29274135915,0.0
1521814645146169900,17.0549423179,-1.29590580325,0.0
1521814645187772989,17.0608141992,-1.30271698022,0.0
1521814645225982904,17.082725687,-1.3288605036,0.0
1521814645226106882,17.0870550976,-1.33412248458,0.0
1521814645266796112,17.0913830723,-1.33938355435,0.0
1521814645274435043,17.0913278387,-1.33934205035,0.0
1521814645313925027,17.1148112783,-1.36854010159,0.0
1521814645354718923,17.1181871801,-1.37271741178,0.0
1521814645394184112,17.1347452126,-1.39497074927,0.0
1521814645394292116,17.1387883779,-1.40060741587,0.0
1521814645434365987,17.1420903832,-1.40534458859,0.0
1521814645434541940,17.1434886515,-1.40730377533,0.0
1521814645474095106,17.1462480553,-1.41164541203,0.0
1521814645474176883,17.1469119535,-1.41261330335,0.0
1521814645514059066,17.1479412153,-1.41447220338,0.0
1521814645528774023,17.1490782129,-1.41594773873,0.0
1521814645566134929,17.1495914307,-1.41677141216,0.0
1521814645605974912,17.1522799539,-1.42062680388,0.0
1521814645606062889,17.1577237289,-1.42897304616,0.0
1521814645645807981,17.1594188166,-1.43176213367,0.0
1521814645654958963,17.1615228445,-1.43493975316,0.0
1521814645693797111,17.1637788963,-1.43855810238,0.0
1521814645735064983,17.1657970453,-1.44185761353,0.0
1521814645735755920,17.1845352085,-1.47146967085,0.0
1521814645773988008,17.1991397064,-1.49483250279,0.0
1521814645774121046,17.2030640891,-1.50124801113,0.0
1521814645814049005,17.2161312981,-1.52210648067,0.0
1521814645828883886,17.2300300035,-1.54443963923,0.0
1521814645866432905,17.2350820944,-1.55269873395,0.0
1521814645906507015,17.2562059615,-1.58711256623,0.0
1521814645906620979,17.261413432,-1.59562565037,0.0
1521814645946315050,17.2666494283,-1.60416839898,0.0
1521814645960326910,17.2876085794,-1.63842158676,0.0
1521814645999011993,17.2928564819,-1.64700076967,0.0
1521814646038153886,17.3086074031,-1.67275014442,0.0
1521814646038292884,17.3296131875,-1.70709266333,0.0
1521814646077943086,17.3348649572,-1.71567816554,0.0
1521814646083300113,17.3506172614,-1.74143299192,0.0
1521814646121903896,17.3716197206,-1.77577079866,0.0
1521814646162061929,17.3768701894,-1.78435417164,0.0
1521814646203252077,17.3973051537,-1.81777345116,0.0
1521814646203753948,17.4025436229,-1.82633720913,0.0
1521814646242805957,17.4182503028,-1.85202299277,0.0
1521814646243144989,17.4385109875,-1.88554049126,0.0
1521814646285145998,17.4433252808,-1.89343843694,0.0
1521814646287337064,17.4610253378,-1.92444476366,0.0
1521814646325881004,17.4651240033,-1.93156262136,0.0
1521814646365935087,17.4760348694,-1.95138149852,0.0
1521814646366056919,17.4825779567,-1.96354172346,0.0
1521814646410089969,17.4856317279,-1.96920234865,0.0
1521814646410233020,17.4937732647,-1.98507748012,0.0
1521814646449865102,17.4961522414,-1.9897179334,0.0
1521814646458945989,17.5037867893,-2.00534445851,0.0
1521814646498080015,17.5120401458,-2.02194089116,0.0
1521814646538495063,17.5142574914,-2.02665164364,0.0
1521814646538624048,17.5244274684,-2.0480587302,0.0
1521814646577820062,17.5314246492,-2.06377395834,0.0
1521814646578605890,17.5331330293,-2.06753628126,0.0
1521814646621151924,17.5370872702,-2.07713212309,0.0
1521814646658088922,17.538260827,-2.07984952151,0.0
1521814646699724912,17.5406065253,-2.08621267431,0.0
1521814646700061082,17.5425032056,-2.09146875007,0.0
1521814646738040924,17.5428112887,-2.09226886081,0.0
1521814646738159894,17.5450051424,-2.09725148972,0.0
1521814646778752088,17.5485043351,-2.1060364976,0.0
1521814646780772924,17.5495347426,-2.10896585649,0.0
1521814646818136930,17.5509110505,-2.11235360297,0.0
1521814646857991933,17.552132993,-2.11584835599,0.0
1521814646899293899,17.5568023598,-2.12812881412,0.0
1521814646899837970,17.5659821068,-2.15328865713,0.0
1521814646938050031,17.5679990464,-2.15906571928,0.0
1521814646938179969,17.5750489594,-2.17824878046,0.0
1521814646977938890,17.585626367,-2.20754208689,0.0
1521814646981812953,17.5884496952,-2.21562835227,0.0
1521814647018810987,17.5978461728,-2.24168395971,0.0
1521814647059125900,17.6108137374,-2.27855453477,0.0
1521814647098102092,17.6140962966,-2.28795607818,0.0
1521814647098228931,17.6240210467,-2.31632000813,0.0
1521814647139008998,17.6273311167,-2.32580033874,0.0
1521814647142625093,17.640252843,-2.36281749775,0.0
1521814647182780981,17.653491395,-2.40073900794,0.0
1521814647223261117,17.6568016068,-2.4102197437,0.0
1521814647223829030,17.6601124469,-2.41970227726,0.0
1521814647266573905,17.66672966,-2.43866093108,0.0
1521814647266710996,17.6700397458,-2.44814130029,0.0
1521814647306127071,17.6865855671,-2.49553999568,0.0
1521814647314317941,17.7034848436,-2.5439327459,0.0
1521814647353867053,17.7101161481,-2.56292888443,0.0
1521814647394418954,17.7134321541,-2.57242618911,0.0
1521814647394601106,17.7134231904,-2.57241811332,0.0
1521814647435365915,17.7299876586,-2.61985301274,0.0
1521814647436547994,17.7333029441,-2.62934825023,0.0
1521814647474037885,17.746221336,-2.66637101314,0.0
1521814647516066074,17.7495297173,-2.67584648113,0.0
1521814647554017066,17.7594514771,-2.7042698619,0.0
1521814647554148912,17.7660664433,-2.72321882722,0.0
1521814647593985080,17.7726811316,-2.74216697496,0.0
1521814647595458984,17.7961927394,-2.80950346561,0.0
1521814647635404109,17.7995058263,-2.81899239109,0.0
1521814647674793004,17.8094417504,-2.84745616912,0.0
1521814647674940109,17.816066004,-2.86643176812,0.0
1521814647714088916,17.8226898619,-2.88540621361,0.0
1521814647720257043,17.8359364084,-2.92335168862,0.0
1521814647758744955,17.8392482988,-2.93283717969,0.0
1521814647797869920,17.8491807455,-2.96129075536,0.0
1521814647797972917,17.8558026993,-2.98025964252,0.0
1521814647839389085,17.8624242879,-2.99922746351,0.0
1521814647846400022,17.8756663857,-3.03715995561,0.0
1521814647886857986,17.8789771689,-3.04664226837,0.0
1521814647926522970,17.8822862538,-3.05612279033,0.0
1521814647926732063,17.8918803769,-3.08361632606,0.0
1521814647965879917,17.8951859257,-3.09308365093,0.0
1521814647973268985,17.9117091638,-3.14041611814,0.0
1521814648010762929,17.9285780994,-3.18872689528,0.0
1521814648051295042,17.9351959518,-3.20768379353,0.0
1521814648051652908,17.9418134935,-3.22663979048,0.0
1521814648089968919,17.9484307258,-3.24559488336,0.0
1521814648092179059,17.9517396878,-3.25507196491,0.0
1521814648130209922,17.9616636312,-3.283500549,0.0
1521814648171056985,17.974895995,-3.32140459249,0.0
1521814648171487092,17.9782043567,-3.33087995045,0.0
1521814648209781885,17.9881265615,-3.35930341824,0.0
1521814648218002080,17.9914346345,-3.3687779469,0.0
1521814648257883071,18.0013560031,-3.3971989535,0.0
1521814648298026084,18.0175499207,-3.44359449853,0.0
1521814648298118114,18.0208535308,-3.45305624644,0.0
1521814648338701009,18.0307618802,-3.48143959884,0.0
1521814648357984066,18.0439777855,-3.51929564297,0.0
1521814648398082971,18.0472811946,-3.52875679051,0.0
1521814648438819885,18.0571884959,-3.55713730235,0.0
1521814648439012050,18.060491607,-3.56659761124,0.0
1521814648477941989,18.0703985209,-3.59497667584,0.0
1521814648478071928,18.0737014723,-3.60443652294,0.0
1521814648518960952,18.083607931,-3.63281421962,0.0
1521814648531740903,18.1004545564,-3.6810634176,0.0
1521814648571183919,18.1037603742,-3.69053146497,0.0
1521814648610127925,18.1166462036,-3.72744977809,0.0
1521814648610323905,18.1199487515,-3.7369084406,0.0
1521814648650999069,18.1334978781,-3.77571380949,0.0
1521814648651334047,18.1368032028,-3.78518043351,0.0
1521814648691195011,18.1467166174,-3.8135779565,0.0
1521814648709928035,18.1625703501,-3.85938442278,0.0
1521814648749932050,18.1656845598,-3.86830886062,0.0
1521814648750050067,18.1687973756,-3.87723490928,0.0
1521814648793908119,18.1742669108,-3.89361762481,0.0
1521814648809627056,18.1918126894,-3.94446903432,0.0
1521814648850795030,18.1948552911,-3.95356384118,0.0
1521814648890629053,18.1979283256,-3.9626455921,0.0
1521814648890764951,18.2039033187,-3.9807268623,0.0
1521814648930056095,18.2068447252,-3.98960170322,0.0
1521814648930181026,18.2174382636,-4.02443860172,0.0
1521814648970664024,18.2274012545,-4.05666961578,0.0
1521814648973758935,18.2298707711,-4.06505379611,0.0
1521814649014313936,18.237893313,-4.09168084599,0.0
1521814649054289102,18.251403814,-4.13759867758,0.0
1521814649054508924,18.254200002,-4.14716324661,0.0
1521814649093960046,18.2570085196,-4.15674978242,0.0
1521814649101985931,18.2598123074,-4.16633913656,0.0
1521814649138057947,18.2657045212,-4.1864986831,0.0
1521814649178030014,18.2735288489,-4.21378709185,0.0
1521814649178153038,18.2761728234,-4.2228466563,0.0
1521814649217858076,18.2919247274,-4.28094416877,0.0
1521814649233742952,18.3018196752,-4.31899567528,0.0
1521814649274594068,18.3058973058,-4.33500377972,0.0
1521814649314254045,18.3101821742,-4.35203749932,0.0
1521814649314383029,18.3146627129,-4.37008481841,0.0
1521814649355187892,18.3169219426,-4.37941366374,0.0
1521814649364317893,18.323944479,-4.4080639818,0.0
1521814649402112007,18.3262792207,-4.4177024559,0.0
1521814649442595958,18.3286390892,-4.42738954418,0.0
1521814649442678928,18.3333430846,-4.44678251921,0.0
1521814649483197927,18.3496066003,-4.5139105851,0.0
1521814649483639001,18.3519641902,-4.52364233604,0.0
1521814649522031068,18.3637504542,-4.57230296203,0.0
1521814649527168035,18.3661082671,-4.58203544897,0.0
1521814649566030979,18.3710619215,-4.60248078448,0.0
1521814649605894088,18.3757799316,-4.62195886833,0.0
1521814649605998992,18.3781393561,-4.63169788807,0.0
1521814649645976066,18.389933904,-4.68039282633,0.0
1521814649654905080,18.3946515497,-4.69986923184,0.0
1521814649693809986,18.3993690666,-4.71934505874,0.0
1521814649734191894,18.4017281629,-4.72908277601,0.0
1521814649774909019,18.4135201387,-4.77776781842,0.0
1521814649775227069,18.4182370514,-4.79724167264,0.0
1521814649815267086,18.4229538585,-4.8167150834,0.0
1521814649815867900,18.4253126412,-4.82645164124,0.0
1521814649854878902,18.4323867878,-4.85565903118,0.0
1521814649866143941,18.4465052485,-4.91403343911,0.0
1521814649906084060,18.4488440165,-4.9236896847,0.0
1521814649945911884,18.4610687823,-4.97669392816,0.0
1521814649946050882,18.462862205,-4.98452196064,0.0
1521814649985817909,18.4643386957,-4.99176828449,0.0
1521814649986021041,18.4674636215,-5.00613505754,0.0
1521814650025886058,18.4689646941,-5.01315868637,0.0
1521814650066561937,18.4736251437,-5.03484908343,0.0
1521814650066807031,18.4820894075,-5.07469343049,0.0
1521814650107465028,18.4837499779,-5.08293895053,0.0
1521814650117866992,18.4884193365,-5.10707184718,0.0
1521814650153973102,18.4899235075,-5.1147825899,0.0
1521814650194458007,18.4959958725,-5.14538524949,0.0
1521814650194650888,18.5026955856,-5.17996853231,0.0
1521814650234026908,18.5044543422,-5.18940045087,0.0
1521814650235935926,18.5095561696,-5.21736238078,0.0
1521814650274070024,18.5127363813,-5.2352256168,0.0
1521814650313873052,18.5156442043,-5.25216846192,0.0
1521814650313977003,18.5170907043,-5.26024739412,0.0
1521814650355204105,18.5211444691,-5.28394089205,0.0
1521814650368119955,18.5286440257,-5.32616783621,0.0
1521814650406943082,18.5301125178,-5.3350938588,0.0
1521814650451137065,18.5349620299,-5.36343729513,0.0
1521814650451428890,18.5365451265,-5.37308159307,0.0
1521814650489901065,18.5414110832,-5.40241850854,0.0
1521814650490017890,18.5478920243,-5.44181679696,0.0
1521814650530112981,18.5495136709,-5.45169023569,0.0
1521814650544699907,18.5558426131,-5.49022422944,0.0
1521814650582230091,18.5574654028,-5.50010357351,0.0
1521814650622068881,18.5653665202,-5.54900286961,0.0
1521814650622235059,18.5669114467,-5.55844293395,0.0
1521814650663252115,18.5712231799,-5.58661036833,0.0
1521814650663444042,18.5726382107,-5.59582176384,0.0
1521814650702116966,18.574175803,-5.60536033921,0.0
1521814650709570884,18.5756101116,-5.61489865824,0.0
1521814650746277093,18.5800436962,-5.64411329788,0.0
1521814650786447048,18.5887492328,-5.70323752975,0.0
1521814650786752939,18.5901779675,-5.71313704001,0.0
1521814650825944900,18.5961195998,-5.7537603103,0.0
1521814650843828916,18.6017376361,-5.79314121003,0.0
1521814650881969928,18.6031170886,-5.80271372222,0.0
1521814650923391103,18.606763381,-5.82988318302,0.0
1521814650923692941,18.6079570986,-5.83872377175,0.0
1521814650961970090,18.6116760169,-5.86582684844,0.0
1521814650965426921,18.6178531989,-5.9126229315,0.0
1521814651002010107,18.6191104011,-5.92245130491,0.0
1521814651045628070,18.6202785836,-5.93206202313,0.0
1521814651082458019,18.6257322385,-5.97927164295,0.0
1521814651082812070,18.6267098562,-5.98799097265,0.0
1521814651122169017,18.6305566885,-6.02207643404,0.0
1521814651122328042,18.6314218642,-6.03137078094,0.0
1521814651162604093,18.6337426125,-6.05888265035,0.0
1521814651171153068,18.6361244535,-6.09281714274,0.0
1521814651210095882,18.6366804672,-6.10065997791,0.0
1521814651249964952,18.6386601527,-6.13266539699,0.0
1521814651250066995,18.6390660821,-6.140680738,0.0
1521814651289884090,18.639611791,-6.14915374143,0.0
1521814651295007944,18.6425691499,-6.20366668498,0.0
1521814651334433078,18.6430247116,-6.21340582876,0.0
1521814651374197959,18.6435272121,-6.22328592034,0.0
1521814651374279975,18.6444727721,-6.24307251219,0.0
1521814651416317939,18.6449381091,-6.25301290451,0.0
1521814651425225973,18.6477095888,-6.3119104816,0.0
1521814651462264060,18.649581897,-6.35191358428,0.0
1521814651502692937,18.6505178809,-6.37191202217,0.0
1521814651503015995,18.6510342889,-6.3829134781,0.0
1521814651542716979,18.6515029796,-6.39291797563,0.0
1521814651549875974,18.6533266473,-6.43191853627,0.0
1521814651585938930,18.6551989889,-6.47191586969,0.0
1521814651625854969,18.655667532,-6.4819151303,0.0
1521814651625953912,18.6561351459,-6.4919127317,0.0
1521814651665906906,18.6589439315,-6.55190587989,0.0
1521814651666038036,18.6594125155,-6.56190460228,0.0
1521814651707046985,18.6598801813,-6.57190167291,0.0
1521814651720354080,18.6608165073,-6.59189856499,0.0
1521814651757800102,18.6612851076,-6.60189702572,0.0
1521814651798146963,18.662689521,-6.63189719427,0.0
1521814651798469066,18.6650792154,-6.68290106158,0.0
1521814651842012882,18.6655480422,-6.69290336179,0.0
1521814651854485034,18.6673728532,-6.73190850845,0.0
1521814651890928030,18.6697613828,-6.78289640015,0.0
1521814651929989099,18.6702300584,-6.79289758316,0.0
1521814651930083036,18.6711179931,-6.81189374847,0.0
1521814651970005989,18.6720541458,-6.83188776834,0.0
1521814651970112085,18.6729903092,-6.85188155519,0.0
1521814652010657072,18.673458786,-6.86187848796,0.0
1521814652021878957,18.6753791689,-6.90287675811,0.0
1521814652061892986,18.6772521488,-6.94287809215,0.0
1521814652103079080,18.6777207877,-6.95287840931,0.0
1521814652103456974,18.6791246339,-6.98286882279,0.0
1521814652145888090,18.6795932566,-6.99286879622,0.0
1521814652145991086,18.681417895,-7.03186583237,0.0
1521814652187361001,18.6832906417,-7.07186041434,0.0
1521814652192797899,18.6837590831,-7.08185648252,0.0
1521814652234860897,18.685162797,-7.11184243816,0.0
1521814652275163888,18.6870350159,-7.15182510361,0.0
1521814652275595903,18.6875034419,-7.16182079657,0.0
1521814652314006090,18.6889071626,-7.19180583368,0.0
1521814652326834917,18.6898432629,-7.21179663303,0.0
1521814652366698026,18.6903116804,-7.22179210337,0.0
1521814652406975984,18.6907793008,-7.23178600698,0.0
1521814652407382965,18.694104007,-7.30276772534,0.0
1521814652445877075,18.694572554,-7.31276589882,0.0
1521814652452240943,18.6963968651,-7.35174867983,0.0
1521814652489958047,18.6968652632,-7.36174367406,0.0
1521814652530280113,18.698784738,-7.40272470432,0.0
1521814652530436038,18.6992532599,-7.4127223063,0.0
1521814652570072889,18.6997210188,-7.42271831753,0.0
1521814652576245069,18.7010779476,-7.45171049302,0.0
1521814652614084959,18.7041687974,-7.51767857435,0.0
1521814652654717922,18.7046374584,-7.52767909159,0.0
1521814652694432973,18.7048224657,-7.53167219376,0.0
1521814652694716930,18.7057585314,-7.55166050417,0.0
1521814652733828067,18.7062269019,-7.56165479508,0.0
1521814652734945058,18.7090827853,-7.6226311078,0.0
1521814652774718046,18.7109553251,-7.66261661949,0.0
1521814652774859905,18.7114237999,-7.67261307254,0.0
1521814652814275026,18.7118915313,-7.68260789451,0.0
1521814652827651023,18.7128277879,-7.70260016927,0.0
1521814652870948076,18.7132962553,-7.71259644956,0.0
1521814652910090923,18.7165722216,-7.7825561707,0.0
1521814652910218000,18.7170406725,-7.79255207299,0.0
1521814652953866958,18.718361635,-7.82234107901,0.0
1521814652953959941,18.7193984724,-7.84993833912,0.0
1521814652994110107,18.7197815645,-7.85874621282,0.0
1521814653009726047,18.7204592091,-7.88303612989,0.0
1521814653046130895,18.7208251868,-7.89795941077,0.0
1521814653085855007,18.7210323882,-7.90503440409,0.0
1521814653085969924,18.7209803562,-7.90569846435,0.0
1521814653128496885,18.721134762,-7.91273629472,0.0
1521814653138746976,18.720501634,-7.95702287963,0.0
1521814653177994012,18.7197694886,-7.97115556241,0.0
1521814653178106069,18.719654935,-7.97395348503,0.0
1521814653220551013,18.7190011183,-7.98016880393,0.0
1521814653230588912,18.7186379856,-7.98298535126,0.0
1521814653270703077,18.7185695,-7.98397655667,0.0
1521814653309868097,18.7181652841,-7.98550803528,0.0
1521814653309993982,18.7181807541,-7.98579637294,0.0
