%time;field.header.seq;field.header.stamp;field.header.frame_id;field.pose.pose.position.x;field.pose.pose.position.y;field.pose.pose.position.z;field.pose.pose.orientation.x;field.pose.pose.orientation.y;field.pose.pose.orientation.z;field.pose.pose.orientation.w;field.pose.covariance0;field.pose.covariance1;field.pose.covariance2;field.pose.covariance3;field.pose.covariance4;field.pose.covariance5;field.pose.covariance6;field.pose.covariance7;field.pose.covariance8;field.pose.covariance9;field.pose.covariance10;field.pose.covariance11;field.pose.covariance12;field.pose.covariance13;field.pose.covariance14;field.pose.covariance15;field.pose.covariance16;field.pose.covariance17;field.pose.covariance18;field.pose.covariance19;field.pose.covariance20;field.pose.covariance21;field.pose.covariance22;field.pose.covariance23;field.pose.covariance24;field.pose.covariance25;field.pose.covariance26;field.pose.covariance27;field.pose.covariance28;field.pose.covariance29;field.pose.covariance30;field.pose.covariance31;field.pose.covariance32;field.pose.covariance33;field.pose.covariance34;field.pose.covariance35
253273000000;41;253273000000;map;8.8431788539;-0.0530837182164;0.0;0.0;0.0;-0.000713590716689;0.999999745394;0.000736399948977;-0.000524039748691;0.00215233059254;0.0;0.0;0.0;0.0;0.0;0.000330709014004;0.0;0.0;0.0;0.0;0.0;0.0;0.0;0.0;0.0;0.0;0.0;0.0;0.0;0.0;0.0;0.0;0.0;0.0;0.0;0.0;0.0;0.0;0.0;0.0;0.0;0.0;0.0
253675000000;42;253675000000;map;9.04554597006;-0.0530018777133;0.0;0.0;0.0;-0.00062788018383;0.999999802883;0.000753866711108;-0.000542824559109;0.00209909732725;0.0;0.0;0.0;0.0;0.0;0.000385473347277;0.0;0.0;0.0;0.0;0.0;0.0;0.0;0.0;0.0;0.0;0.0;0.0;0.0;0.0;0.0;0.0;0.0;0.0;0.0;0.0;0.0;0.0;0.0;0.0;0.0;0.0;0.0
254101000000;43;254101000000;map;9.24959032039;-0.0516410755832;0.0;0.0;0.0;0.000522500321961;0.999999863497;0.000876305348228;-0.000499184482002;0.00165131498417;0.0;0.0;0.0;0.0;0.0;0.000423422414356;0.0;0.0;0.0;0.0;0.0;0.0;0.0;0.0;0.0;0.0;0.0;0.0;0.0;0.0;0.0;0.0;0.0;0.0;0.0;0.0;0.0;0.0;0.0;0.0;0.0;0.0;0.0
254591000000;44;254591000000;map;9.52423707265;-0.0501004718985;0.0;0.0;0.0;0.000888029245948;0.999999605702;0.000828396851972;-0.000464836502914;0.00145892800569;0.0;0.0;0.0;0.0;0.0;0.000479179647041;0.0;0.0;0.0;0.0;0.0;0.0;0.0;0.0;0.0;0.0;0.0;0.0;0.0;0.0;0.0;0.0;0.0;0.0;0.0;0.0;0.0;0.0;0.0;0.0;0.0;0.0;0.0
255098000000;45;255098000000;map;9.73578641459;-0.0462400023975;0.0;0.0;0.0;0.00220371417122;0.999997571819;0.000828664251912;-0.000333999411788;0.00118423753069;0.0;0.0;0.0;0.0;0.0;0.000550251257197;0.0;0.0;0.0;0.0;0.0;0.0;0.0;0.0;0.0;0.0;0.0;0.0;0.0;0.0;0.0;0.0;0.0;0.0;0.0;0.0;0.0;0.0;0.0;0.0;0.0;0.0;0.0
255490000000;46;255490000000;map;9.93809536366;-0.0452211738687;0.0;0.0;0.0;0.00139586718145;0.999999025777;0.000827853573654;-0.000258200761171;0.00112269807867;0.0;0.0;0.0;0.0;0.0;0.00053112621087;0.0;0.0;0.0;0.0;0.0;0.0;0.0;0.0;0.0;0.0;0.0;0.0;0.0;0.0;0.0;0.0;0.0;0.0;0.0;0.0;0.0;0.0;0.0;0.0;0.0;0.0;0.0
255898000000;47;255898000000;map;10.1413248025;-0.0431244541531;0.0;0.0;0.0;0.0016287428931;0.999998673597;0.000757633666211;-0.000283214156283;0.00136035695423;0.0;0.0;0.0;0.0;0.0;0.000503592597173;0.0;0.0;0.0;0.0;0.0;0.0;0.0;0.0;0.0;0.0;0.0;0.0;0.0;0.0;0.0;0.0;0.0;0.0;0.0;0.0;0.0;0.0;0.0;0.0;0.0;0.0;0.0
256288361345;48;256288361345;map;10.3805573142;-0.0438515366755;0.0;0.0;0.0;0.00201687550833;0.999997966105;0.000783328798008;-8.95564203277e-05;0.000961529046428;0.0;0.0;0.0;0.0;0.0;0.000513836228575;0.0;0.0;0.0;0.0;0.0;0.0;0.0;0.0;0.0;0.0;0.0;0.0;0.0;0.0;0.0;0.0;0.0;0.0;0.0;0.0;0.0;0.0;0.0;0.0;0.0;0.0;0.0
256797000000;49;256797000000;map;10.5861119335;-0.0429234241159;0.0;0.0;0.0;0.00224016830558;0.99999749082;0.000895317636534;-9.81866651742e-05;0.000987030639809;0.0;0.0;0.0;0.0;0.0;0.000505022841935;0.0;0.0;0.0;0.0;0.0;0.0;0.0;0.0;0.0;0.0;0.0;0.0;0.0;0.0;0.0;0.0;0.0;0.0;0.0;0.0;0.0;0.0;0.0;0.0;0.0;0.0;0.0
257191289457;50;257191289457;map;10.7885244006;-0.0405058946733;0.0;0.0;0.0;0.00312043117609;0.999995131443;0.000954363376806;-8.70935276406e-05;0.000882405744534;0.0;0.0;0.0;0.0;0.0;0.000471430304292;0.0;0.0;0.0;0.0;0.0;0.0;0.0;0.0;0.0;0.0;0.0;0.0;0.0;0.0;0.0;0.0;0.0;0.0;0.0;0.0;0.0;0.0;0.0;0.0;0.0;0.0;0.0
257593000000;51;257593000000;map;10.9910384244;-0.0403488507387;0.0;0.0;0.0;0.00207075553928;0.999997855983;0.00107452110053;-0.000155116586145;0.000975217529437;0.0;0.0;0.0;0.0;0.0;0.000465827507135;0.0;0.0;0.0;0.0;0.0;0.0;0.0;0.0;0.0;0.0;0.0;0.0;0.0;0.0;0.0;0.0;0.0;0.0;0.0;0.0;0.0;0.0;0.0;0.0;0.0;0.0;0.0
258001000000;52;258001000000;map;11.1924923724;-0.0356681215496;0.0;0.0;0.0;0.000932151381748;0.999999565547;0.00111911038013;-0.000253625678829;0.00133833671498;0.0;0.0;0.0;0.0;0.0;0.000454653636946;0.0;0.0;0.0;0.0;0.0;0.0;0.0;0.0;0.0;0.0;0.0;0.0;0.0;0.0;0.0;0.0;0.0;0.0;0.0;0.0;0.0;0.0;0.0;0.0;0.0;0.0;0.0
258391000000;53;258391000000;map;11.4071287472;-0.033266249203;0.0;0.0;0.0;0.0020599287845;0.999997878344;0.000938438294554;-0.000272847154068;0.00147029124952;0.0;0.0;0.0;0.0;0.0;0.000488579523784;0.0;0.0;0.0;0.0;0.0;0.0;0.0;0.0;0.0;0.0;0.0;0.0;0.0;0.0;0.0;0.0;0.0;0.0;0.0;0.0;0.0;0.0;0.0;0.0;0.0;0.0;0.0
258791000000;54;258791000000;map;11.6065195625;-0.0336467758773;0.0;0.0;0.0;0.00113962712941;0.999999350625;0.00102891928555;-0.000248294684213;0.00142789627141;0.0;0.0;0.0;0.0;0.0;0.000517770158908;0.0;0.0;0.0;0.0;0.0;0.0;0.0;0.0;0.0;0.0;0.0;0.0;0.0;0.0;0.0;0.0;0.0;0.0;0.0;0.0;0.0;0.0;0.0;0.0;0.0;0.0;0.0
259190000000;55;259190000000;map;11.8094073742;-0.033790388003;0.0;0.0;0.0;0.00185915796979;0.999998271764;0.00104690323326;-0.000208443864437;0.0013914025941;0.0;0.0;0.0;0.0;0.0;0.00049110742861;0.0;0.0;0.0;0.0;0.0;0.0;0.0;0.0;0.0;0.0;0.0;0.0;0.0;0.0;0.0;0.0;0.0;0.0;0.0;0.0;0.0;0.0;0.0;0.0;0.0;0.0;0.0
259594000000;56;259594000000;map;12.0117949866;-0.0350084310938;0.0;0.0;0.0;0.0015490914855;0.999998800157;0.00103824784125;-0.000272652966461;0.00149200502434;0.0;0.0;0.0;0.0;0.0;0.000447913471652;0.0;0.0;0.0;0.0;0.0;0.0;0.0;0.0;0.0;0.0;0.0;0.0;0.0;0.0;0.0;0.0;0.0;0.0;0.0;0.0;0.0;0.0;0.0;0.0;0.0;0.0;0.0
259999000000;57;259999000000;map;12.2140463443;-0.0333008961511;0.0;0.0;0.0;0.00144665596089;0.999998953593;0.00103156431393;-0.000401071436334;0.00146784915236;0.0;0.0;0.0;0.0;0.0;0.000399384990663;0.0;0.0;0.0;0.0;0.0;0.0;0.0;0.0;0.0;0.0;0.0;0.0;0.0;0.0;0.0;0.0;0.0;0.0;0.0;0.0;0.0;0.0;0.0;0.0;0.0;0.0;0.0
260496000000;58;260496000000;map;12.4260622284;-0.0363944450842;0.0;0.0;0.0;0.000358524070508;0.99999993573;0.00118036408767;-0.000482583961724;0.00136578400733;0.0;0.0;0.0;0.0;0.0;0.00038882029026;0.0;0.0;0.0;0.0;0.0;0.0;0.0;0.0;0.0;0.0;0.0;0.0;0.0;0.0;0.0;0.0;0.0;0.0;0.0;0.0;0.0;0.0;0.0;0.0;0.0;0.0;0.0
260892000000;59;260892000000;map;12.631891457;-0.037611678287;0.0;0.0;0.0;-0.000220701800033;0.999999975645;0.00116406745448;-0.000549008425726;0.00130653591622;0.0;0.0;0.0;0.0;0.0;0.000372551273269;0.0;0.0;0.0;0.0;0.0;0.0;0.0;0.0;0.0;0.0;0.0;0.0;0.0;0.0;0.0;0.0;0.0;0.0;0.0;0.0;0.0;0.0;0.0;0.0;0.0;0.0;0.0
261300000000;60;261300000000;map;12.8373588557;-0.0338305842352;0.0;0.0;0.0;-0.000618487506427;0.999999808737;0.00114639546513;-0.000559276652859;0.0014894361464;0.0;0.0;0.0;0.0;0.0;0.000452571287158;0.0;0.0;0.0;0.0;0.0;0.0;0.0;0.0;0.0;0.0;0.0;0.0;0.0;0.0;0.0;0.0;0.0;0.0;0.0;0.0;0.0;0.0;0.0;0.0;0.0;0.0;0.0
261695000000;61;261695000000;map;13.0398628597;-0.0353360122062;0.0;0.0;0.0;-0.000179236235689;0.999999983937;0.0011225533145;-0.000524915066922;0.00150115154897;0.0;0.0;0.0;0.0;0.0;0.000469952779179;0.0;0.0;0.0;0.0;0.0;0.0;0.0;0.0;0.0;0.0;0.0;0.0;0.0;0.0;0.0;0.0;0.0;0.0;0.0;0.0;0.0;0.0;0.0;0.0;0.0;0.0;0.0
262104000000;62;262104000000;map;13.2488938525;-0.0355830776732;0.0;0.0;0.0;0.000638067650588;0.999999796435;0.00124814591109;-0.000517411552944;0.00156030222042;0.0;0.0;0.0;0.0;0.0;0.000527200623208;0.0;0.0;0.0;0.0;0.0;0.0;0.0;0.0;0.0;0.0;0.0;0.0;0.0;0.0;0.0;0.0;0.0;0.0;0.0;0.0;0.0;0.0;0.0;0.0;0.0;0.0;0.0
262492456993;63;262492456993;map;13.4544771689;-0.0402739319641;0.0;0.0;0.0;0.00129982054202;0.999999155233;0.00119385358022;-0.000494113821292;0.00165076848035;0.0;0.0;0.0;0.0;0.0;0.000507630414759;0.0;0.0;0.0;0.0;0.0;0.0;0.0;0.0;0.0;0.0;0.0;0.0;0.0;0.0;0.0;0.0;0.0;0.0;0.0;0.0;0.0;0.0;0.0;0.0;0.0;0.0;0.0
262902000000;64;262902000000;map;13.6592120438;-0.0422449036108;0.0;0.0;0.0;0.00137872740321;0.999999049555;0.00106131939674;-0.000472659798832;0.00203667715938;0.0;0.0;0.0;0.0;0.0;0.000521061450291;0.0;0.0;0.0;0.0;0.0;0.0;0.0;0.0;0.0;0.0;0.0;0.0;0.0;0.0;0.0;0.0;0.0;0.0;0.0;0.0;0.0;0.0;0.0;0.0;0.0;0.0;0.0
263292000000;65;263292000000;map;13.8607776873;-0.0365245293247;0.0;0.0;0.0;0.00350685595255;0.999993850962;0.00105536566446;-0.000422580619598;0.00207782705419;0.0;0.0;0.0;0.0;0.0;0.00049234543181;0.0;0.0;0.0;0.0;0.0;0.0;0.0;0.0;0.0;0.0;0.0;0.0;0.0;0.0;0.0;0.0;0.0;0.0;0.0;0.0;0.0;0.0;0.0;0.0;0.0;0.0;0.0
263689403424;66;263689403424;map;14.0634122452;-0.0347027008078;0.0;0.0;0.0;0.00396945585244;0.999992121679;0.00102461409864;-0.00032709896954;0.00204200616116;0.0;0.0;0.0;0.0;0.0;0.000471139035088;0.0;0.0;0.0;0.0;0.0;0.0;0.0;0.0;0.0;0.0;0.0;0.0;0.0;0.0;0.0;0.0;0.0;0.0;0.0;0.0;0.0;0.0;0.0;0.0;0.0;0.0;0.0
264100000000;67;264100000000;map;14.2754802811;-0.0351027267267;0.0;0.0;0.0;0.00290804846289;0.999995771618;0.00073798639994;-0.00032059007722;0.00217059244683;0.0;0.0;0.0;0.0;0.0;0.000439540359293;0.0;0.0;0.0;0.0;0.0;0.0;0.0;0.0;0.0;0.0;0.0;0.0;0.0;0.0;0.0;0.0;0.0;0.0;0.0;0.0;0.0;0.0;0.0;0.0;0.0;0.0;0.0
264495000000;68;264495000000;map;14.4761550322;-0.0332855664278;0.0;0.0;0.0;0.00322354133528;0.999994804377;0.000640808178048;-0.000369331257974;0.00253087654181;0.0;0.0;0.0;0.0;0.0;0.000470344493401;0.0;0.0;0.0;0.0;0.0;0.0;0.0;0.0;0.0;0.0;0.0;0.0;0.0;0.0;0.0;0.0;0.0;0.0;0.0;0.0;0.0;0.0;0.0;0.0;0.0;0.0;0.0
264900000000;69;264900000000;map;14.6772968704;-0.0301844816897;0.0;0.0;0.0;0.00351573925939;0.99999381977;0.000539115622161;-0.000236215504653;0.00267010207;0.0;0.0;0.0;0.0;0.0;0.000413003757087;0.0;0.0;0.0;0.0;0.0;0.0;0.0;0.0;0.0;0.0;0.0;0.0;0.0;0.0;0.0;0.0;0.0;0.0;0.0;0.0;0.0;0.0;0.0;0.0;0.0;0.0;0.0
265296000000;70;265296000000;map;14.8795205496;-0.0302061302164;0.0;0.0;0.0;0.00395066110474;0.999992196108;0.000533853459444;-0.000220605305935;0.00276606788576;0.0;0.0;0.0;0.0;0.0;0.000465439037013;0.0;0.0;0.0;0.0;0.0;0.0;0.0;0.0;0.0;0.0;0.0;0.0;0.0;0.0;0.0;0.0;0.0;0.0;0.0;0.0;0.0;0.0;0.0;0.0;0.0;0.0;0.0
265689000000;71;265689000000;map;15.0818441406;-0.0279728119931;0.0;0.0;0.0;0.00490753036256;0.999987958;0.00051360918772;-0.000234234931892;0.0030633665665;0.0;0.0;0.0;0.0;0.0;0.000460400247621;0.0;0.0;0.0;0.0;0.0;0.0;0.0;0.0;0.0;0.0;0.0;0.0;0.0;0.0;0.0;0.0;0.0;0.0;0.0;0.0;0.0;0.0;0.0;0.0;0.0;0.0;0.0
266096000000;72;266096000000;map;15.2926406182;-0.0257443034565;0.0;0.0;0.0;0.0053041219442;0.999985933046;0.000470541119057;-0.000144274383313;0.00305793798194;0.0;0.0;0.0;0.0;0.0;0.000457729563664;0.0;0.0;0.0;0.0;0.0;0.0;0.0;0.0;0.0;0.0;0.0;0.0;0.0;0.0;0.0;0.0;0.0;0.0;0.0;0.0;0.0;0.0;0.0;0.0;0.0;0.0;0.0
266591000000;73;266591000000;map;15.4974133842;-0.0260826866086;0.0;0.0;0.0;0.00445201534729;0.999990089731;0.000472790996184;-0.000125914051933;0.00315285101232;0.0;0.0;0.0;0.0;0.0;0.000530778611023;0.0;0.0;0.0;0.0;0.0;0.0;0.0;0.0;0.0;0.0;0.0;0.0;0.0;0.0;0.0;0.0;0.0;0.0;0.0;0.0;0.0;0.0;0.0;0.0;0.0;0.0;0.0
267006000000;74;267006000000;map;15.7068859802;-0.0259983678715;0.0;0.0;0.0;0.00407617814972;0.999991692351;0.00041020471474;-0.000110471015508;0.00318565699116;0.0;0.0;0.0;0.0;0.0;0.000525965977638;0.0;0.0;0.0;0.0;0.0;0.0;0.0;0.0;0.0;0.0;0.0;0.0;0.0;0.0;0.0;0.0;0.0;0.0;0.0;0.0;0.0;0.0;0.0;0.0;0.0;0.0;0.0
267391000000;75;267391000000;map;15.919059786;-0.0276519694684;0.0;0.0;0.0;0.00357142725171;0.999993622433;0.000423205905264;-0.000107590032542;0.00304718536286;0.0;0.0;0.0;0.0;0.0;0.000523336352295;0.0;0.0;0.0;0.0;0.0;0.0;0.0;0.0;0.0;0.0;0.0;0.0;0.0;0.0;0.0;0.0;0.0;0.0;0.0;0.0;0.0;0.0;0.0;0.0;0.0;0.0;0.0
267795000000;76;267795000000;map;16.1208338135;-0.0247506462412;0.0;0.0;0.0;0.00387439290482;0.999992494512;0.000445159630317;-0.000183616709431;0.00281982316849;0.0;0.0;0.0;0.0;0.0;0.000564041803395;0.0;0.0;0.0;0.0;0.0;0.0;0.0;0.0;0.0;0.0;0.0;0.0;0.0;0.0;0.0;0.0;0.0;0.0;0.0;0.0;0.0;0.0;0.0;0.0;0.0;0.0;0.0
268193000000;77;268193000000;map;16.3244411666;-0.0267373353653;0.0;0.0;0.0;0.0034922121789;0.999993902208;0.000437990134628;-0.00016438056153;0.0023818326676;0.0;0.0;0.0;0.0;0.0;0.000475832040298;0.0;0.0;0.0;0.0;0.0;0.0;0.0;0.0;0.0;0.0;0.0;0.0;0.0;0.0;0.0;0.0;0.0;0.0;0.0;0.0;0.0;0.0;0.0;0.0;0.0;0.0;0.0
268596000000;78;268596000000;map;16.5248826175;-0.0282832841694;0.0;0.0;0.0;0.00203863363447;0.999997921984;0.000450505081744;-0.000196202811911;0.00235162733675;0.0;0.0;0.0;0.0;0.0;0.000451436444507;0.0;0.0;0.0;0.0;0.0;0.0;0.0;0.0;0.0;0.0;0.0;0.0;0.0;0.0;0.0;0.0;0.0;0.0;0.0;0.0;0.0;0.0;0.0;0.0;0.0;0.0;0.0
269004000000;79;269004000000;map;16.7310653049;-0.0364615842538;0.0;0.0;0.0;0.000703685958291;0.999999752413;0.000451550244975;-0.000127330270879;0.00188963135454;0.0;0.0;0.0;0.0;0.0;0.000463590072702;0.0;0.0;0.0;0.0;0.0;0.0;0.0;0.0;0.0;0.0;0.0;0.0;0.0;0.0;0.0;0.0;0.0;0.0;0.0;0.0;0.0;0.0;0.0;0.0;0.0;0.0;0.0
269397000000;80;269397000000;map;16.9387599414;-0.0356946207682;0.0;0.0;0.0;0.00143053710436;0.999998976781;0.000492665373542;-0.000148928675997;0.00190727917875;0.0;0.0;0.0;0.0;0.0;0.000533242922629;0.0;0.0;0.0;0.0;0.0;0.0;0.0;0.0;0.0;0.0;0.0;0.0;0.0;0.0;0.0;0.0;0.0;0.0;0.0;0.0;0.0;0.0;0.0;0.0;0.0;0.0;0.0
269792000000;81;269792000000;map;17.1409917491;-0.0333736836728;0.0;0.0;0.0;0.000696819361113;0.999999757221;0.000471959960294;-0.000106356780463;0.00163876113205;0.0;0.0;0.0;0.0;0.0;0.000457226380912;0.0;0.0;0.0;0.0;0.0;0.0;0.0;0.0;0.0;0.0;0.0;0.0;0.0;0.0;0.0;0.0;0.0;0.0;0.0;0.0;0.0;0.0;0.0;0.0;0.0;0.0;0.0
270197000000;82;270197000000;map;17.341364257;-0.0354242269437;0.0;0.0;0.0;-0.000514656940362;0.999999867564;0.000460361842499;-9.86049068533e-05;0.00149782799498;0.0;0.0;0.0;0.0;0.0;0.000417489592899;0.0;0.0;0.0;0.0;0.0;0.0;0.0;0.0;0.0;0.0;0.0;0.0;0.0;0.0;0.0;0.0;0.0;0.0;0.0;0.0;0.0;0.0;0.0;0.0;0.0;0.0;0.0
270593000000;83;270593000000;map;17.5423804967;-0.0346192739065;0.0;0.0;0.0;6.26643297454e-05;0.999999998037;0.000446079057042;-0.000111546644007;0.00149723580219;0.0;0.0;0.0;0.0;0.0;0.00041068752942;0.0;0.0;0.0;0.0;0.0;0.0;0.0;0.0;0.0;0.0;0.0;0.0;0.0;0.0;0.0;0.0;0.0;0.0;0.0;0.0;0.0;0.0;0.0;0.0;0.0;0.0;0.0
271000000000;84;271000000000;map;17.750087151;-0.0357506521322;0.0;0.0;0.0;0.00122160493688;0.99999925384;0.000463345011553;-6.92071950515e-05;0.00153784199207;0.0;0.0;0.0;0.0;0.0;0.000425172461843;0.0;0.0;0.0;0.0;0.0;0.0;0.0;0.0;0.0;0.0;0.0;0.0;0.0;0.0;0.0;0.0;0.0;0.0;0.0;0.0;0.0;0.0;0.0;0.0;0.0;0.0;0.0
271497000000;85;271497000000;map;17.9631302698;-0.0339043759047;0.0;0.0;0.0;0.0021739337291;0.999997637003;0.000451855108622;-0.000112261325866;0.0017022134758;0.0;0.0;0.0;0.0;0.0;0.000506433390761;0.0;0.0;0.0;0.0;0.0;0.0;0.0;0.0;0.0;0.0;0.0;0.0;0.0;0.0;0.0;0.0;0.0;0.0;0.0;0.0;0.0;0.0;0.0;0.0;0.0;0.0;0.0
271906000000;86;271906000000;map;18.1714180569;-0.035559873134;0.0;0.0;0.0;0.000477710833261;0.999999885896;0.00043865183261;-0.00012064841517;0.00192325845016;0.0;0.0;0.0;0.0;0.0;0.000504241133336;0.0;0.0;0.0;0.0;0.0;0.0;0.0;0.0;0.0;0.0;0.0;0.0;0.0;0.0;0.0;0.0;0.0;0.0;0.0;0.0;0.0;0.0;0.0;0.0;0.0;0.0;0.0
272282935013;87;272282935013;map;18.3778008611;-0.0379026009858;0.0;0.0;0.0;-0.000233698992791;0.999999972692;0.000433050786455;-0.000200706144666;0.00216570111506;0.0;0.0;0.0;0.0;0.0;0.000558955925404;0.0;0.0;0.0;0.0;0.0;0.0;0.0;0.0;0.0;0.0;0.0;0.0;0.0;0.0;0.0;0.0;0.0;0.0;0.0;0.0;0.0;0.0;0.0;0.0;0.0;0.0;0.0
272694000000;88;272694000000;map;18.5827622041;-0.0394076295834;0.0;0.0;0.0;-0.00100812392668;0.999999491843;0.000411522095305;-0.000151595183902;0.00207914444836;0.0;0.0;0.0;0.0;0.0;0.000528534339269;0.0;0.0;0.0;0.0;0.0;0.0;0.0;0.0;0.0;0.0;0.0;0.0;0.0;0.0;0.0;0.0;0.0;0.0;0.0;0.0;0.0;0.0;0.0;0.0;0.0;0.0;0.0
273094685338;89;273094685338;map;18.793641142;-0.0389762777907;0.0;0.0;0.0;-0.000461577451445;0.999999893473;0.000405911141229;-8.35081478897e-05;0.00268808778949;0.0;0.0;0.0;0.0;0.0;0.000605560101208;0.0;0.0;0.0;0.0;0.0;0.0;0.0;0.0;0.0;0.0;0.0;0.0;0.0;0.0;0.0;0.0;0.0;0.0;0.0;0.0;0.0;0.0;0.0;0.0;0.0;0.0;0.0
273498534467;90;273498534467;map;18.9932778424;-0.0406031208522;0.0;0.0;0.0;-0.00170314115049;0.999998549654;0.000387339051372;-7.77882532366e-05;0.00265622106888;0.0;0.0;0.0;0.0;0.0;0.000572825007775;0.0;0.0;0.0;0.0;0.0;0.0;0.0;0.0;0.0;0.0;0.0;0.0;0.0;0.0;0.0;0.0;0.0;0.0;0.0;0.0;0.0;0.0;0.0;0.0;0.0;0.0;0.0
273906000000;91;273906000000;map;19.1932884764;-0.0509355258821;0.0;0.0;0.0;-0.00333835740549;0.999994427669;0.000418947219146;-1.20772352317e-05;0.00301473169628;0.0;0.0;0.0;0.0;0.0;0.000568036680995;0.0;0.0;0.0;0.0;0.0;0.0;0.0;0.0;0.0;0.0;0.0;0.0;0.0;0.0;0.0;0.0;0.0;0.0;0.0;0.0;0.0;0.0;0.0;0.0;0.0;0.0;0.0
274298000000;92;274298000000;map;19.3920030514;-0.0543294080759;0.0;0.0;0.0;-0.00370789457657;0.999993125735;0.000406931947339;-4.8872808398e-05;0.00316974687675;0.0;0.0;0.0;0.0;0.0;0.00053312456781;0.0;0.0;0.0;0.0;0.0;0.0;0.0;0.0;0.0;0.0;0.0;0.0;0.0;0.0;0.0;0.0;0.0;0.0;0.0;0.0;0.0;0.0;0.0;0.0;0.0;0.0;0.0
274695000000;93;274695000000;map;19.5935547217;-0.0555404730369;0.0;0.0;0.0;-0.00386477383824;0.999992531734;0.000395094267674;-8.39095627558e-06;0.00330999692893;0.0;0.0;0.0;0.0;0.0;0.000589835505874;0.0;0.0;0.0;0.0;0.0;0.0;0.0;0.0;0.0;0.0;0.0;0.0;0.0;0.0;0.0;0.0;0.0;0.0;0.0;0.0;0.0;0.0;0.0;0.0;0.0;0.0;0.0
275095000000;94;275095000000;map;19.7942728662;-0.0627963379289;0.0;0.0;0.0;-0.0041223480381;0.999991503087;0.000409973361059;8.38394467584e-06;0.00307414129357;0.0;0.0;0.0;0.0;0.0;0.000574223333982;0.0;0.0;0.0;0.0;0.0;0.0;0.0;0.0;0.0;0.0;0.0;0.0;0.0;0.0;0.0;0.0;0.0;0.0;0.0;0.0;0.0;0.0;0.0;0.0;0.0;0.0;0.0
275494000000;95;275494000000;map;19.9937765754;-0.0665870790054;0.0;0.0;0.0;-0.00411265006383;0.999991543019;0.000426844189974;1.98277390828e-05;0.00316511020269;0.0;0.0;0.0;0.0;0.0;0.000587104997107;0.0;0.0;0.0;0.0;0.0;0.0;0.0;0.0;0.0;0.0;0.0;0.0;0.0;0.0;0.0;0.0;0.0;0.0;0.0;0.0;0.0;0.0;0.0;0.0;0.0;0.0;0.0
276002000000;96;276002000000;map;20.2028869405;-0.0693012897752;0.0;0.0;0.0;-0.00469502711536;0.999988978299;0.000489645531786;7.32905378753e-05;0.00287531077314;0.0;0.0;0.0;0.0;0.0;0.000549102316263;0.0;0.0;0.0;0.0;0.0;0.0;0.0;0.0;0.0;0.0;0.0;0.0;0.0;0.0;0.0;0.0;0.0;0.0;0.0;0.0;0.0;0.0;0.0;0.0;0.0;0.0;0.0
276394000000;97;276394000000;map;20.4067519608;-0.0697550037527;0.0;0.0;0.0;-0.0034097886098;0.999994186654;0.000411009867264;0.000156713599742;0.00237997842493;0.0;0.0;0.0;0.0;0.0;0.000484144685377;0.0;0.0;0.0;0.0;0.0;0.0;0.0;0.0;0.0;0.0;0.0;0.0;0.0;0.0;0.0;0.0;0.0;0.0;0.0;0.0;0.0;0.0;0.0;0.0;0.0;0.0;0.0
276795000000;98;276795000000;map;20.6086793368;-0.0667611091688;0.0;0.0;0.0;-0.00253416710423;0.999996788993;0.000417691168764;9.15274322884e-05;0.00244316858781;0.0;0.0;0.0;0.0;0.0;0.000513456804719;0.0;0.0;0.0;0.0;0.0;0.0;0.0;0.0;0.0;0.0;0.0;0.0;0.0;0.0;0.0;0.0;0.0;0.0;0.0;0.0;0.0;0.0;0.0;0.0;0.0;0.0;0.0
277196000000;99;277196000000;map;20.8093494178;-0.0699095740941;0.0;0.0;0.0;-0.00288870995944;0.999995827669;0.000398844815095;2.19036277409e-05;0.00220550169148;0.0;0.0;0.0;0.0;0.0;0.000493939228469;0.0;0.0;0.0;0.0;0.0;0.0;0.0;0.0;0.0;0.0;0.0;0.0;0.0;0.0;0.0;0.0;0.0;0.0;0.0;0.0;0.0;0.0;0.0;0.0;0.0;0.0;0.0
277594000000;100;277594000000;map;21.013401217;-0.0724329270392;0.0;0.0;0.0;-0.00320661118493;0.999994858809;0.000386982828729;-6.14434707782e-05;0.00197914658588;0.0;0.0;0.0;0.0;0.0;0.000456781190356;0.0;0.0;0.0;0.0;0.0;0.0;0.0;0.0;0.0;0.0;0.0;0.0;0.0;0.0;0.0;0.0;0.0;0.0;0.0;0.0;0.0;0.0;0.0;0.0;0.0;0.0;0.0
278005000000;101;278005000000;map;21.2211834549;-0.0714591842007;0.0;0.0;0.0;-0.00298863102219;0.999995534032;0.000406644171107;-2.29486011158e-05;0.00163738962683;0.0;0.0;0.0;0.0;0.0;0.000435924846191;0.0;0.0;0.0;0.0;0.0;0.0;0.0;0.0;0.0;0.0;0.0;0.0;0.0;0.0;0.0;0.0;0.0;0.0;0.0;0.0;0.0;0.0;0.0;0.0;0.0;0.0;0.0
278394000000;102;278394000000;map;21.4219302874;-0.0703828645159;0.0;0.0;0.0;-0.00250650502076;0.999996858711;0.000425660826295;2.50514644822e-05;0.00206223531622;0.0;0.0;0.0;0.0;0.0;0.000448484174039;0.0;0.0;0.0;0.0;0.0;0.0;0.0;0.0;0.0;0.0;0.0;0.0;0.0;0.0;0.0;0.0;0.0;0.0;0.0;0.0;0.0;0.0;0.0;0.0;0.0;0.0;0.0
278798000000;103;278798000000;map;21.6225712578;-0.0765882456285;0.0;0.0;0.0;-0.00334643027049;0.999994400687;0.000426069725336;0.000109333287075;0.00158049376277;0.0;0.0;0.0;0.0;0.0;0.00036671124655;0.0;0.0;0.0;0.0;0.0;0.0;0.0;0.0;0.0;0.0;0.0;0.0;0.0;0.0;0.0;0.0;0.0;0.0;0.0;0.0;0.0;0.0;0.0;0.0;0.0;0.0;0.0
279194000000;104;279194000000;map;21.8268533255;-0.0794730726025;0.0;0.0;0.0;-0.00373195805878;0.99999303622;0.000390308860233;8.87906041731e-05;0.00196305907005;0.0;0.0;0.0;0.0;0.0;0.000378933112955;0.0;0.0;0.0;0.0;0.0;0.0;0.0;0.0;0.0;0.0;0.0;0.0;0.0;0.0;0.0;0.0;0.0;0.0;0.0;0.0;0.0;0.0;0.0;0.0;0.0;0.0;0.0
279596000000;105;279596000000;map;22.0294390559;-0.0807800446721;0.0;0.0;0.0;-0.00393551505661;0.999992255831;0.000425512773745;0.000135476757387;0.00212984042368;0.0;0.0;0.0;0.0;0.0;0.000356386645206;0.0;0.0;0.0;0.0;0.0;0.0;0.0;0.0;0.0;0.0;0.0;0.0;0.0;0.0;0.0;0.0;0.0;0.0;0.0;0.0;0.0;0.0;0.0;0.0;0.0;0.0;0.0
280000000000;106;280000000000;map;22.2327581643;-0.0843443909221;0.0;0.0;0.0;-0.00461497839565;0.999989350931;0.000482424579047;0.000157048091226;0.00201381253452;0.0;0.0;0.0;0.0;0.0;0.000363834538072;0.0;0.0;0.0;0.0;0.0;0.0;0.0;0.0;0.0;0.0;0.0;0.0;0.0;0.0;0.0;0.0;0.0;0.0;0.0;0.0;0.0;0.0;0.0;0.0;0.0;0.0;0.0
280399000000;107;280399000000;map;22.4320538865;-0.0830273959741;0.0;0.0;0.0;-0.00496424467493;0.999987678061;0.000520209153308;0.000116968742973;0.00184456783863;0.0;0.0;0.0;0.0;0.0;0.000337840509114;0.0;0.0;0.0;0.0;0.0;0.0;0.0;0.0;0.0;0.0;0.0;0.0;0.0;0.0;0.0;0.0;0.0;0.0;0.0;0.0;0.0;0.0;0.0;0.0;0.0;0.0;0.0
280791000000;108;280791000000;map;22.6374209254;-0.0783331647722;0.0;0.0;0.0;-0.00395385307421;0.999992183492;0.000547336458794;0.000146662220062;0.00192045559149;0.0;0.0;0.0;0.0;0.0;0.000350871682483;0.0;0.0;0.0;0.0;0.0;0.0;0.0;0.0;0.0;0.0;0.0;0.0;0.0;0.0;0.0;0.0;0.0;0.0;0.0;0.0;0.0;0.0;0.0;0.0;0.0;0.0;0.0
281198000000;109;281198000000;map;22.8419951469;-0.0792913195188;0.0;0.0;0.0;-0.00407242350301;0.999991707649;0.000443869329956;9.80770032288e-05;0.00190523958078;0.0;0.0;0.0;0.0;0.0;0.000326416364125;0.0;0.0;0.0;0.0;0.0;0.0;0.0;0.0;0.0;0.0;0.0;0.0;0.0;0.0;0.0;0.0;0.0;0.0;0.0;0.0;0.0;0.0;0.0;0.0;0.0;0.0;0.0
281598000000;110;281598000000;map;23.0445809535;-0.0787892663258;0.0;0.0;0.0;-0.00346531550971;0.999993995776;0.000425162651709;0.000121073163805;0.00180927405188;0.0;0.0;0.0;0.0;0.0;0.000342983446933;0.0;0.0;0.0;0.0;0.0;0.0;0.0;0.0;0.0;0.0;0.0;0.0;0.0;0.0;0.0;0.0;0.0;0.0;0.0;0.0;0.0;0.0;0.0;0.0;0.0;0.0;0.0
282001000000;111;282001000000;map;23.2479864416;-0.0801620571398;0.0;0.0;0.0;-0.00305311883574;0.999995339222;0.000342190488254;0.000160882580623;0.00205408013429;0.0;0.0;0.0;0.0;0.0;0.000414451061765;0.0;0.0;0.0;0.0;0.0;0.0;0.0;0.0;0.0;0.0;0.0;0.0;0.0;0.0;0.0;0.0;0.0;0.0;0.0;0.0;0.0;0.0;0.0;0.0;0.0;0.0;0.0
282394000000;112;282394000000;map;23.4490486867;-0.0804202719645;0.0;0.0;0.0;-0.00312216852479;0.99999512602;0.000389989859059;0.000176559681472;0.00183199505148;0.0;0.0;0.0;0.0;0.0;0.000437640383084;0.0;0.0;0.0;0.0;0.0;0.0;0.0;0.0;0.0;0.0;0.0;0.0;0.0;0.0;0.0;0.0;0.0;0.0;0.0;0.0;0.0;0.0;0.0;0.0;0.0;0.0;0.0
282796000000;113;282796000000;map;23.6484856908;-0.0913962598407;0.0;0.0;0.0;-0.00311458892894;0.999995149656;0.000569944059862;0.000262361577489;0.00172708460145;0.0;0.0;0.0;0.0;0.0;0.000344158735306;0.0;0.0;0.0;0.0;0.0;0.0;0.0;0.0;0.0;0.0;0.0;0.0;0.0;0.0;0.0;0.0;0.0;0.0;0.0;0.0;0.0;0.0;0.0;0.0;0.0;0.0;0.0
283197000000;114;283197000000;map;23.8517524658;-0.0920596192111;0.0;0.0;0.0;-0.00295786657352;0.999995625503;0.000592002669123;0.000198255950232;0.00159763767733;0.0;0.0;0.0;0.0;0.0;0.000323107122857;0.0;0.0;0.0;0.0;0.0;0.0;0.0;0.0;0.0;0.0;0.0;0.0;0.0;0.0;0.0;0.0;0.0;0.0;0.0;0.0;0.0;0.0;0.0;0.0;0.0;0.0;0.0
283600000000;115;283600000000;map;24.0520150977;-0.0938282532431;0.0;0.0;0.0;-0.00229216315641;0.999997372991;0.000590745951285;0.000160909928003;0.00136956902284;0.0;0.0;0.0;0.0;0.0;0.000349280305631;0.0;0.0;0.0;0.0;0.0;0.0;0.0;0.0;0.0;0.0;0.0;0.0;0.0;0.0;0.0;0.0;0.0;0.0;0.0;0.0;0.0;0.0;0.0;0.0;0.0;0.0;0.0
283997000000;116;283997000000;map;24.2544408216;-0.106658369331;0.0;0.0;0.0;-0.00222210761182;0.999997531116;0.000538780560532;0.000261309766934;0.0010791088782;0.0;0.0;0.0;0.0;0.0;0.000311418936988;0.0;0.0;0.0;0.0;0.0;0.0;0.0;0.0;0.0;0.0;0.0;0.0;0.0;0.0;0.0;0.0;0.0;0.0;0.0;0.0;0.0;0.0;0.0;0.0;0.0;0.0;0.0
284396000000;117;284396000000;map;24.4544336606;-0.101160476836;0.0;0.0;0.0;-0.00177656821622;0.999998421901;0.000643056790977;0.000331598872101;0.00092318035638;0.0;0.0;0.0;0.0;0.0;0.00034543066696;0.0;0.0;0.0;0.0;0.0;0.0;0.0;0.0;0.0;0.0;0.0;0.0;0.0;0.0;0.0;0.0;0.0;0.0;0.0;0.0;0.0;0.0;0.0;0.0;0.0;0.0;0.0
284795000000;118;284795000000;map;24.6554974539;-0.0977715665225;0.0;0.0;0.0;0.000699623186215;0.999999755264;0.00055032921091;0.000253852953761;0.00101159288208;0.0;0.0;0.0;0.0;0.0;0.000369087964028;0.0;0.0;0.0;0.0;0.0;0.0;0.0;0.0;0.0;0.0;0.0;0.0;0.0;0.0;0.0;0.0;0.0;0.0;0.0;0.0;0.0;0.0;0.0;0.0;0.0;0.0;0.0
285200000000;119;285200000000;map;24.8629814453;-0.0984475133892;0.0;0.0;0.0;2.17092813032e-05;0.999999999764;0.000486523565542;8.25754563336e-05;0.000914293904992;0.0;0.0;0.0;0.0;0.0;0.00038686749809;0.0;0.0;0.0;0.0;0.0;0.0;0.0;0.0;0.0;0.0;0.0;0.0;0.0;0.0;0.0;0.0;0.0;0.0;0.0;0.0;0.0;0.0;0.0;0.0;0.0;0.0;0.0
285701000000;120;285701000000;map;25.0600345577;-0.0976043614844;0.0;0.0;0.0;-0.00162972402521;0.999998671999;0.000435024641433;0.000123790601886;0.00115621288258;0.0;0.0;0.0;0.0;0.0;0.000403340441205;0.0;0.0;0.0;0.0;0.0;0.0;0.0;0.0;0.0;0.0;0.0;0.0;0.0;0.0;0.0;0.0;0.0;0.0;0.0;0.0;0.0;0.0;0.0;0.0;0.0;0.0;0.0
286098000000;121;286098000000;map;25.2652758586;-0.0985753468634;0.0;0.0;0.0;-0.00238555373663;0.999997154563;0.000479298042023;0.000191835584542;0.00146739100084;0.0;0.0;0.0;0.0;0.0;0.000496562377679;0.0;0.0;0.0;0.0;0.0;0.0;0.0;0.0;0.0;0.0;0.0;0.0;0.0;0.0;0.0;0.0;0.0;0.0;0.0;0.0;0.0;0.0;0.0;0.0;0.0;0.0;0.0
286500000000;122;286500000000;map;25.4674801496;-0.0965370458219;0.0;0.0;0.0;-0.00173355563448;0.999998497391;0.000454706373489;8.50987216623e-05;0.00161005065375;0.0;0.0;0.0;0.0;0.0;0.000448649994786;0.0;0.0;0.0;0.0;0.0;0.0;0.0;0.0;0.0;0.0;0.0;0.0;0.0;0.0;0.0;0.0;0.0;0.0;0.0;0.0;0.0;0.0;0.0;0.0;0.0;0.0;0.0
286906000000;123;286906000000;map;25.6748367583;-0.0995019522738;0.0;0.0;0.0;-0.00235200950188;0.999997234022;0.000445528467253;8.19416040856e-05;0.00180901422653;0.0;0.0;0.0;0.0;0.0;0.000410482039657;0.0;0.0;0.0;0.0;0.0;0.0;0.0;0.0;0.0;0.0;0.0;0.0;0.0;0.0;0.0;0.0;0.0;0.0;0.0;0.0;0.0;0.0;0.0;0.0;0.0;0.0;0.0
287298583027;124;287298583027;map;25.8758620742;-0.106133334846;0.0;0.0;0.0;-0.0023628057228;0.999997208571;0.000430510387332;0.000152202742216;0.0018822927987;0.0;0.0;0.0;0.0;0.0;0.000408984873776;0.0;0.0;0.0;0.0;0.0;0.0;0.0;0.0;0.0;0.0;0.0;0.0;0.0;0.0;0.0;0.0;0.0;0.0;0.0;0.0;0.0;0.0;0.0;0.0;0.0;0.0;0.0
287701000000;125;287701000000;map;26.077333273;-0.106307590204;0.0;0.0;0.0;-0.00190651574409;0.999998182597;0.000417467208877;5.04681991824e-05;0.00184183388885;0.0;0.0;0.0;0.0;0.0;0.000330101170116;0.0;0.0;0.0;0.0;0.0;0.0;0.0;0.0;0.0;0.0;0.0;0.0;0.0;0.0;0.0;0.0;0.0;0.0;0.0;0.0;0.0;0.0;0.0;0.0;0.0;0.0;0.0
288099688389;126;288099688389;map;26.2871304858;-0.109304570106;0.0;0.0;0.0;-0.00166248632288;0.999998618069;0.000390256942524;5.84207831151e-05;0.00199919880116;0.0;0.0;0.0;0.0;0.0;0.000308114741962;0.0;0.0;0.0;0.0;0.0;0.0;0.0;0.0;0.0;0.0;0.0;0.0;0.0;0.0;0.0;0.0;0.0;0.0;0.0;0.0;0.0;0.0;0.0;0.0;0.0;0.0;0.0
288500000000;127;288500000000;map;26.4922233173;-0.107139960025;0.0;0.0;0.0;-0.00173848024499;0.999998488842;0.000405493325161;-1.77795458383e-05;0.00172385143022;0.0;0.0;0.0;0.0;0.0;0.000292501392265;0.0;0.0;0.0;0.0;0.0;0.0;0.0;0.0;0.0;0.0;0.0;0.0;0.0;0.0;0.0;0.0;0.0;0.0;0.0;0.0;0.0;0.0;0.0;0.0;0.0;0.0;0.0
289007000000;128;289007000000;map;26.7017002408;-0.108293521195;0.0;0.0;0.0;-0.00135854342313;0.999999077179;0.00037263387344;-4.23325372694e-05;0.00166229308679;0.0;0.0;0.0;0.0;0.0;0.000294012594579;0.0;0.0;0.0;0.0;0.0;0.0;0.0;0.0;0.0;0.0;0.0;0.0;0.0;0.0;0.0;0.0;0.0;0.0;0.0;0.0;0.0;0.0;0.0;0.0;0.0;0.0;0.0
289400000000;129;289400000000;map;26.9594260218;-0.106368408313;0.0;0.0;0.0;-0.000481628068401;0.999999884017;0.000429688951954;-4.95684784916e-05;0.00189707355594;0.0;0.0;0.0;0.0;0.0;0.000312501151672;0.0;0.0;0.0;0.0;0.0;0.0;0.0;0.0;0.0;0.0;0.0;0.0;0.0;0.0;0.0;0.0;0.0;0.0;0.0;0.0;0.0;0.0;0.0;0.0;0.0;0.0;0.0
289905000000;130;289905000000;map;27.1591891242;-0.108894436725;0.0;0.0;0.0;-0.00172952302756;0.999998504374;0.000410528800217;-5.3401914601e-05;0.00182877704132;0.0;0.0;0.0;0.0;0.0;0.000349886009294;0.0;0.0;0.0;0.0;0.0;0.0;0.0;0.0;0.0;0.0;0.0;0.0;0.0;0.0;0.0;0.0;0.0;0.0;0.0;0.0;0.0;0.0;0.0;0.0;0.0;0.0;0.0
290297000000;131;290297000000;map;27.3664984786;-0.116211319675;0.0;0.0;0.0;-0.00179536371457;0.999998388333;0.000356379641858;3.15672355207e-05;0.00164602579847;0.0;0.0;0.0;0.0;0.0;0.000368538738219;0.0;0.0;0.0;0.0;0.0;0.0;0.0;0.0;0.0;0.0;0.0;0.0;0.0;0.0;0.0;0.0;0.0;0.0;0.0;0.0;0.0;0.0;0.0;0.0;0.0;0.0;0.0
290701000000;132;290701000000;map;27.5704970885;-0.108807577479;0.0;0.0;0.0;9.7311230546e-05;0.999999995265;0.000366189891338;-3.05006517514e-05;0.00151282172012;0.0;0.0;0.0;0.0;0.0;0.000251197015518;0.0;0.0;0.0;0.0;0.0;0.0;0.0;0.0;0.0;0.0;0.0;0.0;0.0;0.0;0.0;0.0;0.0;0.0;0.0;0.0;0.0;0.0;0.0;0.0;0.0;0.0;0.0
291099000000;133;291099000000;map;27.7722774012;-0.108002543682;0.0;0.0;0.0;0.00068456004765;0.999999765689;0.000412758867697;-1.34871949373e-05;0.00138134629348;0.0;0.0;0.0;0.0;0.0;0.00026176172171;0.0;0.0;0.0;0.0;0.0;0.0;0.0;0.0;0.0;0.0;0.0;0.0;0.0;0.0;0.0;0.0;0.0;0.0;0.0;0.0;0.0;0.0;0.0;0.0;0.0;0.0;0.0
291504000000;134;291504000000;map;27.977435009;-0.108936068677;0.0;0.0;0.0;0.00185081828449;0.999998287234;0.00046158546786;2.27516148859e-05;0.00142479303672;0.0;0.0;0.0;0.0;0.0;0.000259196408293;0.0;0.0;0.0;0.0;0.0;0.0;0.0;0.0;0.0;0.0;0.0;0.0;0.0;0.0;0.0;0.0;0.0;0.0;0.0;0.0;0.0;0.0;0.0;0.0;0.0;0.0;0.0
291906000000;135;291906000000;map;28.1754046335;-0.105210027114;0.0;0.0;0.0;0.0028165028799;0.999996033648;0.000458149845258;-6.5079482265e-05;0.0015418399135;0.0;0.0;0.0;0.0;0.0;0.000316594772569;0.0;0.0;0.0;0.0;0.0;0.0;0.0;0.0;0.0;0.0;0.0;0.0;0.0;0.0;0.0;0.0;0.0;0.0;0.0;0.0;0.0;0.0;0.0;0.0;0.0;0.0;0.0
292302514586;136;292302514586;map;28.380712413;-0.102897474199;0.0;0.0;0.0;0.00286533424861;0.999995894921;0.000526879413769;-0.00017682195161;0.00153415703638;0.0;0.0;0.0;0.0;0.0;0.000293111889183;0.0;0.0;0.0;0.0;0.0;0.0;0.0;0.0;0.0;0.0;0.0;0.0;0.0;0.0;0.0;0.0;0.0;0.0;0.0;0.0;0.0;0.0;0.0;0.0;0.0;0.0;0.0
292698000000;137;292698000000;map;28.5816669149;-0.103585776259;0.0;0.0;0.0;0.00275897801426;0.999996194013;0.000589575658296;-0.000276505430451;0.00129991562481;0.0;0.0;0.0;0.0;0.0;0.000304338041011;0.0;0.0;0.0;0.0;0.0;0.0;0.0;0.0;0.0;0.0;0.0;0.0;0.0;0.0;0.0;0.0;0.0;0.0;0.0;0.0;0.0;0.0;0.0;0.0;0.0;0.0;0.0
293107000000;138;293107000000;map;28.7893981121;-0.102388737286;0.0;0.0;0.0;0.00287736115267;0.999995860388;0.000879617326632;-0.000492427095213;0.00143000375281;0.0;0.0;0.0;0.0;0.0;0.000418081045513;0.0;0.0;0.0;0.0;0.0;0.0;0.0;0.0;0.0;0.0;0.0;0.0;0.0;0.0;0.0;0.0;0.0;0.0;0.0;0.0;0.0;0.0;0.0;0.0;0.0;0.0;0.0
293502000000;139;293502000000;map;28.9946809698;-0.099501400283;0.0;0.0;0.0;0.0027485522206;0.999996222723;0.000746228036292;-0.000487286310348;0.00162556184608;0.0;0.0;0.0;0.0;0.0;0.000355750806765;0.0;0.0;0.0;0.0;0.0;0.0;0.0;0.0;0.0;0.0;0.0;0.0;0.0;0.0;0.0;0.0;0.0;0.0;0.0;0.0;0.0;0.0;0.0;0.0;0.0;0.0;0.0
293910000000;140;293910000000;map;29.1935434752;-0.103002556338;0.0;0.0;0.0;0.0013581782396;0.999999077676;0.000722756203913;-0.000269861983794;0.00163626755131;0.0;0.0;0.0;0.0;0.0;0.000381581745223;0.0;0.0;0.0;0.0;0.0;0.0;0.0;0.0;0.0;0.0;0.0;0.0;0.0;0.0;0.0;0.0;0.0;0.0;0.0;0.0;0.0;0.0;0.0;0.0;0.0;0.0;0.0
294320000000;141;294320000000;map;29.397283825;-0.103854204731;0.0;0.0;0.0;0.00105254301405;0.999999446076;0.00078079055038;-0.000178353452142;0.00128911460372;0.0;0.0;0.0;0.0;0.0;0.000259471376468;0.0;0.0;0.0;0.0;0.0;0.0;0.0;0.0;0.0;0.0;0.0;0.0;0.0;0.0;0.0;0.0;0.0;0.0;0.0;0.0;0.0;0.0;0.0;0.0;0.0;0.0;0.0
294719000000;142;294719000000;map;29.5989183228;-0.109761673202;0.0;0.0;0.0;0.000724304248021;0.999999737692;0.000817135995248;-0.000137572618398;0.00115934495236;0.0;0.0;0.0;0.0;0.0;0.000221225955251;0.0;0.0;0.0;0.0;0.0;0.0;0.0;0.0;0.0;0.0;0.0;0.0;0.0;0.0;0.0;0.0;0.0;0.0;0.0;0.0;0.0;0.0;0.0;0.0;0.0;0.0;0.0
295120000000;143;295120000000;map;29.8018663105;-0.106937133918;0.0;0.0;0.0;-0.00157452249342;0.999998760439;0.00065803354812;1.32423950259e-05;0.00124450133531;0.0;0.0;0.0;0.0;0.0;0.000230886161331;0.0;0.0;0.0;0.0;0.0;0.0;0.0;0.0;0.0;0.0;0.0;0.0;0.0;0.0;0.0;0.0;0.0;0.0;0.0;0.0;0.0;0.0;0.0;0.0;0.0;0.0;0.0
295518000000;144;295518000000;map;30.0087527508;-0.110666386353;0.0;0.0;0.0;-0.00369578538695;0.999993170562;0.000617279154653;1.86896822343e-05;0.00133252788184;0.0;0.0;0.0;0.0;0.0;0.000293468000403;0.0;0.0;0.0;0.0;0.0;0.0;0.0;0.0;0.0;0.0;0.0;0.0;0.0;0.0;0.0;0.0;0.0;0.0;0.0;0.0;0.0;0.0;0.0;0.0;0.0;0.0;0.0
295924378961;145;295924378961;map;30.2124453512;-0.108697442505;0.0;0.0;0.0;-0.00408780400699;0.999991644894;0.000640361055957;-0.000141732469551;0.0014385631494;0.0;0.0;0.0;0.0;0.0;0.000273061629867;0.0;0.0;0.0;0.0;0.0;0.0;0.0;0.0;0.0;0.0;0.0;0.0;0.0;0.0;0.0;0.0;0.0;0.0;0.0;0.0;0.0;0.0;0.0;0.0;0.0;0.0;0.0
296319000000;146;296319000000;map;30.4151961899;-0.104849653394;0.0;0.0;0.0;-0.00434491125965;0.999990560829;0.000628665140539;-0.000187348248403;0.00170285441262;0.0;0.0;0.0;0.0;0.0;0.000322755828624;0.0;0.0;0.0;0.0;0.0;0.0;0.0;0.0;0.0;0.0;0.0;0.0;0.0;0.0;0.0;0.0;0.0;0.0;0.0;0.0;0.0;0.0;0.0;0.0;0.0;0.0;0.0
296729000000;147;296729000000;map;30.6164138999;-0.110735786569;0.0;0.0;0.0;-0.00357197340359;0.999993620483;0.000682345824771;-0.000261407645588;0.00159034807839;0.0;0.0;0.0;0.0;0.0;0.000411832436654;0.0;0.0;0.0;0.0;0.0;0.0;0.0;0.0;0.0;0.0;0.0;0.0;0.0;0.0;0.0;0.0;0.0;0.0;0.0;0.0;0.0;0.0;0.0;0.0;0.0;0.0;0.0
297230000000;148;297230000000;map;30.8208717761;-0.112465809267;0.0;0.0;0.0;-0.00553261856936;0.999984694949;0.000671001952014;-0.000121292371257;0.00175531692616;0.0;0.0;0.0;0.0;0.0;0.000471154312261;0.0;0.0;0.0;0.0;0.0;0.0;0.0;0.0;0.0;0.0;0.0;0.0;0.0;0.0;0.0;0.0;0.0;0.0;0.0;0.0;0.0;0.0;0.0;0.0;0.0;0.0;0.0
297629000000;149;297629000000;map;31.022885179;-0.109919346236;0.0;0.0;0.0;-0.00530314331477;0.999985938237;0.000765376089021;1.43808458377e-05;0.00171276793181;0.0;0.0;0.0;0.0;0.0;0.000333044980421;0.0;0.0;0.0;0.0;0.0;0.0;0.0;0.0;0.0;0.0;0.0;0.0;0.0;0.0;0.0;0.0;0.0;0.0;0.0;0.0;0.0;0.0;0.0;0.0;0.0;0.0;0.0
298034000000;150;298034000000;map;31.2340945137;-0.11463526428;0.0;0.0;0.0;-0.00530151593544;0.999985946866;0.000945428606997;7.08710762036e-05;0.00166685940714;0.0;0.0;0.0;0.0;0.0;0.000356300793633;0.0;0.0;0.0;0.0;0.0;0.0;0.0;0.0;0.0;0.0;0.0;0.0;0.0;0.0;0.0;0.0;0.0;0.0;0.0;0.0;0.0;0.0;0.0;0.0;0.0;0.0;0.0
298426000000;151;298426000000;map;31.4369197035;-0.117620125792;0.0;0.0;0.0;-0.00728361962397;0.999973474091;0.000911991644102;0.000168260629739;0.00170667520029;0.0;0.0;0.0;0.0;0.0;0.000336204462466;0.0;0.0;0.0;0.0;0.0;0.0;0.0;0.0;0.0;0.0;0.0;0.0;0.0;0.0;0.0;0.0;0.0;0.0;0.0;0.0;0.0;0.0;0.0;0.0;0.0;0.0;0.0
298831000000;152;298831000000;map;31.6340802667;-0.123005559644;0.0;0.0;0.0;-0.00779348746099;0.999969630315;0.000927108764245;9.39808654379e-05;0.00169534081592;0.0;0.0;0.0;0.0;0.0;0.000324136839371;0.0;0.0;0.0;0.0;0.0;0.0;0.0;0.0;0.0;0.0;0.0;0.0;0.0;0.0;0.0;0.0;0.0;0.0;0.0;0.0;0.0;0.0;0.0;0.0;0.0;0.0;0.0
299229000000;153;299229000000;map;31.8310316528;-0.124915656286;0.0;0.0;0.0;-0.00752071154762;0.999971719049;0.000850920234257;0.000351737244084;0.00185218589511;0.0;0.0;0.0;0.0;0.0;0.000326596628507;0.0;0.0;0.0;0.0;0.0;0.0;0.0;0.0;0.0;0.0;0.0;0.0;0.0;0.0;0.0;0.0;0.0;0.0;0.0;0.0;0.0;0.0;0.0;0.0;0.0;0.0;0.0
299631000000;154;299631000000;map;32.033376903;-0.127332940418;0.0;0.0;0.0;-0.00714800372266;0.999974452695;0.00102633430788;0.000435840329197;0.00190181746593;0.0;0.0;0.0;0.0;0.0;0.000344011356583;0.0;0.0;0.0;0.0;0.0;0.0;0.0;0.0;0.0;0.0;0.0;0.0;0.0;0.0;0.0;0.0;0.0;0.0;0.0;0.0;0.0;0.0;0.0;0.0;0.0;0.0;0.0
300034000000;155;300034000000;map;32.2451435436;-0.128878267671;0.0;0.0;0.0;-0.00740431752866;0.999972587665;0.00102235015811;0.000601109108835;0.00180044645735;0.0;0.0;0.0;0.0;0.0;0.00036010874229;0.0;0.0;0.0;0.0;0.0;0.0;0.0;0.0;0.0;0.0;0.0;0.0;0.0;0.0;0.0;0.0;0.0;0.0;0.0;0.0;0.0;0.0;0.0;0.0;0.0;0.0;0.0
300433000000;156;300433000000;map;32.4609254006;-0.131401095937;0.0;0.0;0.0;-0.00661824545453;0.999978099174;0.00124900014976;0.000639847356885;0.00167759873042;0.0;0.0;0.0;0.0;0.0;0.000340560262669;0.0;0.0;0.0;0.0;0.0;0.0;0.0;0.0;0.0;0.0;0.0;0.0;0.0;0.0;0.0;0.0;0.0;0.0;0.0;0.0;0.0;0.0;0.0;0.0;0.0;0.0;0.0
300837000000;157;300837000000;map;32.6659615616;-0.130537172612;0.0;0.0;0.0;-0.00622887917662;0.999980600344;0.00127339462369;0.000777946919797;0.0018193526528;0.0;0.0;0.0;0.0;0.0;0.000319349391649;0.0;0.0;0.0;0.0;0.0;0.0;0.0;0.0;0.0;0.0;0.0;0.0;0.0;0.0;0.0;0.0;0.0;0.0;0.0;0.0;0.0;0.0;0.0;0.0;0.0;0.0;0.0
301233000000;158;301233000000;map;32.8784427052;-0.137929149382;0.0;0.0;0.0;-0.00647237051473;0.999979053991;0.00153061174274;0.000783066349085;0.0017037475043;0.0;0.0;0.0;0.0;0.0;0.00032491413153;0.0;0.0;0.0;0.0;0.0;0.0;0.0;0.0;0.0;0.0;0.0;0.0;0.0;0.0;0.0;0.0;0.0;0.0;0.0;0.0;0.0;0.0;0.0;0.0;0.0;0.0;0.0
301733000000;159;301733000000;map;33.0815775151;-0.135586698113;0.0;0.0;0.0;-0.00588759923396;0.999982667937;0.00152160608195;0.000915977984191;0.00199915152312;0.0;0.0;0.0;0.0;0.0;0.000328117292337;0.0;0.0;0.0;0.0;0.0;0.0;0.0;0.0;0.0;0.0;0.0;0.0;0.0;0.0;0.0;0.0;0.0;0.0;0.0;0.0;0.0;0.0;0.0;0.0;0.0;0.0;0.0
302134000000;160;302134000000;map;33.291047184;-0.129075294055;0.0;0.0;0.0;-0.00389038463513;0.999992432425;0.00155377712645;0.00104562891471;0.00250537051544;0.0;0.0;0.0;0.0;0.0;0.000323896266203;0.0;0.0;0.0;0.0;0.0;0.0;0.0;0.0;0.0;0.0;0.0;0.0;0.0;0.0;0.0;0.0;0.0;0.0;0.0;0.0;0.0;0.0;0.0;0.0;0.0;0.0;0.0
302529000000;161;302529000000;map;33.497393553;-0.128275268072;0.0;0.0;0.0;-0.00397290573351;0.999992107979;0.0017300356767;0.00115846834695;0.00283023653843;0.0;0.0;0.0;0.0;0.0;0.000407808603004;0.0;0.0;0.0;0.0;0.0;0.0;0.0;0.0;0.0;0.0;0.0;0.0;0.0;0.0;0.0;0.0;0.0;0.0;0.0;0.0;0.0;0.0;0.0;0.0;0.0;0.0;0.0
302941000000;162;302941000000;map;33.7010766755;-0.12866876741;0.0;0.0;0.0;-0.00457011303691;0.999989556979;0.00151123867522;0.00105316133573;0.00290185774628;0.0;0.0;0.0;0.0;0.0;0.000464159452369;0.0;0.0;0.0;0.0;0.0;0.0;0.0;0.0;0.0;0.0;0.0;0.0;0.0;0.0;0.0;0.0;0.0;0.0;0.0;0.0;0.0;0.0;0.0;0.0;0.0;0.0;0.0
303335000000;163;303335000000;map;33.8926455487;-0.131611352366;0.0;0.0;0.0;-0.00532747852866;0.999985808886;0.00149063485469;0.00114391023421;0.00314294099307;0.0;0.0;0.0;0.0;0.0;0.000425703393293;0.0;0.0;0.0;0.0;0.0;0.0;0.0;0.0;0.0;0.0;0.0;0.0;0.0;0.0;0.0;0.0;0.0;0.0;0.0;0.0;0.0;0.0;0.0;0.0;0.0;0.0;0.0
303734000000;164;303734000000;map;34.1072160582;-0.127821112956;0.0;0.0;0.0;-0.00310826872845;0.999995169321;0.00188474123001;0.00166081411862;0.00394964988245;0.0;0.0;0.0;0.0;0.0;0.000363805897027;0.0;0.0;0.0;0.0;0.0;0.0;0.0;0.0;0.0;0.0;0.0;0.0;0.0;0.0;0.0;0.0;0.0;0.0;0.0;0.0;0.0;0.0;0.0;0.0;0.0;0.0;0.0
304138000000;165;304138000000;map;34.3487587262;-0.129695625548;0.0;0.0;0.0;-0.00189988593157;0.999998195215;0.00185273672605;0.00166278762302;0.00392932134188;0.0;0.0;0.0;0.0;0.0;0.000343224510629;0.0;0.0;0.0;0.0;0.0;0.0;0.0;0.0;0.0;0.0;0.0;0.0;0.0;0.0;0.0;0.0;0.0;0.0;0.0;0.0;0.0;0.0;0.0;0.0;0.0;0.0;0.0
304636130817;166;304636130817;map;34.5562253935;-0.127234729808;0.0;0.0;0.0;-0.00260597463713;0.999996604442;0.00156421408496;0.00142334275093;0.00376179187695;0.0;0.0;0.0;0.0;0.0;0.000283388315647;0.0;0.0;0.0;0.0;0.0;0.0;0.0;0.0;0.0;0.0;0.0;0.0;0.0;0.0;0.0;0.0;0.0;0.0;0.0;0.0;0.0;0.0;0.0;0.0;0.0;0.0;0.0
305043000000;167;305043000000;map;34.7681977291;-0.118893878625;0.0;0.0;0.0;-0.00436795164455;0.999990460454;0.00161464378311;0.00171340541749;0.00400120251755;0.0;0.0;0.0;0.0;0.0;0.000192684517472;0.0;0.0;0.0;0.0;0.0;0.0;0.0;0.0;0.0;0.0;0.0;0.0;0.0;0.0;0.0;0.0;0.0;0.0;0.0;0.0;0.0;0.0;0.0;0.0;0.0;0.0;0.0
305436000000;168;305436000000;map;34.9768085798;-0.117613957018;0.0;0.0;0.0;-0.00418838203294;0.99999122869;0.00150464451895;0.00150996721338;0.00374289520378;0.0;0.0;0.0;0.0;0.0;0.000241813035722;0.0;0.0;0.0;0.0;0.0;0.0;0.0;0.0;0.0;0.0;0.0;0.0;0.0;0.0;0.0;0.0;0.0;0.0;0.0;0.0;0.0;0.0;0.0;0.0;0.0;0.0;0.0
305841000000;169;305841000000;map;35.172274185;-0.114750753746;0.0;0.0;0.0;-0.00443798161114;0.999990152111;0.00144044723879;0.00152885454037;0.00375923705812;0.0;0.0;0.0;0.0;0.0;0.000305516280066;0.0;0.0;0.0;0.0;0.0;0.0;0.0;0.0;0.0;0.0;0.0;0.0;0.0;0.0;0.0;0.0;0.0;0.0;0.0;0.0;0.0;0.0;0.0;0.0;0.0;0.0;0.0
306235000000;170;306235000000;map;35.376505187;-0.106711150515;0.0;0.0;0.0;-0.00354357804734;0.999993721508;0.00145606050637;0.00144250550289;0.00303958281637;0.0;0.0;0.0;0.0;0.0;0.000350370379025;0.0;0.0;0.0;0.0;0.0;0.0;0.0;0.0;0.0;0.0;0.0;0.0;0.0;0.0;0.0;0.0;0.0;0.0;0.0;0.0;0.0;0.0;0.0;0.0;0.0;0.0;0.0
306638000000;171;306638000000;map;35.5787965117;-0.103153591736;0.0;0.0;0.0;-0.00276122575148;0.999996187809;0.00163853738854;0.00172862425374;0.00361148182147;0.0;0.0;0.0;0.0;0.0;0.000298811246804;0.0;0.0;0.0;0.0;0.0;0.0;0.0;0.0;0.0;0.0;0.0;0.0;0.0;0.0;0.0;0.0;0.0;0.0;0.0;0.0;0.0;0.0;0.0;0.0;0.0;0.0;0.0
307037000000;172;307037000000;map;35.785708264;-0.0937387154178;0.0;0.0;0.0;-0.00243940515239;0.999997024647;0.00151732236941;0.00129040411429;0.00314480823083;0.0;0.0;0.0;0.0;0.0;0.000422005639962;0.0;0.0;0.0;0.0;0.0;0.0;0.0;0.0;0.0;0.0;0.0;0.0;0.0;0.0;0.0;0.0;0.0;0.0;0.0;0.0;0.0;0.0;0.0;0.0;0.0;0.0;0.0
307438000000;173;307438000000;map;35.9930202967;-0.0965321488502;0.0;0.0;0.0;-0.00348257446501;0.999993935819;0.00166753280905;0.00147356510878;0.00335773239742;0.0;0.0;0.0;0.0;0.0;0.000467414838536;0.0;0.0;0.0;0.0;0.0;0.0;0.0;0.0;0.0;0.0;0.0;0.0;0.0;0.0;0.0;0.0;0.0;0.0;0.0;0.0;0.0;0.0;0.0;0.0;0.0;0.0;0.0
307840000000;174;307840000000;map;36.2106733425;-0.0983632420506;0.0;0.0;0.0;-0.00355043551541;0.999993697184;0.00179863991639;0.00174219114814;0.00397960383386;0.0;0.0;0.0;0.0;0.0;0.000470272983901;0.0;0.0;0.0;0.0;0.0;0.0;0.0;0.0;0.0;0.0;0.0;0.0;0.0;0.0;0.0;0.0;0.0;0.0;0.0;0.0;0.0;0.0;0.0;0.0;0.0;0.0;0.0
308337000000;175;308337000000;map;36.4082377845;-0.0994085700929;0.0;0.0;0.0;-0.00354751666466;0.999993707543;0.00219874146683;0.00226820053551;0.00444214464156;0.0;0.0;0.0;0.0;0.0;0.000475706712289;0.0;0.0;0.0;0.0;0.0;0.0;0.0;0.0;0.0;0.0;0.0;0.0;0.0;0.0;0.0;0.0;0.0;0.0;0.0;0.0;0.0;0.0;0.0;0.0;0.0;0.0;0.0
308739000000;176;308739000000;map;36.6091279232;-0.102394592632;0.0;0.0;0.0;-0.00381294045121;0.999992730716;0.00219330643699;0.00230832272193;0.00467196640442;0.0;0.0;0.0;0.0;0.0;0.000390185479893;0.0;0.0;0.0;0.0;0.0;0.0;0.0;0.0;0.0;0.0;0.0;0.0;0.0;0.0;0.0;0.0;0.0;0.0;0.0;0.0;0.0;0.0;0.0;0.0;0.0;0.0;0.0
309141000000;177;309141000000;map;36.8208019366;-0.0980250051019;0.0;0.0;0.0;-0.00395748822238;0.999992169113;0.00199595342087;0.0020521152953;0.00412925055025;0.0;0.0;0.0;0.0;0.0;0.000445265986424;0.0;0.0;0.0;0.0;0.0;0.0;0.0;0.0;0.0;0.0;0.0;0.0;0.0;0.0;0.0;0.0;0.0;0.0;0.0;0.0;0.0;0.0;0.0;0.0;0.0;0.0;0.0
310339000000;178;310339000000;map;36.8908175509;-0.0973360863425;0.0;0.0;0.0;0.122315807301;0.992491230835;0.00214207504359;0.00203685900101;0.00395365511751;0.0;0.0;0.0;0.0;0.0;0.000491023081507;0.0;0.0;0.0;0.0;0.0;0.0;0.0;0.0;0.0;0.0;0.0;0.0;0.0;0.0;0.0;0.0;0.0;0.0;0.0;0.0;0.0;0.0;0.0;0.0;0.0;0.0;0.0
311439000000;179;311439000000;map;36.8903653939;-0.0955703664044;0.0;0.0;0.0;0.248104993243;0.968733148152;0.00208180196523;0.00204307341847;0.00392721052838;0.0;0.0;0.0;0.0;0.0;0.000524515525713;0.0;0.0;0.0;0.0;0.0;0.0;0.0;0.0;0.0;0.0;0.0;0.0;0.0;0.0;0.0;0.0;0.0;0.0;0.0;0.0;0.0;0.0;0.0;0.0;0.0;0.0;0.0
312538000000;180;312538000000;map;36.889656036;-0.0935004457956;0.0;0.0;0.0;0.366095272225;0.930577375426;0.00200232096131;0.00201883592319;0.00368284238862;0.0;0.0;0.0;0.0;0.0;0.00051719065725;0.0;0.0;0.0;0.0;0.0;0.0;0.0;0.0;0.0;0.0;0.0;0.0;0.0;0.0;0.0;0.0;0.0;0.0;0.0;0.0;0.0;0.0;0.0;0.0;0.0;0.0;0.0
313637000000;181;313637000000;map;36.8972083646;-0.0833605250814;0.0;0.0;0.0;0.481251535482;0.876582545797;0.00181277803699;0.00160486116779;0.00306132895782;0.0;0.0;0.0;0.0;0.0;0.000512021138461;0.0;0.0;0.0;0.0;0.0;0.0;0.0;0.0;0.0;0.0;0.0;0.0;0.0;0.0;0.0;0.0;0.0;0.0;0.0;0.0;0.0;0.0;0.0;0.0;0.0;0.0;0.0
314737011211;182;314737011211;map;36.8932421853;-0.0861700402717;0.0;0.0;0.0;0.587050409239;0.809550379539;0.00223044672771;0.00198024673868;0.00342625074046;0.0;0.0;0.0;0.0;0.0;0.000493809454074;0.0;0.0;0.0;0.0;0.0;0.0;0.0;0.0;0.0;0.0;0.0;0.0;0.0;0.0;0.0;0.0;0.0;0.0;0.0;0.0;0.0;0.0;0.0;0.0;0.0;0.0;0.0
315854000000;183;315854000000;map;36.8973702602;-0.0817975273956;0.0;0.0;0.0;0.683473833816;0.729975012236;0.00201438432896;0.00171668340872;0.00313149826291;0.0;0.0;0.0;0.0;0.0;0.000526442280446;0.0;0.0;0.0;0.0;0.0;0.0;0.0;0.0;0.0;0.0;0.0;0.0;0.0;0.0;0.0;0.0;0.0;0.0;0.0;0.0;0.0;0.0;0.0;0.0;0.0;0.0;0.0
317332000000;184;317332000000;map;36.8883543893;0.13047640853;0.0;0.0;0.0;0.732822241078;0.680420137108;0.00197092983876;0.00178136029873;0.00331332307393;0.0;0.0;0.0;0.0;0.0;0.000593955229177;0.0;0.0;0.0;0.0;0.0;0.0;0.0;0.0;0.0;0.0;0.0;0.0;0.0;0.0;0.0;0.0;0.0;0.0;0.0;0.0;0.0;0.0;0.0;0.0;0.0;0.0;0.0
317562000000;185;317562000000;map;36.8780815405;0.335515922732;0.0;0.0;0.0;0.732769720349;0.680476698308;0.0017053981021;0.00139694883859;0.00288092709892;0.0;0.0;0.0;0.0;0.0;0.000576444991941;0.0;0.0;0.0;0.0;0.0;0.0;0.0;0.0;0.0;0.0;0.0;0.0;0.0;0.0;0.0;0.0;0.0;0.0;0.0;0.0;0.0;0.0;0.0;0.0;0.0;0.0;0.0
318132000000;186;318132000000;map;36.8641689496;0.540679399551;0.0;0.0;0.0;0.730164120424;0.683271803345;0.00196538784894;0.00142482872659;0.00242378542532;0.0;0.0;0.0;0.0;0.0;0.000577220675254;0.0;0.0;0.0;0.0;0.0;0.0;0.0;0.0;0.0;0.0;0.0;0.0;0.0;0.0;0.0;0.0;0.0;0.0;0.0;0.0;0.0;0.0;0.0;0.0;0.0;0.0;0.0
318340000000;187;318340000000;map;36.8609704149;0.750857846181;0.0;0.0;0.0;0.731081246755;0.682290415178;0.00119694512159;0.000467844110901;0.00178190804954;0.0;0.0;0.0;0.0;0.0;0.000483462452502;0.0;0.0;0.0;0.0;0.0;0.0;0.0;0.0;0.0;0.0;0.0;0.0;0.0;0.0;0.0;0.0;0.0;0.0;0.0;0.0;0.0;0.0;0.0;0.0;0.0;0.0;0.0
318737336075;188;318737336075;map;36.8498363166;0.957866525614;0.0;0.0;0.0;0.730611227538;0.682793698123;0.000976978949666;1.07192307581e-05;0.0017017943859;0.0;0.0;0.0;0.0;0.0;0.000532544147468;0.0;0.0;0.0;0.0;0.0;0.0;0.0;0.0;0.0;0.0;0.0;0.0;0.0;0.0;0.0;0.0;0.0;0.0;0.0;0.0;0.0;0.0;0.0;0.0;0.0;0.0;0.0
319146000000;189;319146000000;map;36.8377735986;1.16792283869;0.0;0.0;0.0;0.73082332233;0.682566679188;0.000904940062128;-0.000200548153884;0.0015085942454;0.0;0.0;0.0;0.0;0.0;0.000561389149402;0.0;0.0;0.0;0.0;0.0;0.0;0.0;0.0;0.0;0.0;0.0;0.0;0.0;0.0;0.0;0.0;0.0;0.0;0.0;0.0;0.0;0.0;0.0;0.0;0.0;0.0;0.0
319599000000;190;319599000000;map;36.8218143903;1.3754970364;0.0;0.0;0.0;0.731150740957;0.682215943817;0.000997462288069;-0.000205038731302;0.00146291405963;0.0;0.0;0.0;0.0;0.0;0.00055307329225;0.0;0.0;0.0;0.0;0.0;0.0;0.0;0.0;0.0;0.0;0.0;0.0;0.0;0.0;0.0;0.0;0.0;0.0;0.0;0.0;0.0;0.0;0.0;0.0;0.0;0.0;0.0
319963000000;191;319963000000;map;36.8075580957;1.58033186361;0.0;0.0;0.0;0.731768219666;0.681553572866;0.000816851297259;-0.00029566971574;0.00112572779493;0.0;0.0;0.0;0.0;0.0;0.000497888019029;0.0;0.0;0.0;0.0;0.0;0.0;0.0;0.0;0.0;0.0;0.0;0.0;0.0;0.0;0.0;0.0;0.0;0.0;0.0;0.0;0.0;0.0;0.0;0.0;0.0;0.0;0.0
320383000000;192;320383000000;map;36.7947031151;1.77973307507;0.0;0.0;0.0;0.731525967406;0.681813580835;0.000904900646674;-0.000300204406813;0.00109476281198;0.0;0.0;0.0;0.0;0.0;0.000465604590034;0.0;0.0;0.0;0.0;0.0;0.0;0.0;0.0;0.0;0.0;0.0;0.0;0.0;0.0;0.0;0.0;0.0;0.0;0.0;0.0;0.0;0.0;0.0;0.0;0.0;0.0;0.0
321028000000;193;321028000000;map;36.782365292;1.97265226037;0.0;0.0;0.0;0.730275256914;0.683153020296;0.0010216681851;-0.000269145188042;0.00136982514735;0.0;0.0;0.0;0.0;0.0;0.000344534643803;0.0;0.0;0.0;0.0;0.0;0.0;0.0;0.0;0.0;0.0;0.0;0.0;0.0;0.0;0.0;0.0;0.0;0.0;0.0;0.0;0.0;0.0;0.0;0.0;0.0;0.0;0.0
322642000000;194;322642000000;map;36.7786968995;2.17619799889;0.0;0.0;0.0;0.69810985222;0.715990666303;0.00110127136054;-0.000495341377089;0.00110905518321;0.0;0.0;0.0;0.0;0.0;0.000343905637893;0.0;0.0;0.0;0.0;0.0;0.0;0.0;0.0;0.0;0.0;0.0;0.0;0.0;0.0;0.0;0.0;0.0;0.0;0.0;0.0;0.0;0.0;0.0;0.0;0.0;0.0;0.0
323039000000;195;323039000000;map;36.7841277753;2.37855523619;0.0;0.0;0.0;0.697402310744;0.716679856679;0.00155254631113;-0.000659499365185;0.000917879527987;0.0;0.0;0.0;0.0;0.0;0.000454576960715;0.0;0.0;0.0;0.0;0.0;0.0;0.0;0.0;0.0;0.0;0.0;0.0;0.0;0.0;0.0;0.0;0.0;0.0;0.0;0.0;0.0;0.0;0.0;0.0;0.0;0.0;0.0
323440000000;196;323440000000;map;36.7863372491;2.58511255757;0.0;0.0;0.0;0.69843717936;0.71567136766;0.00144743344276;-0.000453424894189;0.000715133303344;0.0;0.0;0.0;0.0;0.0;0.000421743492846;0.0;0.0;0.0;0.0;0.0;0.0;0.0;0.0;0.0;0.0;0.0;0.0;0.0;0.0;0.0;0.0;0.0;0.0;0.0;0.0;0.0;0.0;0.0;0.0;0.0;0.0;0.0
323839000000;197;323839000000;map;36.7980772191;2.78661019621;0.0;0.0;0.0;0.69886009439;0.715258392799;0.00103577113782;-0.000323976746614;0.000549163089453;0.0;0.0;0.0;0.0;0.0;0.000293482382872;0.0;0.0;0.0;0.0;0.0;0.0;0.0;0.0;0.0;0.0;0.0;0.0;0.0;0.0;0.0;0.0;0.0;0.0;0.0;0.0;0.0;0.0;0.0;0.0;0.0;0.0;0.0
324242000000;198;324242000000;map;36.8006337885;2.98799080479;0.0;0.0;0.0;0.698451349633;0.715657538349;0.00114901363418;-0.000324784501345;0.000499715092264;0.0;0.0;0.0;0.0;0.0;0.000281356466247;0.0;0.0;0.0;0.0;0.0;0.0;0.0;0.0;0.0;0.0;0.0;0.0;0.0;0.0;0.0;0.0;0.0;0.0;0.0;0.0;0.0;0.0;0.0;0.0;0.0;0.0;0.0
324643000000;199;324643000000;map;36.8089728628;3.19347588673;0.0;0.0;0.0;0.697720050994;0.716370525943;0.00127909241996;-0.000281104786566;0.00048727375929;0.0;0.0;0.0;0.0;0.0;0.000296342643834;0.0;0.0;0.0;0.0;0.0;0.0;0.0;0.0;0.0;0.0;0.0;0.0;0.0;0.0;0.0;0.0;0.0;0.0;0.0;0.0;0.0;0.0;0.0;0.0;0.0;0.0;0.0
325043000000;200;325043000000;map;36.8134114889;3.39123017029;0.0;0.0;0.0;0.698856483071;0.715261921306;0.00135691694209;-0.000269264544727;0.000566263957783;0.0;0.0;0.0;0.0;0.0;0.000404341500834;0.0;0.0;0.0;0.0;0.0;0.0;0.0;0.0;0.0;0.0;0.0;0.0;0.0;0.0;0.0;0.0;0.0;0.0;0.0;0.0;0.0;0.0;0.0;0.0;0.0;0.0;0.0
325438000000;201;325438000000;map;36.8208869748;3.59431388203;0.0;0.0;0.0;0.698331850697;0.715774144756;0.00145689867895;-0.000306708398199;0.000506159413499;0.0;0.0;0.0;0.0;0.0;0.000341404171424;0.0;0.0;0.0;0.0;0.0;0.0;0.0;0.0;0.0;0.0;0.0;0.0;0.0;0.0;0.0;0.0;0.0;0.0;0.0;0.0;0.0;0.0;0.0;0.0;0.0;0.0;0.0
325840000000;202;325840000000;map;36.8269192175;3.79342974596;0.0;0.0;0.0;0.698835982293;0.715281951298;0.00162554455073;-0.000347197180588;0.000463160705323;0.0;0.0;0.0;0.0;0.0;0.000266139187056;0.0;0.0;0.0;0.0;0.0;0.0;0.0;0.0;0.0;0.0;0.0;0.0;0.0;0.0;0.0;0.0;0.0;0.0;0.0;0.0;0.0;0.0;0.0;0.0;0.0;0.0;0.0
326341000000;203;326341000000;map;36.834677767;3.99644564196;0.0;0.0;0.0;0.698983595005;0.715137702764;0.00177134223213;-0.000471453607844;0.000499953770838;0.0;0.0;0.0;0.0;0.0;0.000311073536997;0.0;0.0;0.0;0.0;0.0;0.0;0.0;0.0;0.0;0.0;0.0;0.0;0.0;0.0;0.0;0.0;0.0;0.0;0.0;0.0;0.0;0.0;0.0;0.0;0.0;0.0;0.0
326745000000;204;326745000000;map;36.8427234708;4.20088873836;0.0;0.0;0.0;0.6990137762;0.715108202081;0.00177258069425;-0.000337479690131;0.00045421995236;0.0;0.0;0.0;0.0;0.0;0.000290858522801;0.0;0.0;0.0;0.0;0.0;0.0;0.0;0.0;0.0;0.0;0.0;0.0;0.0;0.0;0.0;0.0;0.0;0.0;0.0;0.0;0.0;0.0;0.0;0.0;0.0;0.0;0.0
327139000000;205;327139000000;map;36.8484434213;4.40195893648;0.0;0.0;0.0;0.699322024463;0.71480676137;0.00165900733919;-0.000423475252688;0.000442389688931;0.0;0.0;0.0;0.0;0.0;0.000363391089131;0.0;0.0;0.0;0.0;0.0;0.0;0.0;0.0;0.0;0.0;0.0;0.0;0.0;0.0;0.0;0.0;0.0;0.0;0.0;0.0;0.0;0.0;0.0;0.0;0.0;0.0;0.0
327541000000;206;327541000000;map;36.854502489;4.59980041408;0.0;0.0;0.0;0.698980135137;0.71514108446;0.00121122257087;-0.000257249175803;0.000498904530918;0.0;0.0;0.0;0.0;0.0;0.000286622172756;0.0;0.0;0.0;0.0;0.0;0.0;0.0;0.0;0.0;0.0;0.0;0.0;0.0;0.0;0.0;0.0;0.0;0.0;0.0;0.0;0.0;0.0;0.0;0.0;0.0;0.0;0.0
327940000000;207;327940000000;map;36.8581387136;4.80314184144;0.0;0.0;0.0;0.698667490715;0.71544653009;0.00107669977024;-0.000240564047829;0.00046920858334;0.0;0.0;0.0;0.0;0.0;0.000272565274149;0.0;0.0;0.0;0.0;0.0;0.0;0.0;0.0;0.0;0.0;0.0;0.0;0.0;0.0;0.0;0.0;0.0;0.0;0.0;0.0;0.0;0.0;0.0;0.0;0.0;0.0;0.0
328340657629;208;328340657629;map;36.8633585964;5.00620233522;0.0;0.0;0.0;0.698871996498;0.715246763369;0.00107849968663;-0.000257972399112;0.000469412230263;0.0;0.0;0.0;0.0;0.0;0.000239093544623;0.0;0.0;0.0;0.0;0.0;0.0;0.0;0.0;0.0;0.0;0.0;0.0;0.0;0.0;0.0;0.0;0.0;0.0;0.0;0.0;0.0;0.0;0.0;0.0;0.0;0.0;0.0
328749000000;209;328749000000;map;36.8653286147;5.20799421503;0.0;0.0;0.0;0.698847835156;0.715270370767;0.00100804405952;-0.000257658426221;0.000403959775852;0.0;0.0;0.0;0.0;0.0;0.000250910552973;0.0;0.0;0.0;0.0;0.0;0.0;0.0;0.0;0.0;0.0;0.0;0.0;0.0;0.0;0.0;0.0;0.0;0.0;0.0;0.0;0.0;0.0;0.0;0.0;0.0;0.0;0.0
329140000000;210;329140000000;map;36.8660385616;5.41241478467;0.0;0.0;0.0;0.698271704177;0.715832820668;0.00114497992831;-0.000302587350006;0.000397340740783;0.0;0.0;0.0;0.0;0.0;0.000308315980209;0.0;0.0;0.0;0.0;0.0;0.0;0.0;0.0;0.0;0.0;0.0;0.0;0.0;0.0;0.0;0.0;0.0;0.0;0.0;0.0;0.0;0.0;0.0;0.0;0.0;0.0;0.0
329540000000;211;329540000000;map;36.8730328944;5.61340196222;0.0;0.0;0.0;0.698182729781;0.715919601517;0.00131368918028;-0.000247347346459;0.000326107898399;0.0;0.0;0.0;0.0;0.0;0.000464776878493;0.0;0.0;0.0;0.0;0.0;0.0;0.0;0.0;0.0;0.0;0.0;0.0;0.0;0.0;0.0;0.0;0.0;0.0;0.0;0.0;0.0;0.0;0.0;0.0;0.0;0.0;0.0
329940000000;212;329940000000;map;36.8754077452;5.81346836074;0.0;0.0;0.0;0.69778612896;0.716306162357;0.00153382711164;-0.000253910204464;0.000319426519958;0.0;0.0;0.0;0.0;0.0;0.00048209436424;0.0;0.0;0.0;0.0;0.0;0.0;0.0;0.0;0.0;0.0;0.0;0.0;0.0;0.0;0.0;0.0;0.0;0.0;0.0;0.0;0.0;0.0;0.0;0.0;0.0;0.0;0.0
330342000000;213;330342000000;map;36.8792000257;6.01715750145;0.0;0.0;0.0;0.69720327927;0.71687348073;0.00168739188962;-0.000291098489839;0.000298299401969;0.0;0.0;0.0;0.0;0.0;0.000471307168245;0.0;0.0;0.0;0.0;0.0;0.0;0.0;0.0;0.0;0.0;0.0;0.0;0.0;0.0;0.0;0.0;0.0;0.0;0.0;0.0;0.0;0.0;0.0;0.0;0.0;0.0;0.0
330744000000;214;330744000000;map;36.8810423749;6.2326242319;0.0;0.0;0.0;0.696919998011;0.7171488802;0.00166612103158;-0.000245291459379;0.000254004679462;0.0;0.0;0.0;0.0;0.0;0.000520827619312;0.0;0.0;0.0;0.0;0.0;0.0;0.0;0.0;0.0;0.0;0.0;0.0;0.0;0.0;0.0;0.0;0.0;0.0;0.0;0.0;0.0;0.0;0.0;0.0;0.0;0.0;0.0
331139000000;215;331139000000;map;36.8956151398;6.42906101155;0.0;0.0;0.0;0.696730983612;0.717332514581;0.00164983215791;-0.000184901674857;0.000258507630043;0.0;0.0;0.0;0.0;0.0;0.000388546956856;0.0;0.0;0.0;0.0;0.0;0.0;0.0;0.0;0.0;0.0;0.0;0.0;0.0;0.0;0.0;0.0;0.0;0.0;0.0;0.0;0.0;0.0;0.0;0.0;0.0;0.0;0.0
331540000000;216;331540000000;map;36.9077241544;6.62804307803;0.0;0.0;0.0;0.697394535502;0.716687422697;0.00211035681673;-0.000234564754919;0.000244762123735;0.0;0.0;0.0;0.0;0.0;0.000449846575438;0.0;0.0;0.0;0.0;0.0;0.0;0.0;0.0;0.0;0.0;0.0;0.0;0.0;0.0;0.0;0.0;0.0;0.0;0.0;0.0;0.0;0.0;0.0;0.0;0.0;0.0;0.0
331943000000;217;331943000000;map;36.9111357422;6.83693223553;0.0;0.0;0.0;0.697974288209;0.716122819772;0.0020945424626;-0.00019625301789;0.000271777064668;0.0;0.0;0.0;0.0;0.0;0.000437348059381;0.0;0.0;0.0;0.0;0.0;0.0;0.0;0.0;0.0;0.0;0.0;0.0;0.0;0.0;0.0;0.0;0.0;0.0;0.0;0.0;0.0;0.0;0.0;0.0;0.0;0.0;0.0
332341409401;218;332341409401;map;36.9166981606;7.04718933498;0.0;0.0;0.0;0.697947230071;0.716149191186;0.00237160546249;-0.000163884943561;0.000286238169075;0.0;0.0;0.0;0.0;0.0;0.000587312299526;0.0;0.0;0.0;0.0;0.0;0.0;0.0;0.0;0.0;0.0;0.0;0.0;0.0;0.0;0.0;0.0;0.0;0.0;0.0;0.0;0.0;0.0;0.0;0.0;0.0;0.0;0.0
332842000000;219;332842000000;map;36.9171856879;7.24967840725;0.0;0.0;0.0;0.698964984828;0.715155892086;0.00271069722703;-0.00024215913686;0.000287104491676;0.0;0.0;0.0;0.0;0.0;0.000508179649752;0.0;0.0;0.0;0.0;0.0;0.0;0.0;0.0;0.0;0.0;0.0;0.0;0.0;0.0;0.0;0.0;0.0;0.0;0.0;0.0;0.0;0.0;0.0;0.0;0.0;0.0;0.0
333145000000;220;333145000000;map;36.9245150914;7.44859182442;0.0;0.0;0.0;0.699248691184;0.714878498682;0.0023133916211;-0.000129334470273;0.000268468919792;0.0;0.0;0.0;0.0;0.0;0.000424464431852;0.0;0.0;0.0;0.0;0.0;0.0;0.0;0.0;0.0;0.0;0.0;0.0;0.0;0.0;0.0;0.0;0.0;0.0;0.0;0.0;0.0;0.0;0.0;0.0;0.0;0.0;0.0
333542000000;221;333542000000;map;36.9283696126;7.65254847637;0.0;0.0;0.0;0.699116939777;0.715007345778;0.0022921393811;-0.000108569088184;0.000323131660892;0.0;0.0;0.0;0.0;0.0;0.000398838502316;0.0;0.0;0.0;0.0;0.0;0.0;0.0;0.0;0.0;0.0;0.0;0.0;0.0;0.0;0.0;0.0;0.0;0.0;0.0;0.0;0.0;0.0;0.0;0.0;0.0;0.0;0.0
334043000000;222;334043000000;map;36.9364184416;7.85315557862;0.0;0.0;0.0;0.699106647294;0.715017409375;0.00240756567905;-0.000129991188885;0.000306224642415;0.0;0.0;0.0;0.0;0.0;0.000392866655795;0.0;0.0;0.0;0.0;0.0;0.0;0.0;0.0;0.0;0.0;0.0;0.0;0.0;0.0;0.0;0.0;0.0;0.0;0.0;0.0;0.0;0.0;0.0;0.0;0.0;0.0;0.0
334439000000;223;334439000000;map;36.9427168225;8.05351461951;0.0;0.0;0.0;0.699285480121;0.71484251223;0.00262925391348;-0.000206267855106;0.000342778987971;0.0;0.0;0.0;0.0;0.0;0.000372245514979;0.0;0.0;0.0;0.0;0.0;0.0;0.0;0.0;0.0;0.0;0.0;0.0;0.0;0.0;0.0;0.0;0.0;0.0;0.0;0.0;0.0;0.0;0.0;0.0;0.0;0.0;0.0
334849000000;224;334849000000;map;36.9492289717;8.25498558749;0.0;0.0;0.0;0.698596908127;0.715515450535;0.00257990491036;-0.000124083001879;0.000407850336131;0.0;0.0;0.0;0.0;0.0;0.000365903252613;0.0;0.0;0.0;0.0;0.0;0.0;0.0;0.0;0.0;0.0;0.0;0.0;0.0;0.0;0.0;0.0;0.0;0.0;0.0;0.0;0.0;0.0;0.0;0.0;0.0;0.0;0.0
335250000000;225;335250000000;map;36.9544728298;8.45545996493;0.0;0.0;0.0;0.698515325771;0.715595094773;0.00249910658499;-7.96443745799e-05;0.000359289061777;0.0;0.0;0.0;0.0;0.0;0.000395341879383;0.0;0.0;0.0;0.0;0.0;0.0;0.0;0.0;0.0;0.0;0.0;0.0;0.0;0.0;0.0;0.0;0.0;0.0;0.0;0.0;0.0;0.0;0.0;0.0;0.0;0.0;0.0
335650000000;226;335650000000;map;36.9589337499;8.65476856;0.0;0.0;0.0;0.698911233769;0.715208422287;0.00224163274561;-0.000128230148107;0.000341539590664;0.0;0.0;0.0;0.0;0.0;0.000365258384143;0.0;0.0;0.0;0.0;0.0;0.0;0.0;0.0;0.0;0.0;0.0;0.0;0.0;0.0;0.0;0.0;0.0;0.0;0.0;0.0;0.0;0.0;0.0;0.0;0.0;0.0;0.0
336047000000;227;336047000000;map;36.9668790188;8.86451681242;0.0;0.0;0.0;0.699032754302;0.715089650613;0.00231631177803;-0.000106484390415;0.000312548488452;0.0;0.0;0.0;0.0;0.0;0.000414160412189;0.0;0.0;0.0;0.0;0.0;0.0;0.0;0.0;0.0;0.0;0.0;0.0;0.0;0.0;0.0;0.0;0.0;0.0;0.0;0.0;0.0;0.0;0.0;0.0;0.0;0.0;0.0
336447000000;228;336447000000;map;36.9706110831;9.06560112304;0.0;0.0;0.0;0.699431005612;0.7147001248;0.00198748483558;-7.1131576874e-05;0.000348868265064;0.0;0.0;0.0;0.0;0.0;0.000406638469501;0.0;0.0;0.0;0.0;0.0;0.0;0.0;0.0;0.0;0.0;0.0;0.0;0.0;0.0;0.0;0.0;0.0;0.0;0.0;0.0;0.0;0.0;0.0;0.0;0.0;0.0;0.0
336846000000;229;336846000000;map;36.9750229569;9.26463022561;0.0;0.0;0.0;0.699798510765;0.71434028609;0.00175173740718;5.00930149769e-05;0.000357358806653;0.0;0.0;0.0;0.0;0.0;0.000460241183623;0.0;0.0;0.0;0.0;0.0;0.0;0.0;0.0;0.0;0.0;0.0;0.0;0.0;0.0;0.0;0.0;0.0;0.0;0.0;0.0;0.0;0.0;0.0;0.0;0.0;0.0;0.0
337249000000;230;337249000000;map;36.9775608581;9.47343859964;0.0;0.0;0.0;0.700338159497;0.71381122319;0.00172662643899;6.95816216307e-05;0.000375886688744;0.0;0.0;0.0;0.0;0.0;0.000393930897603;0.0;0.0;0.0;0.0;0.0;0.0;0.0;0.0;0.0;0.0;0.0;0.0;0.0;0.0;0.0;0.0;0.0;0.0;0.0;0.0;0.0;0.0;0.0;0.0;0.0;0.0;0.0
337659000000;231;337659000000;map;36.9791594879;9.67268098531;0.0;0.0;0.0;0.700391999726;0.713758395201;0.00171288917863;8.85512786795e-05;0.000446585477903;0.0;0.0;0.0;0.0;0.0;0.000374003648364;0.0;0.0;0.0;0.0;0.0;0.0;0.0;0.0;0.0;0.0;0.0;0.0;0.0;0.0;0.0;0.0;0.0;0.0;0.0;0.0;0.0;0.0;0.0;0.0;0.0;0.0;0.0
338050000000;232;338050000000;map;36.9871150772;9.88128723981;0.0;0.0;0.0;0.700194946217;0.713951705154;0.00164429966594;0.00010381782397;0.00049911073053;0.0;0.0;0.0;0.0;0.0;0.000392362489398;0.0;0.0;0.0;0.0;0.0;0.0;0.0;0.0;0.0;0.0;0.0;0.0;0.0;0.0;0.0;0.0;0.0;0.0;0.0;0.0;0.0;0.0;0.0;0.0;0.0;0.0;0.0
