%time;field.header.seq;field.header.stamp;field.header.frame_id;field.pose.pose.position.x;field.pose.pose.position.y;field.pose.pose.position.z;field.pose.pose.orientation.x;field.pose.pose.orientation.y;field.pose.pose.orientation.z;field.pose.pose.orientation.w;field.pose.covariance0;field.pose.covariance1;field.pose.covariance2;field.pose.covariance3;field.pose.covariance4;field.pose.covariance5;field.pose.covariance6;field.pose.covariance7;field.pose.covariance8;field.pose.covariance9;field.pose.covariance10;field.pose.covariance11;field.pose.covariance12;field.pose.covariance13;field.pose.covariance14;field.pose.covariance15;field.pose.covariance16;field.pose.covariance17;field.pose.covariance18;field.pose.covariance19;field.pose.covariance20;field.pose.covariance21;field.pose.covariance22;field.pose.covariance23;field.pose.covariance24;field.pose.covariance25;field.pose.covariance26;field.pose.covariance27;field.pose.covariance28;field.pose.covariance29;field.pose.covariance30;field.pose.covariance31;field.pose.covariance32;field.pose.covariance33;field.pose.covariance34;field.pose.covariance35
258166000000;32;258166000000;map;11.3451679105;-0.0345668724228;0.0;0.0;0.0;-0.00168938576189;0.999998572987;0.0144344613106;-2.20709296679e-05;0.00240393179987;0.0;0.0;0.0;0.0;0.0;0.000706033214538;0.0;0.0;0.0;0.0;0.0;0.0;0.0;0.0;0.0;0.0;0.0;0.0;0.0;0.0;0.0;0.0;0.0;0.0;0.0;0.0;0.0;0.0;0.0;0.0;0.0;0.0;0.0
258550000000;33;258550000000;map;11.5476317416;-0.0346243035741;0.0;0.0;0.0;-0.00151439343796;0.999998853306;0.0123924506346;-2.7400619769e-05;0.00234230804521;0.0;0.0;0.0;0.0;0.0;0.000694560513026;0.0;0.0;0.0;0.0;0.0;0.0;0.0;0.0;0.0;0.0;0.0;0.0;0.0;0.0;0.0;0.0;0.0;0.0;0.0;0.0;0.0;0.0;0.0;0.0;0.0;0.0;0.0
258918000000;34;258918000000;map;11.751230644;-0.0359063282628;0.0;0.0;0.0;-0.00142334781663;0.99999898704;0.011314706379;-1.79052159674e-05;0.00223717631254;0.0;0.0;0.0;0.0;0.0;0.000722069833763;0.0;0.0;0.0;0.0;0.0;0.0;0.0;0.0;0.0;0.0;0.0;0.0;0.0;0.0;0.0;0.0;0.0;0.0;0.0;0.0;0.0;0.0;0.0;0.0;0.0;0.0;0.0
259380000000;35;259380000000;map;11.9541180413;-0.0374017054266;0.0;0.0;0.0;-0.00142752112524;0.999998981091;0.0108840273434;2.37764053816e-05;0.00219071867268;0.0;0.0;0.0;0.0;0.0;0.000728871711661;0.0;0.0;0.0;0.0;0.0;0.0;0.0;0.0;0.0;0.0;0.0;0.0;0.0;0.0;0.0;0.0;0.0;0.0;0.0;0.0;0.0;0.0;0.0;0.0;0.0;0.0;0.0
259715000000;36;259715000000;map;12.1587652862;-0.0382154852271;0.0;0.0;0.0;-0.00132018288575;0.999999128558;0.00969843551246;-7.5403641542e-05;0.0021437538458;0.0;0.0;0.0;0.0;0.0;0.000766110268988;0.0;0.0;0.0;0.0;0.0;0.0;0.0;0.0;0.0;0.0;0.0;0.0;0.0;0.0;0.0;0.0;0.0;0.0;0.0;0.0;0.0;0.0;0.0;0.0;0.0;0.0;0.0
260166000000;37;260166000000;map;12.3695360024;-0.0385080015489;0.0;0.0;0.0;-0.00161021449995;0.999998703604;0.00893972254909;-0.000112088706023;0.0021033403688;0.0;0.0;0.0;0.0;0.0;0.000813356569402;0.0;0.0;0.0;0.0;0.0;0.0;0.0;0.0;0.0;0.0;0.0;0.0;0.0;0.0;0.0;0.0;0.0;0.0;0.0;0.0;0.0;0.0;0.0;0.0;0.0;0.0;0.0
260615000000;38;260615000000;map;12.5699580238;-0.0394685337404;0.0;0.0;0.0;-0.00154095102053;0.999998812734;0.00827760136701;-4.30463419511e-05;0.00208412406899;0.0;0.0;0.0;0.0;0.0;0.000793648102954;0.0;0.0;0.0;0.0;0.0;0.0;0.0;0.0;0.0;0.0;0.0;0.0;0.0;0.0;0.0;0.0;0.0;0.0;0.0;0.0;0.0;0.0;0.0;0.0;0.0;0.0;0.0
260953000000;39;260953000000;map;12.7742626763;-0.0401756677156;0.0;0.0;0.0;-0.00102344891631;0.999999476276;0.00791469502028;-0.000100854471978;0.00203551246129;0.0;0.0;0.0;0.0;0.0;0.000783870849191;0.0;0.0;0.0;0.0;0.0;0.0;0.0;0.0;0.0;0.0;0.0;0.0;0.0;0.0;0.0;0.0;0.0;0.0;0.0;0.0;0.0;0.0;0.0;0.0;0.0;0.0;0.0
261389000000;40;261389000000;map;12.9879707605;-0.0401386232352;0.0;0.0;0.0;-0.000916901099005;0.999999579646;0.00776283231733;-0.000103846707148;0.00196073786936;0.0;0.0;0.0;0.0;0.0;0.000829752912267;0.0;0.0;0.0;0.0;0.0;0.0;0.0;0.0;0.0;0.0;0.0;0.0;0.0;0.0;0.0;0.0;0.0;0.0;0.0;0.0;0.0;0.0;0.0;0.0;0.0;0.0;0.0
261878000000;41;261878000000;map;13.1888291473;-0.0415126417684;0.0;0.0;0.0;-0.00108997958623;0.999999405972;0.00778860083955;-0.000126291065471;0.00191317289022;0.0;0.0;0.0;0.0;0.0;0.000808129618024;0.0;0.0;0.0;0.0;0.0;0.0;0.0;0.0;0.0;0.0;0.0;0.0;0.0;0.0;0.0;0.0;0.0;0.0;0.0;0.0;0.0;0.0;0.0;0.0;0.0;0.0;0.0
262208000000;42;262208000000;map;13.3982198859;-0.0423194363582;0.0;0.0;0.0;-0.00118400304998;0.999999299068;0.00716408302495;-0.000203601617633;0.00188857153611;0.0;0.0;0.0;0.0;0.0;0.000810860839456;0.0;0.0;0.0;0.0;0.0;0.0;0.0;0.0;0.0;0.0;0.0;0.0;0.0;0.0;0.0;0.0;0.0;0.0;0.0;0.0;0.0;0.0;0.0;0.0;0.0;0.0;0.0
262653000000;43;262653000000;map;13.6023884913;-0.0426646055997;0.0;0.0;0.0;-0.00130063254386;0.999999154177;0.00693845826402;-0.000177968122246;0.00188703216863;0.0;0.0;0.0;0.0;0.0;0.000813307597907;0.0;0.0;0.0;0.0;0.0;0.0;0.0;0.0;0.0;0.0;0.0;0.0;0.0;0.0;0.0;0.0;0.0;0.0;0.0;0.0;0.0;0.0;0.0;0.0;0.0;0.0;0.0
262999000000;44;262999000000;map;13.8050280336;-0.0430327079018;0.0;0.0;0.0;-0.00138664263733;0.999999038611;0.00670699475407;-0.000190759053549;0.00188449002017;0.0;0.0;0.0;0.0;0.0;0.000815681669943;0.0;0.0;0.0;0.0;0.0;0.0;0.0;0.0;0.0;0.0;0.0;0.0;0.0;0.0;0.0;0.0;0.0;0.0;0.0;0.0;0.0;0.0;0.0;0.0;0.0;0.0;0.0
263437000000;45;263437000000;map;14.0166800952;-0.04423081726;0.0;0.0;0.0;-0.00125635617106;0.999999210784;0.00622863817978;-0.000243875850167;0.00189373037599;0.0;0.0;0.0;0.0;0.0;0.000822792834021;0.0;0.0;0.0;0.0;0.0;0.0;0.0;0.0;0.0;0.0;0.0;0.0;0.0;0.0;0.0;0.0;0.0;0.0;0.0;0.0;0.0;0.0;0.0;0.0;0.0;0.0;0.0
263869533085;46;263869533085;map;14.2184866508;-0.0452526673336;0.0;0.0;0.0;-0.00107517163655;0.999999422003;0.00618351861243;-0.000242996180858;0.00192002369846;0.0;0.0;0.0;0.0;0.0;0.000812918355561;0.0;0.0;0.0;0.0;0.0;0.0;0.0;0.0;0.0;0.0;0.0;0.0;0.0;0.0;0.0;0.0;0.0;0.0;0.0;0.0;0.0;0.0;0.0;0.0;0.0;0.0;0.0
264310000000;47;264310000000;map;14.4216787756;-0.0455786426724;0.0;0.0;0.0;-0.0013981096025;0.999999022644;0.00585820405897;-0.000285156039712;0.00196171440974;0.0;0.0;0.0;0.0;0.0;0.000824602897621;0.0;0.0;0.0;0.0;0.0;0.0;0.0;0.0;0.0;0.0;0.0;0.0;0.0;0.0;0.0;0.0;0.0;0.0;0.0;0.0;0.0;0.0;0.0;0.0;0.0;0.0;0.0
264647046767;48;264647046767;map;14.6255966016;-0.0462235798227;0.0;0.0;0.0;-0.00126104855052;0.999999204878;0.00572124636122;-0.000253221703871;0.00198055251531;0.0;0.0;0.0;0.0;0.0;0.00083003661305;0.0;0.0;0.0;0.0;0.0;0.0;0.0;0.0;0.0;0.0;0.0;0.0;0.0;0.0;0.0;0.0;0.0;0.0;0.0;0.0;0.0;0.0;0.0;0.0;0.0;0.0;0.0
265098000000;49;265098000000;map;14.8358299934;-0.0466401181046;0.0;0.0;0.0;-0.00102124212262;0.999999478532;0.00555389274365;-0.000260366640851;0.00204837539436;0.0;0.0;0.0;0.0;0.0;0.000837398634085;0.0;0.0;0.0;0.0;0.0;0.0;0.0;0.0;0.0;0.0;0.0;0.0;0.0;0.0;0.0;0.0;0.0;0.0;0.0;0.0;0.0;0.0;0.0;0.0;0.0;0.0;0.0
265442000000;50;265442000000;map;15.0367507265;-0.0482459341492;0.0;0.0;0.0;-0.00110125564918;0.999999393618;0.00530448367351;-0.000233601757136;0.00211289360061;0.0;0.0;0.0;0.0;0.0;0.000829494841506;0.0;0.0;0.0;0.0;0.0;0.0;0.0;0.0;0.0;0.0;0.0;0.0;0.0;0.0;0.0;0.0;0.0;0.0;0.0;0.0;0.0;0.0;0.0;0.0;0.0;0.0;0.0
265881000000;51;265881000000;map;15.2397490482;-0.049905842717;0.0;0.0;0.0;-0.0010693630264;0.999999428231;0.00516448773712;-0.000244802854012;0.00214038693344;0.0;0.0;0.0;0.0;0.0;0.000821332616591;0.0;0.0;0.0;0.0;0.0;0.0;0.0;0.0;0.0;0.0;0.0;0.0;0.0;0.0;0.0;0.0;0.0;0.0;0.0;0.0;0.0;0.0;0.0;0.0;0.0;0.0;0.0
266331000000;52;266331000000;map;15.4440990354;-0.0506046208259;0.0;0.0;0.0;-0.00114716108706;0.999999342011;0.00510273314171;-0.00024204446328;0.00215711522531;0.0;0.0;0.0;0.0;0.0;0.000858887188111;0.0;0.0;0.0;0.0;0.0;0.0;0.0;0.0;0.0;0.0;0.0;0.0;0.0;0.0;0.0;0.0;0.0;0.0;0.0;0.0;0.0;0.0;0.0;0.0;0.0;0.0;0.0
266668612936;53;266668612936;map;15.6488896752;-0.0506516353864;0.0;0.0;0.0;-0.000875462391654;0.999999616783;0.00504725807625;-0.000214127056836;0.0021647520349;0.0;0.0;0.0;0.0;0.0;0.000861753988134;0.0;0.0;0.0;0.0;0.0;0.0;0.0;0.0;0.0;0.0;0.0;0.0;0.0;0.0;0.0;0.0;0.0;0.0;0.0;0.0;0.0;0.0;0.0;0.0;0.0;0.0;0.0
267104113930;54;267104113930;map;15.8497647195;-0.0506262280241;0.0;0.0;0.0;-0.000718241920894;0.999999742064;0.00475557197686;-0.000213741787195;0.00221437593257;0.0;0.0;0.0;0.0;0.0;0.000851861027208;0.0;0.0;0.0;0.0;0.0;0.0;0.0;0.0;0.0;0.0;0.0;0.0;0.0;0.0;0.0;0.0;0.0;0.0;0.0;0.0;0.0;0.0;0.0;0.0;0.0;0.0;0.0
267587000000;55;267587000000;map;16.0604601824;-0.0507476645478;0.0;0.0;0.0;-0.00103704857304;0.999999462265;0.00459514964012;-0.000290982709012;0.00221230827854;0.0;0.0;0.0;0.0;0.0;0.000879432804216;0.0;0.0;0.0;0.0;0.0;0.0;0.0;0.0;0.0;0.0;0.0;0.0;0.0;0.0;0.0;0.0;0.0;0.0;0.0;0.0;0.0;0.0;0.0;0.0;0.0;0.0;0.0
267984000000;56;267984000000;map;16.2645997191;-0.0524955072479;0.0;0.0;0.0;-0.00131869138101;0.999999130526;0.00448717974882;-0.000265393641519;0.00226085999982;0.0;0.0;0.0;0.0;0.0;0.00084971290726;0.0;0.0;0.0;0.0;0.0;0.0;0.0;0.0;0.0;0.0;0.0;0.0;0.0;0.0;0.0;0.0;0.0;0.0;0.0;0.0;0.0;0.0;0.0;0.0;0.0;0.0;0.0
268319000000;57;268319000000;map;16.4672373036;-0.0536385732154;0.0;0.0;0.0;-0.00126934898587;0.999999194376;0.00437329641426;-0.000225395251187;0.00235658436298;0.0;0.0;0.0;0.0;0.0;0.000856145218481;0.0;0.0;0.0;0.0;0.0;0.0;0.0;0.0;0.0;0.0;0.0;0.0;0.0;0.0;0.0;0.0;0.0;0.0;0.0;0.0;0.0;0.0;0.0;0.0;0.0;0.0;0.0
268771000000;58;268771000000;map;16.6667583733;-0.0540794395187;0.0;0.0;0.0;-0.000815291264669;0.99999966765;0.00425429789158;-0.00023889166316;0.00242083464314;0.0;0.0;0.0;0.0;0.0;0.000815071267006;0.0;0.0;0.0;0.0;0.0;0.0;0.0;0.0;0.0;0.0;0.0;0.0;0.0;0.0;0.0;0.0;0.0;0.0;0.0;0.0;0.0;0.0;0.0;0.0;0.0;0.0;0.0
269117000000;59;269117000000;map;16.8715718204;-0.0551191021611;0.0;0.0;0.0;-0.000868142807355;0.999999623164;0.00413950452918;-0.000219681039386;0.00244846264347;0.0;0.0;0.0;0.0;0.0;0.000783590171894;0.0;0.0;0.0;0.0;0.0;0.0;0.0;0.0;0.0;0.0;0.0;0.0;0.0;0.0;0.0;0.0;0.0;0.0;0.0;0.0;0.0;0.0;0.0;0.0;0.0;0.0;0.0
269575000000;60;269575000000;map;17.0739235195;-0.0566414189353;0.0;0.0;0.0;-0.00125869991817;0.999999207837;0.00398213125601;-0.00022931611844;0.00251752766305;0.0;0.0;0.0;0.0;0.0;0.000769069719104;0.0;0.0;0.0;0.0;0.0;0.0;0.0;0.0;0.0;0.0;0.0;0.0;0.0;0.0;0.0;0.0;0.0;0.0;0.0;0.0;0.0;0.0;0.0;0.0;0.0;0.0;0.0
269914000000;61;269914000000;map;17.2798265395;-0.0578834559826;0.0;0.0;0.0;-0.0012421888563;0.999999228483;0.00393570018122;-0.000274773598814;0.00256446270922;0.0;0.0;0.0;0.0;0.0;0.000756013011751;0.0;0.0;0.0;0.0;0.0;0.0;0.0;0.0;0.0;0.0;0.0;0.0;0.0;0.0;0.0;0.0;0.0;0.0;0.0;0.0;0.0;0.0;0.0;0.0;0.0;0.0;0.0
270393000000;62;270393000000;map;17.4906465546;-0.058194202419;0.0;0.0;0.0;-0.00120504704544;0.999999273931;0.00391350231274;-0.000274871008658;0.00261744853738;0.0;0.0;0.0;0.0;0.0;0.000763841409757;0.0;0.0;0.0;0.0;0.0;0.0;0.0;0.0;0.0;0.0;0.0;0.0;0.0;0.0;0.0;0.0;0.0;0.0;0.0;0.0;0.0;0.0;0.0;0.0;0.0;0.0;0.0
270884000000;63;270884000000;map;17.6911393551;-0.0589159487965;0.0;0.0;0.0;-0.00130162317176;0.999999152888;0.00370158442058;-0.000264092553903;0.00265067681521;0.0;0.0;0.0;0.0;0.0;0.000735227736909;0.0;0.0;0.0;0.0;0.0;0.0;0.0;0.0;0.0;0.0;0.0;0.0;0.0;0.0;0.0;0.0;0.0;0.0;0.0;0.0;0.0;0.0;0.0;0.0;0.0;0.0;0.0
271273000000;64;271273000000;map;17.8985641698;-0.0589720078745;0.0;0.0;0.0;-0.0012446732127;0.999999225394;0.00363642141718;-0.000251097570234;0.00267264988302;0.0;0.0;0.0;0.0;0.0;0.000729599713084;0.0;0.0;0.0;0.0;0.0;0.0;0.0;0.0;0.0;0.0;0.0;0.0;0.0;0.0;0.0;0.0;0.0;0.0;0.0;0.0;0.0;0.0;0.0;0.0;0.0;0.0;0.0
271618000000;65;271618000000;map;18.0984608604;-0.0599494614086;0.0;0.0;0.0;-0.00106510813211;0.999999432772;0.00369947573222;-0.000216394423535;0.00266706646186;0.0;0.0;0.0;0.0;0.0;0.000722720169094;0.0;0.0;0.0;0.0;0.0;0.0;0.0;0.0;0.0;0.0;0.0;0.0;0.0;0.0;0.0;0.0;0.0;0.0;0.0;0.0;0.0;0.0;0.0;0.0;0.0;0.0;0.0
271994000000;66;271994000000;map;18.3042100203;-0.0603880067548;0.0;0.0;0.0;-0.000663001719453;0.999999780214;0.00352788940705;-0.000230737314517;0.00268338635721;0.0;0.0;0.0;0.0;0.0;0.000734279365578;0.0;0.0;0.0;0.0;0.0;0.0;0.0;0.0;0.0;0.0;0.0;0.0;0.0;0.0;0.0;0.0;0.0;0.0;0.0;0.0;0.0;0.0;0.0;0.0;0.0;0.0;0.0
272491000000;67;272491000000;map;18.5078501667;-0.0622148728583;0.0;0.0;0.0;-0.00086723957707;0.999999623948;0.00350812295784;-0.000251523442248;0.00272356764226;0.0;0.0;0.0;0.0;0.0;0.000748027241764;0.0;0.0;0.0;0.0;0.0;0.0;0.0;0.0;0.0;0.0;0.0;0.0;0.0;0.0;0.0;0.0;0.0;0.0;0.0;0.0;0.0;0.0;0.0;0.0;0.0;0.0;0.0
272833000000;68;272833000000;map;18.7087763428;-0.0639372051181;0.0;0.0;0.0;-0.000896488729876;0.999999598154;0.00349481610323;-0.000229318264566;0.0027194687704;0.0;0.0;0.0;0.0;0.0;0.000728947416904;0.0;0.0;0.0;0.0;0.0;0.0;0.0;0.0;0.0;0.0;0.0;0.0;0.0;0.0;0.0;0.0;0.0;0.0;0.0;0.0;0.0;0.0;0.0;0.0;0.0;0.0;0.0
273272000000;69;273272000000;map;18.9102080761;-0.0662616320448;0.0;0.0;0.0;-0.00125981656723;0.999999206431;0.00347493541466;-0.000171220217074;0.00267518320182;0.0;0.0;0.0;0.0;0.0;0.000703817590996;0.0;0.0;0.0;0.0;0.0;0.0;0.0;0.0;0.0;0.0;0.0;0.0;0.0;0.0;0.0;0.0;0.0;0.0;0.0;0.0;0.0;0.0;0.0;0.0;0.0;0.0;0.0
273614000000;70;273614000000;map;19.110085818;-0.0678793932287;0.0;0.0;0.0;-0.00149501536956;0.999998882464;0.00340869672874;-8.31513044572e-05;0.00257737309966;0.0;0.0;0.0;0.0;0.0;0.000680577906842;0.0;0.0;0.0;0.0;0.0;0.0;0.0;0.0;0.0;0.0;0.0;0.0;0.0;0.0;0.0;0.0;0.0;0.0;0.0;0.0;0.0;0.0;0.0;0.0;0.0;0.0;0.0
274120000000;71;274120000000;map;19.308907434;-0.0687996117627;0.0;0.0;0.0;-0.00144472579858;0.999998956383;0.00340919629002;-6.67430407124e-05;0.0025479948186;0.0;0.0;0.0;0.0;0.0;0.000685169388364;0.0;0.0;0.0;0.0;0.0;0.0;0.0;0.0;0.0;0.0;0.0;0.0;0.0;0.0;0.0;0.0;0.0;0.0;0.0;0.0;0.0;0.0;0.0;0.0;0.0;0.0;0.0
274524000000;72;274524000000;map;19.5085598768;-0.0698042845529;0.0;0.0;0.0;-0.00147591464059;0.999998910837;0.00334896520542;-2.51664641657e-05;0.00245545561598;0.0;0.0;0.0;0.0;0.0;0.000709206775418;0.0;0.0;0.0;0.0;0.0;0.0;0.0;0.0;0.0;0.0;0.0;0.0;0.0;0.0;0.0;0.0;0.0;0.0;0.0;0.0;0.0;0.0;0.0;0.0;0.0;0.0;0.0
274870000000;73;274870000000;map;19.7105099669;-0.0724598127717;0.0;0.0;0.0;-0.0015778322098;0.999998755222;0.00339553334965;5.78162762375e-05;0.00245333457286;0.0;0.0;0.0;0.0;0.0;0.000732860318976;0.0;0.0;0.0;0.0;0.0;0.0;0.0;0.0;0.0;0.0;0.0;0.0;0.0;0.0;0.0;0.0;0.0;0.0;0.0;0.0;0.0;0.0;0.0;0.0;0.0;0.0;0.0
275220000000;74;275220000000;map;19.9105773616;-0.0743520012632;0.0;0.0;0.0;-0.00162759229342;0.999998675471;0.00341500618401;9.81638605613e-05;0.00243492662059;0.0;0.0;0.0;0.0;0.0;0.000763658702303;0.0;0.0;0.0;0.0;0.0;0.0;0.0;0.0;0.0;0.0;0.0;0.0;0.0;0.0;0.0;0.0;0.0;0.0;0.0;0.0;0.0;0.0;0.0;0.0;0.0;0.0;0.0
275720000000;75;275720000000;map;20.1126697457;-0.0771999119028;0.0;0.0;0.0;-0.00210138291125;0.999997792092;0.00337735015887;0.000118383222642;0.00240517508204;0.0;0.0;0.0;0.0;0.0;0.000803803333731;0.0;0.0;0.0;0.0;0.0;0.0;0.0;0.0;0.0;0.0;0.0;0.0;0.0;0.0;0.0;0.0;0.0;0.0;0.0;0.0;0.0;0.0;0.0;0.0;0.0;0.0;0.0
276117000000;76;276117000000;map;20.312415266;-0.0790645787759;0.0;0.0;0.0;-0.0025776149041;0.999996677945;0.00343532189686;0.000106484500688;0.00234952411581;0.0;0.0;0.0;0.0;0.0;0.000833294352725;0.0;0.0;0.0;0.0;0.0;0.0;0.0;0.0;0.0;0.0;0.0;0.0;0.0;0.0;0.0;0.0;0.0;0.0;0.0;0.0;0.0;0.0;0.0;0.0;0.0;0.0;0.0
276508000000;77;276508000000;map;20.5157509883;-0.0805246893207;0.0;0.0;0.0;-0.00292461787323;0.999995723296;0.00344637504787;0.000131451898886;0.00227325648954;0.0;0.0;0.0;0.0;0.0;0.000848801527325;0.0;0.0;0.0;0.0;0.0;0.0;0.0;0.0;0.0;0.0;0.0;0.0;0.0;0.0;0.0;0.0;0.0;0.0;0.0;0.0;0.0;0.0;0.0;0.0;0.0;0.0;0.0
276919000000;78;276919000000;map;20.7248984893;-0.083201036623;0.0;0.0;0.0;-0.0034280483708;0.999994124225;0.0034606442378;0.000140687546045;0.00225044404746;0.0;0.0;0.0;0.0;0.0;0.000912546724156;0.0;0.0;0.0;0.0;0.0;0.0;0.0;0.0;0.0;0.0;0.0;0.0;0.0;0.0;0.0;0.0;0.0;0.0;0.0;0.0;0.0;0.0;0.0;0.0;0.0;0.0;0.0
277255000000;79;277255000000;map;20.9279770454;-0.0853499984294;0.0;0.0;0.0;-0.00373764656161;0.999993014975;0.0033795175986;9.96188309068e-05;0.0022060110741;0.0;0.0;0.0;0.0;0.0;0.000955969805184;0.0;0.0;0.0;0.0;0.0;0.0;0.0;0.0;0.0;0.0;0.0;0.0;0.0;0.0;0.0;0.0;0.0;0.0;0.0;0.0;0.0;0.0;0.0;0.0;0.0;0.0;0.0
277741000000;80;277741000000;map;21.1277950602;-0.0877015132394;0.0;0.0;0.0;-0.00407551554764;0.999991695052;0.00336973373373;0.000102607242076;0.00218024172999;0.0;0.0;0.0;0.0;0.0;0.000959160484411;0.0;0.0;0.0;0.0;0.0;0.0;0.0;0.0;0.0;0.0;0.0;0.0;0.0;0.0;0.0;0.0;0.0;0.0;0.0;0.0;0.0;0.0;0.0;0.0;0.0;0.0;0.0
278122000000;81;278122000000;map;21.3359786852;-0.0917760231933;0.0;0.0;0.0;-0.00500209729214;0.999987489433;0.00343254490627;0.000138541151404;0.00219625615669;0.0;0.0;0.0;0.0;0.0;0.000986711000715;0.0;0.0;0.0;0.0;0.0;0.0;0.0;0.0;0.0;0.0;0.0;0.0;0.0;0.0;0.0;0.0;0.0;0.0;0.0;0.0;0.0;0.0;0.0;0.0;0.0;0.0;0.0
278508000000;82;278508000000;map;21.5376874235;-0.0955346874279;0.0;0.0;0.0;-0.00533445856397;0.999985771675;0.00345309870465;0.000126395689601;0.0021563011948;0.0;0.0;0.0;0.0;0.0;0.000962586771454;0.0;0.0;0.0;0.0;0.0;0.0;0.0;0.0;0.0;0.0;0.0;0.0;0.0;0.0;0.0;0.0;0.0;0.0;0.0;0.0;0.0;0.0;0.0;0.0;0.0;0.0;0.0
279006000000;83;279006000000;map;21.7971338073;-0.0991877050978;0.0;0.0;0.0;-0.00544529869;0.999985174251;0.00367700948726;0.000136549902096;0.00221112180669;0.0;0.0;0.0;0.0;0.0;0.00126335886756;0.0;0.0;0.0;0.0;0.0;0.0;0.0;0.0;0.0;0.0;0.0;0.0;0.0;0.0;0.0;0.0;0.0;0.0;0.0;0.0;0.0;0.0;0.0;0.0;0.0;0.0;0.0
279517000000;84;279517000000;map;21.9991385606;-0.10242658232;0.0;0.0;0.0;-0.00555162489335;0.999984589612;0.00368567031461;0.00011182176615;0.00217350323037;0.0;0.0;0.0;0.0;0.0;0.00114657561093;0.0;0.0;0.0;0.0;0.0;0.0;0.0;0.0;0.0;0.0;0.0;0.0;0.0;0.0;0.0;0.0;0.0;0.0;0.0;0.0;0.0;0.0;0.0;0.0;0.0;0.0;0.0
279859000000;85;279859000000;map;22.1995265075;-0.105183162551;0.0;0.0;0.0;-0.00569673188856;0.999983773491;0.003641290752;0.00015958607682;0.00209887114412;0.0;0.0;0.0;0.0;0.0;0.00108442510584;0.0;0.0;0.0;0.0;0.0;0.0;0.0;0.0;0.0;0.0;0.0;0.0;0.0;0.0;0.0;0.0;0.0;0.0;0.0;0.0;0.0;0.0;0.0;0.0;0.0;0.0;0.0
280225255682;86;280225255682;map;22.4038733229;-0.108251266819;0.0;0.0;0.0;-0.00632134418396;0.999980020104;0.00359055629053;0.000174576116241;0.00211919623539;0.0;0.0;0.0;0.0;0.0;0.00103097005757;0.0;0.0;0.0;0.0;0.0;0.0;0.0;0.0;0.0;0.0;0.0;0.0;0.0;0.0;0.0;0.0;0.0;0.0;0.0;0.0;0.0;0.0;0.0;0.0;0.0;0.0;0.0
280721000000;87;280721000000;map;22.6119292623;-0.111993939437;0.0;0.0;0.0;-0.0064302080721;0.999979325998;0.00353627454695;0.000226103841972;0.00220762331289;0.0;0.0;0.0;0.0;0.0;0.00102059926747;0.0;0.0;0.0;0.0;0.0;0.0;0.0;0.0;0.0;0.0;0.0;0.0;0.0;0.0;0.0;0.0;0.0;0.0;0.0;0.0;0.0;0.0;0.0;0.0;0.0;0.0;0.0
281065000000;88;281065000000;map;22.8148043366;-0.114443964039;0.0;0.0;0.0;-0.00624326790434;0.999980510613;0.00349261912925;0.00024429968505;0.00213428803458;0.0;0.0;0.0;0.0;0.0;0.000956915771506;0.0;0.0;0.0;0.0;0.0;0.0;0.0;0.0;0.0;0.0;0.0;0.0;0.0;0.0;0.0;0.0;0.0;0.0;0.0;0.0;0.0;0.0;0.0;0.0;0.0;0.0;0.0
281525000000;89;281525000000;map;23.0175212177;-0.11618685791;0.0;0.0;0.0;-0.00606863680525;0.999981585654;0.0035399669955;0.000290542643004;0.00213612074854;0.0;0.0;0.0;0.0;0.0;0.000906967704716;0.0;0.0;0.0;0.0;0.0;0.0;0.0;0.0;0.0;0.0;0.0;0.0;0.0;0.0;0.0;0.0;0.0;0.0;0.0;0.0;0.0;0.0;0.0;0.0;0.0;0.0;0.0
281896000000;90;281896000000;map;23.2202059155;-0.117597815716;0.0;0.0;0.0;-0.00550115043807;0.999984868557;0.00361851896287;0.000306413003029;0.00212654050105;0.0;0.0;0.0;0.0;0.0;0.000897734142114;0.0;0.0;0.0;0.0;0.0;0.0;0.0;0.0;0.0;0.0;0.0;0.0;0.0;0.0;0.0;0.0;0.0;0.0;0.0;0.0;0.0;0.0;0.0;0.0;0.0;0.0;0.0
282397000000;91;282397000000;map;23.483651507;-0.121250000573;0.0;0.0;0.0;-0.00562056753491;0.999984204486;0.00389134932459;0.000308101030075;0.00217863657979;0.0;0.0;0.0;0.0;0.0;0.00115568520671;0.0;0.0;0.0;0.0;0.0;0.0;0.0;0.0;0.0;0.0;0.0;0.0;0.0;0.0;0.0;0.0;0.0;0.0;0.0;0.0;0.0;0.0;0.0;0.0;0.0;0.0;0.0
282894599678;92;282894599678;map;23.6917447269;-0.123167722596;0.0;0.0;0.0;-0.00487659768283;0.999988109327;0.00388242670169;0.000308303513405;0.00215671374336;0.0;0.0;0.0;0.0;0.0;0.00103789560999;0.0;0.0;0.0;0.0;0.0;0.0;0.0;0.0;0.0;0.0;0.0;0.0;0.0;0.0;0.0;0.0;0.0;0.0;0.0;0.0;0.0;0.0;0.0;0.0;0.0;0.0;0.0
283273000000;93;283273000000;map;23.8952704592;-0.124947054059;0.0;0.0;0.0;-0.00462164576778;0.999989320138;0.00396155039709;0.000339701457908;0.00214197825272;0.0;0.0;0.0;0.0;0.0;0.000959779822165;0.0;0.0;0.0;0.0;0.0;0.0;0.0;0.0;0.0;0.0;0.0;0.0;0.0;0.0;0.0;0.0;0.0;0.0;0.0;0.0;0.0;0.0;0.0;0.0;0.0;0.0;0.0
283629000000;94;283629000000;map;24.1047427185;-0.127030809171;0.0;0.0;0.0;-0.00438506347805;0.999990385563;0.00386204279312;0.000343257902779;0.00214143555867;0.0;0.0;0.0;0.0;0.0;0.000914323895172;0.0;0.0;0.0;0.0;0.0;0.0;0.0;0.0;0.0;0.0;0.0;0.0;0.0;0.0;0.0;0.0;0.0;0.0;0.0;0.0;0.0;0.0;0.0;0.0;0.0;0.0;0.0
284083000000;95;284083000000;map;24.3037402908;-0.129286161436;0.0;0.0;0.0;-0.00428047960256;0.999990838705;0.00394932942538;0.000367828677462;0.00209442488487;0.0;0.0;0.0;0.0;0.0;0.000852627924335;0.0;0.0;0.0;0.0;0.0;0.0;0.0;0.0;0.0;0.0;0.0;0.0;0.0;0.0;0.0;0.0;0.0;0.0;0.0;0.0;0.0;0.0;0.0;0.0;0.0;0.0;0.0
284438000000;96;284438000000;map;24.5140691777;-0.130075417556;0.0;0.0;0.0;-0.00364729381578;0.999993348602;0.00407062607758;0.000394946773643;0.00203749649711;0.0;0.0;0.0;0.0;0.0;0.000827912399784;0.0;0.0;0.0;0.0;0.0;0.0;0.0;0.0;0.0;0.0;0.0;0.0;0.0;0.0;0.0;0.0;0.0;0.0;0.0;0.0;0.0;0.0;0.0;0.0;0.0;0.0;0.0
284940000000;97;284940000000;map;24.7151922291;-0.132106939261;0.0;0.0;0.0;-0.0038560108658;0.999992565562;0.00401726563143;0.000388950652583;0.00196111040913;0.0;0.0;0.0;0.0;0.0;0.000783963129342;0.0;0.0;0.0;0.0;0.0;0.0;0.0;0.0;0.0;0.0;0.0;0.0;0.0;0.0;0.0;0.0;0.0;0.0;0.0;0.0;0.0;0.0;0.0;0.0;0.0;0.0;0.0
285338580135;98;285338580135;map;24.9139701337;-0.133257142266;0.0;0.0;0.0;-0.00359364980996;0.99999354282;0.00399911431487;0.000413345526958;0.0018874152235;0.0;0.0;0.0;0.0;0.0;0.000750552938023;0.0;0.0;0.0;0.0;0.0;0.0;0.0;0.0;0.0;0.0;0.0;0.0;0.0;0.0;0.0;0.0;0.0;0.0;0.0;0.0;0.0;0.0;0.0;0.0;0.0;0.0;0.0
285756000000;99;285756000000;map;25.1151063295;-0.1339002668;0.0;0.0;0.0;-0.00367486642012;0.999993247656;0.00401785731037;0.000449202943827;0.00183220484796;0.0;0.0;0.0;0.0;0.0;0.000740589197394;0.0;0.0;0.0;0.0;0.0;0.0;0.0;0.0;0.0;0.0;0.0;0.0;0.0;0.0;0.0;0.0;0.0;0.0;0.0;0.0;0.0;0.0;0.0;0.0;0.0;0.0;0.0
286141000000;100;286141000000;map;25.3182804618;-0.135931155476;0.0;0.0;0.0;-0.00376200643815;0.999992923629;0.00401558342685;0.000436940248749;0.0018398857586;0.0;0.0;0.0;0.0;0.0;0.000760969112485;0.0;0.0;0.0;0.0;0.0;0.0;0.0;0.0;0.0;0.0;0.0;0.0;0.0;0.0;0.0;0.0;0.0;0.0;0.0;0.0;0.0;0.0;0.0;0.0;0.0;0.0;0.0
286515000000;101;286515000000;map;25.5193637327;-0.136947901632;0.0;0.0;0.0;-0.00328550335959;0.999994602719;0.00400480715928;0.000429568477355;0.00183478544827;0.0;0.0;0.0;0.0;0.0;0.000751364562668;0.0;0.0;0.0;0.0;0.0;0.0;0.0;0.0;0.0;0.0;0.0;0.0;0.0;0.0;0.0;0.0;0.0;0.0;0.0;0.0;0.0;0.0;0.0;0.0;0.0;0.0;0.0
286859000000;102;286859000000;map;25.7211734106;-0.137921964279;0.0;0.0;0.0;-0.00335481413896;0.999994372595;0.0040232967209;0.000369085676518;0.00180969124755;0.0;0.0;0.0;0.0;0.0;0.000740149031419;0.0;0.0;0.0;0.0;0.0;0.0;0.0;0.0;0.0;0.0;0.0;0.0;0.0;0.0;0.0;0.0;0.0;0.0;0.0;0.0;0.0;0.0;0.0;0.0;0.0;0.0;0.0
287310000000;103;287310000000;map;25.9223186869;-0.140028315281;0.0;0.0;0.0;-0.00316604643828;0.999994988062;0.00408923509258;0.000352712524222;0.00184737646333;0.0;0.0;0.0;0.0;0.0;0.000760134562423;0.0;0.0;0.0;0.0;0.0;0.0;0.0;0.0;0.0;0.0;0.0;0.0;0.0;0.0;0.0;0.0;0.0;0.0;0.0;0.0;0.0;0.0;0.0;0.0;0.0;0.0;0.0
287760000000;104;287760000000;map;26.1225585462;-0.140471322736;0.0;0.0;0.0;-0.0031876950917;0.999994919287;0.0041777552907;0.000360784140929;0.00186287193371;0.0;0.0;0.0;0.0;0.0;0.000729264089278;0.0;0.0;0.0;0.0;0.0;0.0;0.0;0.0;0.0;0.0;0.0;0.0;0.0;0.0;0.0;0.0;0.0;0.0;0.0;0.0;0.0;0.0;0.0;0.0;0.0;0.0;0.0
288120000000;105;288120000000;map;26.3224227452;-0.141923341619;0.0;0.0;0.0;-0.00303178137622;0.99999540414;0.00411535721025;0.000349429584533;0.00191848838035;0.0;0.0;0.0;0.0;0.0;0.000709826717766;0.0;0.0;0.0;0.0;0.0;0.0;0.0;0.0;0.0;0.0;0.0;0.0;0.0;0.0;0.0;0.0;0.0;0.0;0.0;0.0;0.0;0.0;0.0;0.0;0.0;0.0;0.0
288639000000;106;288639000000;map;26.53094218;-0.143433141752;0.0;0.0;0.0;-0.00241417253802;0.999997085881;0.00416703701023;0.00032084322915;0.0019382254894;0.0;0.0;0.0;0.0;0.0;0.000732481724257;0.0;0.0;0.0;0.0;0.0;0.0;0.0;0.0;0.0;0.0;0.0;0.0;0.0;0.0;0.0;0.0;0.0;0.0;0.0;0.0;0.0;0.0;0.0;0.0;0.0;0.0;0.0
288986000000;107;288986000000;map;26.7311402004;-0.144306302401;0.0;0.0;0.0;-0.00198420511226;0.999998031463;0.00421954179706;0.000317583181352;0.00194663506875;0.0;0.0;0.0;0.0;0.0;0.000735613172007;0.0;0.0;0.0;0.0;0.0;0.0;0.0;0.0;0.0;0.0;0.0;0.0;0.0;0.0;0.0;0.0;0.0;0.0;0.0;0.0;0.0;0.0;0.0;0.0;0.0;0.0;0.0
289343000000;108;289343000000;map;26.9317211529;-0.145634626459;0.0;0.0;0.0;-0.00191834312424;0.999998159978;0.0041309153504;0.000364559571273;0.00195630451404;0.0;0.0;0.0;0.0;0.0;0.000725052813069;0.0;0.0;0.0;0.0;0.0;0.0;0.0;0.0;0.0;0.0;0.0;0.0;0.0;0.0;0.0;0.0;0.0;0.0;0.0;0.0;0.0;0.0;0.0;0.0;0.0;0.0;0.0
289836000000;109;289836000000;map;27.1904947264;-0.147280779232;0.0;0.0;0.0;-0.00186681055802;0.999998257508;0.00426599553657;0.000378296922929;0.00205300743402;0.0;0.0;0.0;0.0;0.0;0.00099920533162;0.0;0.0;0.0;0.0;0.0;0.0;0.0;0.0;0.0;0.0;0.0;0.0;0.0;0.0;0.0;0.0;0.0;0.0;0.0;0.0;0.0;0.0;0.0;0.0;0.0;0.0;0.0
290283000000;110;290283000000;map;27.3908461292;-0.147899675287;0.0;0.0;0.0;-0.0018374479061;0.999998311891;0.0042778363553;0.000407632459114;0.0021157501056;0.0;0.0;0.0;0.0;0.0;0.000905208806532;0.0;0.0;0.0;0.0;0.0;0.0;0.0;0.0;0.0;0.0;0.0;0.0;0.0;0.0;0.0;0.0;0.0;0.0;0.0;0.0;0.0;0.0;0.0;0.0;0.0;0.0;0.0
290639000000;111;290639000000;map;27.5915654127;-0.148168683793;0.0;0.0;0.0;-0.00161686184939;0.999998692878;0.00424022687571;0.000413463378035;0.00216526794756;0.0;0.0;0.0;0.0;0.0;0.000860854017797;0.0;0.0;0.0;0.0;0.0;0.0;0.0;0.0;0.0;0.0;0.0;0.0;0.0;0.0;0.0;0.0;0.0;0.0;0.0;0.0;0.0;0.0;0.0;0.0;0.0;0.0;0.0
291099000000;112;291099000000;map;27.7913892127;-0.148868962574;0.0;0.0;0.0;-0.00161828830581;0.999998690571;0.00421614684888;0.000474382198082;0.00216365708799;0.0;0.0;0.0;0.0;0.0;0.000812202647148;0.0;0.0;0.0;0.0;0.0;0.0;0.0;0.0;0.0;0.0;0.0;0.0;0.0;0.0;0.0;0.0;0.0;0.0;0.0;0.0;0.0;0.0;0.0;0.0;0.0;0.0;0.0
291464000000;113;291464000000;map;27.9967097803;-0.149864564589;0.0;0.0;0.0;-0.00205167539052;0.999997895312;0.00417935154928;0.000455217876011;0.00212649800884;0.0;0.0;0.0;0.0;0.0;0.000784885709778;0.0;0.0;0.0;0.0;0.0;0.0;0.0;0.0;0.0;0.0;0.0;0.0;0.0;0.0;0.0;0.0;0.0;0.0;0.0;0.0;0.0;0.0;0.0;0.0;0.0;0.0;0.0
291905000000;114;291905000000;map;28.1980897185;-0.151220404375;0.0;0.0;0.0;-0.00232766308534;0.999997290989;0.00405430928151;0.000455813009757;0.00212313802558;0.0;0.0;0.0;0.0;0.0;0.000743797616778;0.0;0.0;0.0;0.0;0.0;0.0;0.0;0.0;0.0;0.0;0.0;0.0;0.0;0.0;0.0;0.0;0.0;0.0;0.0;0.0;0.0;0.0;0.0;0.0;0.0;0.0;0.0
292270000000;115;292270000000;map;28.398987967;-0.152295505772;0.0;0.0;0.0;-0.00239556554183;0.999997130629;0.00399780743589;0.000539753160834;0.00212914504415;0.0;0.0;0.0;0.0;0.0;0.000723892950009;0.0;0.0;0.0;0.0;0.0;0.0;0.0;0.0;0.0;0.0;0.0;0.0;0.0;0.0;0.0;0.0;0.0;0.0;0.0;0.0;0.0;0.0;0.0;0.0;0.0;0.0;0.0
292710000000;116;292710000000;map;28.6022024078;-0.152449218274;0.0;0.0;0.0;-0.00234370111585;0.999997253529;0.00403706123734;0.000543178609353;0.00212339231786;0.0;0.0;0.0;0.0;0.0;0.000706866759681;0.0;0.0;0.0;0.0;0.0;0.0;0.0;0.0;0.0;0.0;0.0;0.0;0.0;0.0;0.0;0.0;0.0;0.0;0.0;0.0;0.0;0.0;0.0;0.0;0.0;0.0;0.0
293080000000;117;293080000000;map;28.8127726822;-0.152640665918;0.0;0.0;0.0;-0.00197978088779;0.999998040232;0.00406473023872;0.000568232066797;0.00212382614469;0.0;0.0;0.0;0.0;0.0;0.000750865492744;0.0;0.0;0.0;0.0;0.0;0.0;0.0;0.0;0.0;0.0;0.0;0.0;0.0;0.0;0.0;0.0;0.0;0.0;0.0;0.0;0.0;0.0;0.0;0.0;0.0;0.0;0.0
293543000000;118;293543000000;map;29.0185790667;-0.153607400249;0.0;0.0;0.0;-0.00193662952242;0.999998124731;0.0040375203547;0.000567332204681;0.00211397517585;0.0;0.0;0.0;0.0;0.0;0.000741433791833;0.0;0.0;0.0;0.0;0.0;0.0;0.0;0.0;0.0;0.0;0.0;0.0;0.0;0.0;0.0;0.0;0.0;0.0;0.0;0.0;0.0;0.0;0.0;0.0;0.0;0.0;0.0
293928000000;119;293928000000;map;29.2222428639;-0.15537606879;0.0;0.0;0.0;-0.00176063780509;0.999998450076;0.00398835538863;0.000494816965317;0.00212166252615;0.0;0.0;0.0;0.0;0.0;0.000748504904338;0.0;0.0;0.0;0.0;0.0;0.0;0.0;0.0;0.0;0.0;0.0;0.0;0.0;0.0;0.0;0.0;0.0;0.0;0.0;0.0;0.0;0.0;0.0;0.0;0.0;0.0;0.0
294302000000;120;294302000000;map;29.4230929013;-0.157075400781;0.0;0.0;0.0;-0.00196902038951;0.999998061477;0.00403116119048;0.000500378399906;0.00206651713143;0.0;0.0;0.0;0.0;0.0;0.000697339400213;0.0;0.0;0.0;0.0;0.0;0.0;0.0;0.0;0.0;0.0;0.0;0.0;0.0;0.0;0.0;0.0;0.0;0.0;0.0;0.0;0.0;0.0;0.0;0.0;0.0;0.0;0.0
294802000000;121;294802000000;map;29.6236572848;-0.159865460288;0.0;0.0;0.0;-0.00254959080867;0.999996749788;0.0041129914465;0.000524385642279;0.00205979134493;0.0;0.0;0.0;0.0;0.0;0.000690626088999;0.0;0.0;0.0;0.0;0.0;0.0;0.0;0.0;0.0;0.0;0.0;0.0;0.0;0.0;0.0;0.0;0.0;0.0;0.0;0.0;0.0;0.0;0.0;0.0;0.0;0.0;0.0
295203000000;122;295203000000;map;29.8250317453;-0.161161554185;0.0;0.0;0.0;-0.00280239426916;0.999996073285;0.0039776921443;0.000489187819512;0.00203135511218;0.0;0.0;0.0;0.0;0.0;0.000693369920558;0.0;0.0;0.0;0.0;0.0;0.0;0.0;0.0;0.0;0.0;0.0;0.0;0.0;0.0;0.0;0.0;0.0;0.0;0.0;0.0;0.0;0.0;0.0;0.0;0.0;0.0;0.0
295611000000;123;295611000000;map;30.0254124163;-0.16285061843;0.0;0.0;0.0;-0.00317798992803;0.999994950177;0.00399527187108;0.000455598613819;0.00202238735775;0.0;0.0;0.0;0.0;0.0;0.000699455339418;0.0;0.0;0.0;0.0;0.0;0.0;0.0;0.0;0.0;0.0;0.0;0.0;0.0;0.0;0.0;0.0;0.0;0.0;0.0;0.0;0.0;0.0;0.0;0.0;0.0;0.0;0.0
295964000000;124;295964000000;map;30.2253803153;-0.164655896217;0.0;0.0;0.0;-0.00297756485884;0.999995567044;0.00401413934799;0.000433360881275;0.00194674947268;0.0;0.0;0.0;0.0;0.0;0.000706271948394;0.0;0.0;0.0;0.0;0.0;0.0;0.0;0.0;0.0;0.0;0.0;0.0;0.0;0.0;0.0;0.0;0.0;0.0;0.0;0.0;0.0;0.0;0.0;0.0;0.0;0.0;0.0
296309000000;125;296309000000;map;30.4270506128;-0.166031596006;0.0;0.0;0.0;-0.00337702905529;0.999994297821;0.00403752133059;0.000448080008536;0.00191159081444;0.0;0.0;0.0;0.0;0.0;0.000684349398537;0.0;0.0;0.0;0.0;0.0;0.0;0.0;0.0;0.0;0.0;0.0;0.0;0.0;0.0;0.0;0.0;0.0;0.0;0.0;0.0;0.0;0.0;0.0;0.0;0.0;0.0;0.0
296752085901;126;296752085901;map;30.6299918047;-0.166597170983;0.0;0.0;0.0;-0.00318104782897;0.999994940455;0.00405426789109;0.000411634145049;0.00189408254216;0.0;0.0;0.0;0.0;0.0;0.000687865089641;0.0;0.0;0.0;0.0;0.0;0.0;0.0;0.0;0.0;0.0;0.0;0.0;0.0;0.0;0.0;0.0;0.0;0.0;0.0;0.0;0.0;0.0;0.0;0.0;0.0;0.0;0.0
297114638800;127;297114638800;map;30.833089155;-0.168528283207;0.0;0.0;0.0;-0.00330118309535;0.99999455108;0.00416316405187;0.000429315333533;0.0019067362027;0.0;0.0;0.0;0.0;0.0;0.000717853013928;0.0;0.0;0.0;0.0;0.0;0.0;0.0;0.0;0.0;0.0;0.0;0.0;0.0;0.0;0.0;0.0;0.0;0.0;0.0;0.0;0.0;0.0;0.0;0.0;0.0;0.0;0.0
297631000000;128;297631000000;map;31.0343285223;-0.169800061089;0.0;0.0;0.0;-0.00352951878678;0.999993771229;0.00426734116115;0.000462524070318;0.00188196227672;0.0;0.0;0.0;0.0;0.0;0.000697683712086;0.0;0.0;0.0;0.0;0.0;0.0;0.0;0.0;0.0;0.0;0.0;0.0;0.0;0.0;0.0;0.0;0.0;0.0;0.0;0.0;0.0;0.0;0.0;0.0;0.0;0.0;0.0
297990000000;129;297990000000;map;31.2352725782;-0.170793091525;0.0;0.0;0.0;-0.0032876100255;0.999994595796;0.00428006741322;0.000479577173443;0.00185598952188;0.0;0.0;0.0;0.0;0.0;0.000692784847605;0.0;0.0;0.0;0.0;0.0;0.0;0.0;0.0;0.0;0.0;0.0;0.0;0.0;0.0;0.0;0.0;0.0;0.0;0.0;0.0;0.0;0.0;0.0;0.0;0.0;0.0;0.0
298400000000;130;298400000000;map;31.4386720676;-0.172210045162;0.0;0.0;0.0;-0.00263181332507;0.999996536773;0.00420391826742;0.000498628076012;0.00187207463435;0.0;0.0;0.0;0.0;0.0;0.000702560492507;0.0;0.0;0.0;0.0;0.0;0.0;0.0;0.0;0.0;0.0;0.0;0.0;0.0;0.0;0.0;0.0;0.0;0.0;0.0;0.0;0.0;0.0;0.0;0.0;0.0;0.0;0.0
298813649334;131;298813649334;map;31.6407091039;-0.17245154951;0.0;0.0;0.0;-0.00221412966235;0.999997548812;0.00420909552201;0.0004441263022;0.00187567997393;0.0;0.0;0.0;0.0;0.0;0.000675557816564;0.0;0.0;0.0;0.0;0.0;0.0;0.0;0.0;0.0;0.0;0.0;0.0;0.0;0.0;0.0;0.0;0.0;0.0;0.0;0.0;0.0;0.0;0.0;0.0;0.0;0.0;0.0
299239000000;132;299239000000;map;31.843519707;-0.173817305689;0.0;0.0;0.0;-0.00224813051728;0.999997472951;0.00410978017555;0.000407975127872;0.00185285329486;0.0;0.0;0.0;0.0;0.0;0.000689351834487;0.0;0.0;0.0;0.0;0.0;0.0;0.0;0.0;0.0;0.0;0.0;0.0;0.0;0.0;0.0;0.0;0.0;0.0;0.0;0.0;0.0;0.0;0.0;0.0;0.0;0.0;0.0
299657000000;133;299657000000;map;32.0436317233;-0.174414961755;0.0;0.0;0.0;-0.00201204463454;0.999997975836;0.00406638775644;0.000422043369554;0.00182659446798;0.0;0.0;0.0;0.0;0.0;0.000697616332923;0.0;0.0;0.0;0.0;0.0;0.0;0.0;0.0;0.0;0.0;0.0;0.0;0.0;0.0;0.0;0.0;0.0;0.0;0.0;0.0;0.0;0.0;0.0;0.0;0.0;0.0;0.0
299999000000;134;299999000000;map;32.2431430822;-0.175165004766;0.0;0.0;0.0;-0.0023017006571;0.999997351084;0.00411018004843;0.000425726114113;0.0017712009961;0.0;0.0;0.0;0.0;0.0;0.000668502027117;0.0;0.0;0.0;0.0;0.0;0.0;0.0;0.0;0.0;0.0;0.0;0.0;0.0;0.0;0.0;0.0;0.0;0.0;0.0;0.0;0.0;0.0;0.0;0.0;0.0;0.0;0.0
300476000000;135;300476000000;map;32.452944111;-0.175834305874;0.0;0.0;0.0;-0.00221211919316;0.999997553261;0.00398733859129;0.000437755404358;0.001702475015;0.0;0.0;0.0;0.0;0.0;0.000691554471472;0.0;0.0;0.0;0.0;0.0;0.0;0.0;0.0;0.0;0.0;0.0;0.0;0.0;0.0;0.0;0.0;0.0;0.0;0.0;0.0;0.0;0.0;0.0;0.0;0.0;0.0;0.0
300839000000;136;300839000000;map;32.6628299294;-0.17731189496;0.0;0.0;0.0;-0.00246598505806;0.999996959454;0.00400426931469;0.000456881170847;0.00173187260649;0.0;0.0;0.0;0.0;0.0;0.00076062009634;0.0;0.0;0.0;0.0;0.0;0.0;0.0;0.0;0.0;0.0;0.0;0.0;0.0;0.0;0.0;0.0;0.0;0.0;0.0;0.0;0.0;0.0;0.0;0.0;0.0;0.0;0.0
301211000000;137;301211000000;map;32.8653398357;-0.179080578394;0.0;0.0;0.0;-0.00299790310143;0.999995506278;0.00407804206588;0.000506177656753;0.00174416492265;0.0;0.0;0.0;0.0;0.0;0.000738477488793;0.0;0.0;0.0;0.0;0.0;0.0;0.0;0.0;0.0;0.0;0.0;0.0;0.0;0.0;0.0;0.0;0.0;0.0;0.0;0.0;0.0;0.0;0.0;0.0;0.0;0.0;0.0
301560000000;138;301560000000;map;33.0654836364;-0.17995600563;0.0;0.0;0.0;-0.00284600759247;0.999995950112;0.00411242243717;0.000496939045949;0.00175129894239;0.0;0.0;0.0;0.0;0.0;0.000714694907056;0.0;0.0;0.0;0.0;0.0;0.0;0.0;0.0;0.0;0.0;0.0;0.0;0.0;0.0;0.0;0.0;0.0;0.0;0.0;0.0;0.0;0.0;0.0;0.0;0.0;0.0;0.0
302041000000;139;302041000000;map;33.2663469984;-0.182408077424;0.0;0.0;0.0;-0.00298502476128;0.999995544804;0.00418593146537;0.000466849404848;0.00175183486106;0.0;0.0;0.0;0.0;0.0;0.000696799205329;0.0;0.0;0.0;0.0;0.0;0.0;0.0;0.0;0.0;0.0;0.0;0.0;0.0;0.0;0.0;0.0;0.0;0.0;0.0;0.0;0.0;0.0;0.0;0.0;0.0;0.0;0.0
302423000000;140;302423000000;map;33.470028212;-0.183622218415;0.0;0.0;0.0;-0.00301077413985;0.999995467609;0.00418164012922;0.000456783877365;0.00176015457589;0.0;0.0;0.0;0.0;0.0;0.000699210819126;0.0;0.0;0.0;0.0;0.0;0.0;0.0;0.0;0.0;0.0;0.0;0.0;0.0;0.0;0.0;0.0;0.0;0.0;0.0;0.0;0.0;0.0;0.0;0.0;0.0;0.0;0.0
302936000000;141;302936000000;map;33.6739820355;-0.184364742942;0.0;0.0;0.0;-0.00250877273025;0.999996853025;0.00411630316421;0.000452720601006;0.00177443195303;0.0;0.0;0.0;0.0;0.0;0.000708497221803;0.0;0.0;0.0;0.0;0.0;0.0;0.0;0.0;0.0;0.0;0.0;0.0;0.0;0.0;0.0;0.0;0.0;0.0;0.0;0.0;0.0;0.0;0.0;0.0;0.0;0.0;0.0
303281000000;142;303281000000;map;33.882888803;-0.184426952233;0.0;0.0;0.0;-0.0024024812577;0.999997114038;0.00418179201256;0.000457315323296;0.00179614984071;0.0;0.0;0.0;0.0;0.0;0.000742669459065;0.0;0.0;0.0;0.0;0.0;0.0;0.0;0.0;0.0;0.0;0.0;0.0;0.0;0.0;0.0;0.0;0.0;0.0;0.0;0.0;0.0;0.0;0.0;0.0;0.0;0.0;0.0
303632000000;143;303632000000;map;34.0838430077;-0.185451003292;0.0;0.0;0.0;-0.00210602203965;0.999997782333;0.00419396493044;0.000495946486855;0.00183382063099;0.0;0.0;0.0;0.0;0.0;0.00076846837894;0.0;0.0;0.0;0.0;0.0;0.0;0.0;0.0;0.0;0.0;0.0;0.0;0.0;0.0;0.0;0.0;0.0;0.0;0.0;0.0;0.0;0.0;0.0;0.0;0.0;0.0;0.0
304070000000;144;304070000000;map;34.2821997994;-0.18748587928;0.0;0.0;0.0;-0.00264408693486;0.999996504396;0.00424667649895;0.000547228026102;0.00185231632009;0.0;0.0;0.0;0.0;0.0;0.00076080509995;0.0;0.0;0.0;0.0;0.0;0.0;0.0;0.0;0.0;0.0;0.0;0.0;0.0;0.0;0.0;0.0;0.0;0.0;0.0;0.0;0.0;0.0;0.0;0.0;0.0;0.0;0.0
304553000000;145;304553000000;map;34.4915027365;-0.188262218355;0.0;0.0;0.0;-0.00273341241396;0.999996264221;0.00423660106003;0.000579748878486;0.00186584140518;0.0;0.0;0.0;0.0;0.0;0.000767647896761;0.0;0.0;0.0;0.0;0.0;0.0;0.0;0.0;0.0;0.0;0.0;0.0;0.0;0.0;0.0;0.0;0.0;0.0;0.0;0.0;0.0;0.0;0.0;0.0;0.0;0.0;0.0
304968000000;146;304968000000;map;34.7018725035;-0.188959070413;0.0;0.0;0.0;-0.0025750520862;0.999996684548;0.00434364150942;0.000596841910959;0.00189379743804;0.0;0.0;0.0;0.0;0.0;0.000794948546842;0.0;0.0;0.0;0.0;0.0;0.0;0.0;0.0;0.0;0.0;0.0;0.0;0.0;0.0;0.0;0.0;0.0;0.0;0.0;0.0;0.0;0.0;0.0;0.0;0.0;0.0;0.0
305306000000;147;305306000000;map;34.9029456449;-0.190055941464;0.0;0.0;0.0;-0.00250231690003;0.9999968692;0.00427801709088;0.000586110388114;0.0019486825312;0.0;0.0;0.0;0.0;0.0;0.000803869566232;0.0;0.0;0.0;0.0;0.0;0.0;0.0;0.0;0.0;0.0;0.0;0.0;0.0;0.0;0.0;0.0;0.0;0.0;0.0;0.0;0.0;0.0;0.0;0.0;0.0;0.0;0.0
305672000000;148;305672000000;map;35.1087908054;-0.190753747109;0.0;0.0;0.0;-0.00248096474439;0.999996922402;0.00429137117726;0.000608461133772;0.00200864332232;0.0;0.0;0.0;0.0;0.0;0.000813547076694;0.0;0.0;0.0;0.0;0.0;0.0;0.0;0.0;0.0;0.0;0.0;0.0;0.0;0.0;0.0;0.0;0.0;0.0;0.0;0.0;0.0;0.0;0.0;0.0;0.0;0.0;0.0
306141000000;149;306141000000;map;35.3121126064;-0.191791705758;0.0;0.0;0.0;-0.00275118281021;0.999996215489;0.00423991133857;0.000633121799348;0.0020615039359;0.0;0.0;0.0;0.0;0.0;0.000805780720766;0.0;0.0;0.0;0.0;0.0;0.0;0.0;0.0;0.0;0.0;0.0;0.0;0.0;0.0;0.0;0.0;0.0;0.0;0.0;0.0;0.0;0.0;0.0;0.0;0.0;0.0;0.0
306537000000;150;306537000000;map;35.5124621581;-0.194156669138;0.0;0.0;0.0;-0.00288073820518;0.999995850665;0.00416100674124;0.000591487498085;0.00204920048195;0.0;0.0;0.0;0.0;0.0;0.000815038546104;0.0;0.0;0.0;0.0;0.0;0.0;0.0;0.0;0.0;0.0;0.0;0.0;0.0;0.0;0.0;0.0;0.0;0.0;0.0;0.0;0.0;0.0;0.0;0.0;0.0;0.0;0.0
306946000000;151;306946000000;map;35.7208568257;-0.196926145257;0.0;0.0;0.0;-0.00316414947611;0.999994994067;0.00422471029196;0.000645850656857;0.00208809073644;0.0;0.0;0.0;0.0;0.0;0.000808770953202;0.0;0.0;0.0;0.0;0.0;0.0;0.0;0.0;0.0;0.0;0.0;0.0;0.0;0.0;0.0;0.0;0.0;0.0;0.0;0.0;0.0;0.0;0.0;0.0;0.0;0.0;0.0
307344000000;152;307344000000;map;35.9235007015;-0.198879462124;0.0;0.0;0.0;-0.00323511112297;0.999994767014;0.00420647931014;0.000621751699175;0.00211992524312;0.0;0.0;0.0;0.0;0.0;0.000809244220852;0.0;0.0;0.0;0.0;0.0;0.0;0.0;0.0;0.0;0.0;0.0;0.0;0.0;0.0;0.0;0.0;0.0;0.0;0.0;0.0;0.0;0.0;0.0;0.0;0.0;0.0;0.0
307845550523;153;307845550523;map;36.1333542628;-0.200673731699;0.0;0.0;0.0;-0.00349577534718;0.999993889759;0.00414426177122;0.000568745869871;0.00209746811218;0.0;0.0;0.0;0.0;0.0;0.000804669776855;0.0;0.0;0.0;0.0;0.0;0.0;0.0;0.0;0.0;0.0;0.0;0.0;0.0;0.0;0.0;0.0;0.0;0.0;0.0;0.0;0.0;0.0;0.0;0.0;0.0;0.0;0.0
308257000000;154;308257000000;map;36.342833316;-0.202684382485;0.0;0.0;0.0;-0.00351032863567;0.999993838777;0.00415361604178;0.000619393459049;0.00211060888355;0.0;0.0;0.0;0.0;0.0;0.000825542607126;0.0;0.0;0.0;0.0;0.0;0.0;0.0;0.0;0.0;0.0;0.0;0.0;0.0;0.0;0.0;0.0;0.0;0.0;0.0;0.0;0.0;0.0;0.0;0.0;0.0;0.0;0.0
308669000000;155;308669000000;map;36.5416806836;-0.205117932952;0.0;0.0;0.0;-0.00366381791769;0.999993288197;0.0041437234438;0.000609379422632;0.00209180568987;0.0;0.0;0.0;0.0;0.0;0.000793495559836;0.0;0.0;0.0;0.0;0.0;0.0;0.0;0.0;0.0;0.0;0.0;0.0;0.0;0.0;0.0;0.0;0.0;0.0;0.0;0.0;0.0;0.0;0.0;0.0;0.0;0.0;0.0
309103000000;156;309103000000;map;36.7438059212;-0.20822158906;0.0;0.0;0.0;-0.00404168739741;0.999991832348;0.00407101658675;0.00060393613404;0.00205326873978;0.0;0.0;0.0;0.0;0.0;0.000764663546193;0.0;0.0;0.0;0.0;0.0;0.0;0.0;0.0;0.0;0.0;0.0;0.0;0.0;0.0;0.0;0.0;0.0;0.0;0.0;0.0;0.0;0.0;0.0;0.0;0.0;0.0;0.0
309348000000;157;309348000000;map;36.9474909437;-0.210483625982;0.0;0.0;0.0;-0.00427993605951;0.999990841032;0.00404633159997;0.000629193532644;0.00203684874317;0.0;0.0;0.0;0.0;0.0;0.000794339164771;0.0;0.0;0.0;0.0;0.0;0.0;0.0;0.0;0.0;0.0;0.0;0.0;0.0;0.0;0.0;0.0;0.0;0.0;0.0;0.0;0.0;0.0;0.0;0.0;0.0;0.0;0.0
311752000000;158;311752000000;map;36.9980518522;-0.213400442703;0.0;0.0;0.0;0.245194298356;0.96947395842;0.00825873497297;0.000507434504009;0.00189534045951;0.0;0.0;0.0;0.0;0.0;0.00355077576321;0.0;0.0;0.0;0.0;0.0;0.0;0.0;0.0;0.0;0.0;0.0;0.0;0.0;0.0;0.0;0.0;0.0;0.0;0.0;0.0;0.0;0.0;0.0;0.0;0.0;0.0;0.0
313991000000;159;313991000000;map;37.0022192085;-0.212732761141;0.0;0.0;0.0;0.479602346232;0.877485948314;0.0110657997889;0.00207800381862;0.00261505439836;0.0;0.0;0.0;0.0;0.0;0.00495096375174;0.0;0.0;0.0;0.0;0.0;0.0;0.0;0.0;0.0;0.0;0.0;0.0;0.0;0.0;0.0;0.0;0.0;0.0;0.0;0.0;0.0;0.0;0.0;0.0;0.0;0.0;0.0
316090000000;160;316090000000;map;37.0057839247;-0.210342325112;0.0;0.0;0.0;0.682111601032;0.731248086314;0.0115604751281;0.00336315032548;0.00496417758232;0.0;0.0;0.0;0.0;0.0;0.00592026267285;0.0;0.0;0.0;0.0;0.0;0.0;0.0;0.0;0.0;0.0;0.0;0.0;0.0;0.0;0.0;0.0;0.0;0.0;0.0;0.0;0.0;0.0;0.0;0.0;0.0;0.0;0.0
317401000000;161;317401000000;map;36.999051917;0.00505016172831;0.0;0.0;0.0;0.730858904366;0.682528579555;0.0113310557306;0.00290654247247;0.00468945175639;0.0;0.0;0.0;0.0;0.0;0.0038796245196;0.0;0.0;0.0;0.0;0.0;0.0;0.0;0.0;0.0;0.0;0.0;0.0;0.0;0.0;0.0;0.0;0.0;0.0;0.0;0.0;0.0;0.0;0.0;0.0;0.0;0.0;0.0
317820000000;162;317820000000;map;36.9925267309;0.211238249027;0.0;0.0;0.0;0.730473566985;0.682940969584;0.0104147757966;0.00238032726489;0.00420361165537;0.0;0.0;0.0;0.0;0.0;0.00252776415542;0.0;0.0;0.0;0.0;0.0;0.0;0.0;0.0;0.0;0.0;0.0;0.0;0.0;0.0;0.0;0.0;0.0;0.0;0.0;0.0;0.0;0.0;0.0;0.0;0.0;0.0;0.0
318218000000;163;318218000000;map;36.9831056141;0.418704854715;0.0;0.0;0.0;0.730204806143;0.683228322806;0.00998370436628;0.00210951776131;0.0038147544409;0.0;0.0;0.0;0.0;0.0;0.00166854661335;0.0;0.0;0.0;0.0;0.0;0.0;0.0;0.0;0.0;0.0;0.0;0.0;0.0;0.0;0.0;0.0;0.0;0.0;0.0;0.0;0.0;0.0;0.0;0.0;0.0;0.0;0.0
318569000000;164;318569000000;map;36.973916104;0.622602723235;0.0;0.0;0.0;0.730204299139;0.68322886467;0.00931148493942;0.0017968880979;0.00353153644692;0.0;0.0;0.0;0.0;0.0;0.00129402593314;0.0;0.0;0.0;0.0;0.0;0.0;0.0;0.0;0.0;0.0;0.0;0.0;0.0;0.0;0.0;0.0;0.0;0.0;0.0;0.0;0.0;0.0;0.0;0.0;0.0;0.0;0.0
319089000000;165;319089000000;map;36.9669775535;0.826611310095;0.0;0.0;0.0;0.729685724076;0.683782673135;0.00864707115079;0.00152099683731;0.00335792649984;0.0;0.0;0.0;0.0;0.0;0.00101932844625;0.0;0.0;0.0;0.0;0.0;0.0;0.0;0.0;0.0;0.0;0.0;0.0;0.0;0.0;0.0;0.0;0.0;0.0;0.0;0.0;0.0;0.0;0.0;0.0;0.0;0.0;0.0
319434000000;166;319434000000;map;36.9620626333;1.03768619546;0.0;0.0;0.0;0.729474039685;0.684008498065;0.00801105540359;0.00133063854558;0.00324681732559;0.0;0.0;0.0;0.0;0.0;0.000864410055149;0.0;0.0;0.0;0.0;0.0;0.0;0.0;0.0;0.0;0.0;0.0;0.0;0.0;0.0;0.0;0.0;0.0;0.0;0.0;0.0;0.0;0.0;0.0;0.0;0.0;0.0;0.0
319784000000;167;319784000000;map;36.953773672;1.24419182462;0.0;0.0;0.0;0.729442668322;0.684041953122;0.00755306707379;0.00115581788445;0.00310015374843;0.0;0.0;0.0;0.0;0.0;0.000792160978189;0.0;0.0;0.0;0.0;0.0;0.0;0.0;0.0;0.0;0.0;0.0;0.0;0.0;0.0;0.0;0.0;0.0;0.0;0.0;0.0;0.0;0.0;0.0;0.0;0.0;0.0;0.0
320267000000;168;320267000000;map;36.9470442313;1.44773846829;0.0;0.0;0.0;0.729446959089;0.684037377543;0.00700912764114;0.00109197700473;0.00290849003831;0.0;0.0;0.0;0.0;0.0;0.000707954004109;0.0;0.0;0.0;0.0;0.0;0.0;0.0;0.0;0.0;0.0;0.0;0.0;0.0;0.0;0.0;0.0;0.0;0.0;0.0;0.0;0.0;0.0;0.0;0.0;0.0;0.0;0.0
320608000000;169;320608000000;map;36.9398148518;1.64794886233;0.0;0.0;0.0;0.729609652192;0.683863842756;0.00653103348509;0.000972893178925;0.00279378795677;0.0;0.0;0.0;0.0;0.0;0.000678340248085;0.0;0.0;0.0;0.0;0.0;0.0;0.0;0.0;0.0;0.0;0.0;0.0;0.0;0.0;0.0;0.0;0.0;0.0;0.0;0.0;0.0;0.0;0.0;0.0;0.0;0.0;0.0
321080000000;170;321080000000;map;36.9302915052;1.84796583288;0.0;0.0;0.0;0.729572761655;0.683903198889;0.00620871950377;0.000900783247729;0.0027239529851;0.0;0.0;0.0;0.0;0.0;0.000673755266526;0.0;0.0;0.0;0.0;0.0;0.0;0.0;0.0;0.0;0.0;0.0;0.0;0.0;0.0;0.0;0.0;0.0;0.0;0.0;0.0;0.0;0.0;0.0;0.0;0.0;0.0;0.0
322980000000;171;322980000000;map;36.9274312096;2.04989214316;0.0;0.0;0.0;0.69776278708;0.716328899994;0.00572061392381;0.00076197437545;0.00266132516054;0.0;0.0;0.0;0.0;0.0;0.000694105991351;0.0;0.0;0.0;0.0;0.0;0.0;0.0;0.0;0.0;0.0;0.0;0.0;0.0;0.0;0.0;0.0;0.0;0.0;0.0;0.0;0.0;0.0;0.0;0.0;0.0;0.0;0.0
323399000000;172;323399000000;map;36.9336411802;2.25119439638;0.0;0.0;0.0;0.698210406384;0.715892609556;0.00548527122123;0.000730411607421;0.00258723361904;0.0;0.0;0.0;0.0;0.0;0.000660141760848;0.0;0.0;0.0;0.0;0.0;0.0;0.0;0.0;0.0;0.0;0.0;0.0;0.0;0.0;0.0;0.0;0.0;0.0;0.0;0.0;0.0;0.0;0.0;0.0;0.0;0.0;0.0
323817000000;173;323817000000;map;36.9407370233;2.45393204922;0.0;0.0;0.0;0.698362179512;0.715744553753;0.00527971928341;0.000670319239589;0.00251468235161;0.0;0.0;0.0;0.0;0.0;0.000672034715816;0.0;0.0;0.0;0.0;0.0;0.0;0.0;0.0;0.0;0.0;0.0;0.0;0.0;0.0;0.0;0.0;0.0;0.0;0.0;0.0;0.0;0.0;0.0;0.0;0.0;0.0;0.0
324074000000;174;324074000000;map;36.9476756121;2.65605089931;0.0;0.0;0.0;0.698410043561;0.715697848993;0.00484184540937;0.000633618042045;0.00251004812102;0.0;0.0;0.0;0.0;0.0;0.000633158715538;0.0;0.0;0.0;0.0;0.0;0.0;0.0;0.0;0.0;0.0;0.0;0.0;0.0;0.0;0.0;0.0;0.0;0.0;0.0;0.0;0.0;0.0;0.0;0.0;0.0;0.0;0.0
324602000000;175;324602000000;map;36.9551499539;2.85833163427;0.0;0.0;0.0;0.698469371288;0.715639949537;0.00464783116786;0.000536360112051;0.00250659014909;0.0;0.0;0.0;0.0;0.0;0.000626441901235;0.0;0.0;0.0;0.0;0.0;0.0;0.0;0.0;0.0;0.0;0.0;0.0;0.0;0.0;0.0;0.0;0.0;0.0;0.0;0.0;0.0;0.0;0.0;0.0;0.0;0.0;0.0
324964000000;176;324964000000;map;36.9617474837;3.06939950103;0.0;0.0;0.0;0.698514459982;0.715595939896;0.00442608650974;0.000512975604877;0.00254819959235;0.0;0.0;0.0;0.0;0.0;0.000633569476678;0.0;0.0;0.0;0.0;0.0;0.0;0.0;0.0;0.0;0.0;0.0;0.0;0.0;0.0;0.0;0.0;0.0;0.0;0.0;0.0;0.0;0.0;0.0;0.0;0.0;0.0;0.0
325318000000;177;325318000000;map;36.9689907371;3.27066866725;0.0;0.0;0.0;0.698460195387;0.715648905163;0.00429545553243;0.000429620635003;0.00248825733275;0.0;0.0;0.0;0.0;0.0;0.00062182915521;0.0;0.0;0.0;0.0;0.0;0.0;0.0;0.0;0.0;0.0;0.0;0.0;0.0;0.0;0.0;0.0;0.0;0.0;0.0;0.0;0.0;0.0;0.0;0.0;0.0;0.0;0.0
325799000000;178;325799000000;map;36.9748414378;3.47261954448;0.0;0.0;0.0;0.698544233346;0.715566876021;0.00404326397756;0.000395735281472;0.00240791818499;0.0;0.0;0.0;0.0;0.0;0.000632580891425;0.0;0.0;0.0;0.0;0.0;0.0;0.0;0.0;0.0;0.0;0.0;0.0;0.0;0.0;0.0;0.0;0.0;0.0;0.0;0.0;0.0;0.0;0.0;0.0;0.0;0.0;0.0
326167000000;179;326167000000;map;36.9804373577;3.67166622298;0.0;0.0;0.0;0.698537773999;0.71557318165;0.00384309723995;0.000364687611608;0.00233648083508;0.0;0.0;0.0;0.0;0.0;0.000635237613562;0.0;0.0;0.0;0.0;0.0;0.0;0.0;0.0;0.0;0.0;0.0;0.0;0.0;0.0;0.0;0.0;0.0;0.0;0.0;0.0;0.0;0.0;0.0;0.0;0.0;0.0;0.0
326510000000;180;326510000000;map;36.9850072712;3.87208473944;0.0;0.0;0.0;0.698610345526;0.715502330621;0.0037928552224;0.000320548434075;0.00235003062848;0.0;0.0;0.0;0.0;0.0;0.000666413482102;0.0;0.0;0.0;0.0;0.0;0.0;0.0;0.0;0.0;0.0;0.0;0.0;0.0;0.0;0.0;0.0;0.0;0.0;0.0;0.0;0.0;0.0;0.0;0.0;0.0;0.0;0.0
326965000000;181;326965000000;map;36.9898517996;4.0751426554;0.0;0.0;0.0;0.698814624367;0.715302817533;0.00367793415012;0.00031725881226;0.00234000529931;0.0;0.0;0.0;0.0;0.0;0.000698648119041;0.0;0.0;0.0;0.0;0.0;0.0;0.0;0.0;0.0;0.0;0.0;0.0;0.0;0.0;0.0;0.0;0.0;0.0;0.0;0.0;0.0;0.0;0.0;0.0;0.0;0.0;0.0
327336000000;182;327336000000;map;36.9948773248;4.27666589135;0.0;0.0;0.0;0.698602933471;0.715509567613;0.00360901698764;0.000325080819181;0.00227778098394;0.0;0.0;0.0;0.0;0.0;0.000702925098648;0.0;0.0;0.0;0.0;0.0;0.0;0.0;0.0;0.0;0.0;0.0;0.0;0.0;0.0;0.0;0.0;0.0;0.0;0.0;0.0;0.0;0.0;0.0;0.0;0.0;0.0;0.0
327804000000;183;327804000000;map;36.9997824825;4.47737242377;0.0;0.0;0.0;0.698493247652;0.715616645268;0.00350725260842;0.000328363267101;0.0022893440358;0.0;0.0;0.0;0.0;0.0;0.000700872736333;0.0;0.0;0.0;0.0;0.0;0.0;0.0;0.0;0.0;0.0;0.0;0.0;0.0;0.0;0.0;0.0;0.0;0.0;0.0;0.0;0.0;0.0;0.0;0.0;0.0;0.0;0.0
328148000000;184;328148000000;map;37.0055517466;4.67996123825;0.0;0.0;0.0;0.698470922083;0.715638435947;0.00350029006654;0.000303265934093;0.00230300827792;0.0;0.0;0.0;0.0;0.0;0.000706790700716;0.0;0.0;0.0;0.0;0.0;0.0;0.0;0.0;0.0;0.0;0.0;0.0;0.0;0.0;0.0;0.0;0.0;0.0;0.0;0.0;0.0;0.0;0.0;0.0;0.0;0.0;0.0
328620000000;185;328620000000;map;37.010910275;4.88142278658;0.0;0.0;0.0;0.698665591459;0.715448384799;0.00347964300795;0.000262377390726;0.0022468210733;0.0;0.0;0.0;0.0;0.0;0.000719920527962;0.0;0.0;0.0;0.0;0.0;0.0;0.0;0.0;0.0;0.0;0.0;0.0;0.0;0.0;0.0;0.0;0.0;0.0;0.0;0.0;0.0;0.0;0.0;0.0;0.0;0.0;0.0
328959000000;186;328959000000;map;37.0157289012;5.08309063875;0.0;0.0;0.0;0.698822184265;0.715295431817;0.00332028730213;0.000212508933174;0.00222663069932;0.0;0.0;0.0;0.0;0.0;0.00075607855878;0.0;0.0;0.0;0.0;0.0;0.0;0.0;0.0;0.0;0.0;0.0;0.0;0.0;0.0;0.0;0.0;0.0;0.0;0.0;0.0;0.0;0.0;0.0;0.0;0.0;0.0;0.0
329320000000;187;329320000000;map;37.0217422542;5.28484766234;0.0;0.0;0.0;0.698944429374;0.715175981593;0.0032632501518;0.000183633663539;0.00227046563173;0.0;0.0;0.0;0.0;0.0;0.000761941934225;0.0;0.0;0.0;0.0;0.0;0.0;0.0;0.0;0.0;0.0;0.0;0.0;0.0;0.0;0.0;0.0;0.0;0.0;0.0;0.0;0.0;0.0;0.0;0.0;0.0;0.0;0.0
329800000000;188;329800000000;map;37.0279536956;5.48448348792;0.0;0.0;0.0;0.698653184611;0.7154605004;0.00315278322091;0.000173493562301;0.00229676425457;0.0;0.0;0.0;0.0;0.0;0.000769577354999;0.0;0.0;0.0;0.0;0.0;0.0;0.0;0.0;0.0;0.0;0.0;0.0;0.0;0.0;0.0;0.0;0.0;0.0;0.0;0.0;0.0;0.0;0.0;0.0;0.0;0.0;0.0
330144000000;189;330144000000;map;37.0334087858;5.68490045195;0.0;0.0;0.0;0.69844983752;0.715659014104;0.0031344135989;0.000131116811531;0.00233656621585;0.0;0.0;0.0;0.0;0.0;0.000779191404119;0.0;0.0;0.0;0.0;0.0;0.0;0.0;0.0;0.0;0.0;0.0;0.0;0.0;0.0;0.0;0.0;0.0;0.0;0.0;0.0;0.0;0.0;0.0;0.0;0.0;0.0;0.0
330602000000;190;330602000000;map;37.0387891674;5.88884486761;0.0;0.0;0.0;0.698646521503;0.715467006921;0.00308351000717;0.000100636638621;0.00234789879843;0.0;0.0;0.0;0.0;0.0;0.000825262845089;0.0;0.0;0.0;0.0;0.0;0.0;0.0;0.0;0.0;0.0;0.0;0.0;0.0;0.0;0.0;0.0;0.0;0.0;0.0;0.0;0.0;0.0;0.0;0.0;0.0;0.0;0.0
330965000000;191;330965000000;map;37.0443671588;6.0972624551;0.0;0.0;0.0;0.698747973599;0.715367925889;0.00292987197349;0.000145283856114;0.00239123781869;0.0;0.0;0.0;0.0;0.0;0.000838723256943;0.0;0.0;0.0;0.0;0.0;0.0;0.0;0.0;0.0;0.0;0.0;0.0;0.0;0.0;0.0;0.0;0.0;0.0;0.0;0.0;0.0;0.0;0.0;0.0;0.0;0.0;0.0
331412000000;192;331412000000;map;37.0506498891;6.29799360039;0.0;0.0;0.0;0.698656507501;0.715457255555;0.00287547451808;0.000117803746036;0.00240475972871;0.0;0.0;0.0;0.0;0.0;0.000829128281236;0.0;0.0;0.0;0.0;0.0;0.0;0.0;0.0;0.0;0.0;0.0;0.0;0.0;0.0;0.0;0.0;0.0;0.0;0.0;0.0;0.0;0.0;0.0;0.0;0.0;0.0;0.0
331780000000;193;331780000000;map;37.0564016863;6.49894249701;0.0;0.0;0.0;0.698598965763;0.715513441548;0.00279491672063;5.50985594998e-05;0.00241643804981;0.0;0.0;0.0;0.0;0.0;0.000862841009342;0.0;0.0;0.0;0.0;0.0;0.0;0.0;0.0;0.0;0.0;0.0;0.0;0.0;0.0;0.0;0.0;0.0;0.0;0.0;0.0;0.0;0.0;0.0;0.0;0.0;0.0;0.0
332216000000;194;332216000000;map;37.0622754187;6.71000970701;0.0;0.0;0.0;0.698383552178;0.715723699514;0.002851749304;4.03067613775e-06;0.00249407971157;0.0;0.0;0.0;0.0;0.0;0.00093742360147;0.0;0.0;0.0;0.0;0.0;0.0;0.0;0.0;0.0;0.0;0.0;0.0;0.0;0.0;0.0;0.0;0.0;0.0;0.0;0.0;0.0;0.0;0.0;0.0;0.0;0.0;0.0
332550000000;195;332550000000;map;37.0686354986;6.92023195288;0.0;0.0;0.0;0.698580090049;0.71553187056;0.00284834598074;-6.70674834282e-05;0.00249198197834;0.0;0.0;0.0;0.0;0.0;0.000985982279169;0.0;0.0;0.0;0.0;0.0;0.0;0.0;0.0;0.0;0.0;0.0;0.0;0.0;0.0;0.0;0.0;0.0;0.0;0.0;0.0;0.0;0.0;0.0;0.0;0.0;0.0;0.0
332993000000;196;332993000000;map;37.0738088126;7.12134873596;0.0;0.0;0.0;0.698453793772;0.715655152965;0.00279443874706;-4.53593078191e-05;0.00257669970935;0.0;0.0;0.0;0.0;0.0;0.000966924263132;0.0;0.0;0.0;0.0;0.0;0.0;0.0;0.0;0.0;0.0;0.0;0.0;0.0;0.0;0.0;0.0;0.0;0.0;0.0;0.0;0.0;0.0;0.0;0.0;0.0;0.0;0.0
333448000000;197;333448000000;map;37.0802747479;7.32155241929;0.0;0.0;0.0;0.69850738295;0.715602847929;0.00282044731034;3.74530988552e-05;0.00251697815473;0.0;0.0;0.0;0.0;0.0;0.00093726223557;0.0;0.0;0.0;0.0;0.0;0.0;0.0;0.0;0.0;0.0;0.0;0.0;0.0;0.0;0.0;0.0;0.0;0.0;0.0;0.0;0.0;0.0;0.0;0.0;0.0;0.0;0.0
333812000000;198;333812000000;map;37.0865833394;7.52650133468;0.0;0.0;0.0;0.698346685098;0.715759671547;0.0028037320119;-1.12598314672e-06;0.00256357676116;0.0;0.0;0.0;0.0;0.0;0.000929714955716;0.0;0.0;0.0;0.0;0.0;0.0;0.0;0.0;0.0;0.0;0.0;0.0;0.0;0.0;0.0;0.0;0.0;0.0;0.0;0.0;0.0;0.0;0.0;0.0;0.0;0.0;0.0
334256000000;199;334256000000;map;37.0915829374;7.7374333645;0.0;0.0;0.0;0.698536675162;0.715574254326;0.00274101272908;1.76547457613e-05;0.00254255497882;0.0;0.0;0.0;0.0;0.0;0.000908931424764;0.0;0.0;0.0;0.0;0.0;0.0;0.0;0.0;0.0;0.0;0.0;0.0;0.0;0.0;0.0;0.0;0.0;0.0;0.0;0.0;0.0;0.0;0.0;0.0;0.0;0.0;0.0
334699000000;200;334699000000;map;37.0959489973;7.93866207901;0.0;0.0;0.0;0.698842345364;0.715275734473;0.00270204146909;-2.11590702293e-06;0.00253830330277;0.0;0.0;0.0;0.0;0.0;0.000878762903412;0.0;0.0;0.0;0.0;0.0;0.0;0.0;0.0;0.0;0.0;0.0;0.0;0.0;0.0;0.0;0.0;0.0;0.0;0.0;0.0;0.0;0.0;0.0;0.0;0.0;0.0;0.0
335049000000;201;335049000000;map;37.0997538416;8.13976412794;0.0;0.0;0.0;0.698724467608;0.715390885017;0.00265106703023;-8.03447107955e-06;0.00253485450891;0.0;0.0;0.0;0.0;0.0;0.00083013055746;0.0;0.0;0.0;0.0;0.0;0.0;0.0;0.0;0.0;0.0;0.0;0.0;0.0;0.0;0.0;0.0;0.0;0.0;0.0;0.0;0.0;0.0;0.0;0.0;0.0;0.0;0.0
335504000000;202;335504000000;map;37.1053959108;8.34132827401;0.0;0.0;0.0;0.69880523896;0.71531198648;0.00263526094136;-3.90518639506e-05;0.00258071893303;0.0;0.0;0.0;0.0;0.0;0.000819515920264;0.0;0.0;0.0;0.0;0.0;0.0;0.0;0.0;0.0;0.0;0.0;0.0;0.0;0.0;0.0;0.0;0.0;0.0;0.0;0.0;0.0;0.0;0.0;0.0;0.0;0.0;0.0
335854000000;203;335854000000;map;37.1108523483;8.54451205337;0.0;0.0;0.0;0.698774726113;0.715341793932;0.00256769114776;-5.0620711761e-05;0.00260922129701;0.0;0.0;0.0;0.0;0.0;0.000794997467663;0.0;0.0;0.0;0.0;0.0;0.0;0.0;0.0;0.0;0.0;0.0;0.0;0.0;0.0;0.0;0.0;0.0;0.0;0.0;0.0;0.0;0.0;0.0;0.0;0.0;0.0;0.0
336314000000;204;336314000000;map;37.1155593225;8.74485543473;0.0;0.0;0.0;0.698935278161;0.715184924996;0.00251151857742;-8.21121089984e-05;0.00256278100274;0.0;0.0;0.0;0.0;0.0;0.000759066286633;0.0;0.0;0.0;0.0;0.0;0.0;0.0;0.0;0.0;0.0;0.0;0.0;0.0;0.0;0.0;0.0;0.0;0.0;0.0;0.0;0.0;0.0;0.0;0.0;0.0;0.0;0.0
336706000000;205;336706000000;map;37.1210470571;8.94621560501;0.0;0.0;0.0;0.698615771441;0.715497032764;0.00242622775249;-0.000106534925692;0.00250680562692;0.0;0.0;0.0;0.0;0.0;0.000757779437937;0.0;0.0;0.0;0.0;0.0;0.0;0.0;0.0;0.0;0.0;0.0;0.0;0.0;0.0;0.0;0.0;0.0;0.0;0.0;0.0;0.0;0.0;0.0;0.0;0.0;0.0;0.0
337058000000;206;337058000000;map;37.1246433078;9.14664798614;0.0;0.0;0.0;0.698791423558;0.715325482813;0.00240186257679;-9.48951586111e-05;0.00252193350222;0.0;0.0;0.0;0.0;0.0;0.000727875182643;0.0;0.0;0.0;0.0;0.0;0.0;0.0;0.0;0.0;0.0;0.0;0.0;0.0;0.0;0.0;0.0;0.0;0.0;0.0;0.0;0.0;0.0;0.0;0.0;0.0;0.0;0.0
337564000000;207;337564000000;map;37.1289764398;9.35679822611;0.0;0.0;0.0;0.698834261162;0.715283632852;0.00240407635943;-5.23342819179e-05;0.00248217098216;0.0;0.0;0.0;0.0;0.0;0.000737262298745;0.0;0.0;0.0;0.0;0.0;0.0;0.0;0.0;0.0;0.0;0.0;0.0;0.0;0.0;0.0;0.0;0.0;0.0;0.0;0.0;0.0;0.0;0.0;0.0;0.0;0.0;0.0
337905000000;208;337905000000;map;37.134884874;9.55670891067;0.0;0.0;0.0;0.698718532557;0.715396681752;0.0023875361635;-8.62611354933e-05;0.00243571114922;0.0;0.0;0.0;0.0;0.0;0.00071448241656;0.0;0.0;0.0;0.0;0.0;0.0;0.0;0.0;0.0;0.0;0.0;0.0;0.0;0.0;0.0;0.0;0.0;0.0;0.0;0.0;0.0;0.0;0.0;0.0;0.0;0.0;0.0
338253000000;209;338253000000;map;37.1408351385;9.76582771911;0.0;0.0;0.0;0.698495427321;0.715614517748;0.00239366650658;-8.35534683006e-05;0.00243730268421;0.0;0.0;0.0;0.0;0.0;0.000748322757714;0.0;0.0;0.0;0.0;0.0;0.0;0.0;0.0;0.0;0.0;0.0;0.0;0.0;0.0;0.0;0.0;0.0;0.0;0.0;0.0;0.0;0.0;0.0;0.0;0.0;0.0;0.0
338710000000;210;338710000000;map;37.1459942455;9.96760498227;0.0;0.0;0.0;0.698332294524;0.715773711744;0.00239821188779;-6.44445549938e-05;0.00254415957968;0.0;0.0;0.0;0.0;0.0;0.000723988551569;0.0;0.0;0.0;0.0;0.0;0.0;0.0;0.0;0.0;0.0;0.0;0.0;0.0;0.0;0.0;0.0;0.0;0.0;0.0;0.0;0.0;0.0;0.0;0.0;0.0;0.0;0.0
339151000000;211;339151000000;map;37.1505857104;10.1692070543;0.0;0.0;0.0;0.698318225696;0.715787437484;0.0024736978462;-6.70726103635e-05;0.00250096619854;0.0;0.0;0.0;0.0;0.0;0.000701841577436;0.0;0.0;0.0;0.0;0.0;0.0;0.0;0.0;0.0;0.0;0.0;0.0;0.0;0.0;0.0;0.0;0.0;0.0;0.0;0.0;0.0;0.0;0.0;0.0;0.0;0.0;0.0
339492000000;212;339492000000;map;37.1558136818;10.3714653668;0.0;0.0;0.0;0.698448876397;0.715659952114;0.00253964496233;-6.76302219063e-05;0.00251207889872;0.0;0.0;0.0;0.0;0.0;0.000684219571439;0.0;0.0;0.0;0.0;0.0;0.0;0.0;0.0;0.0;0.0;0.0;0.0;0.0;0.0;0.0;0.0;0.0;0.0;0.0;0.0;0.0;0.0;0.0;0.0;0.0;0.0;0.0
339967000000;213;339967000000;map;37.1611014696;10.5740956529;0.0;0.0;0.0;0.698514658525;0.715595746093;0.00251678361451;-4.3994191401e-05;0.00242690278945;0.0;0.0;0.0;0.0;0.0;0.000639749548445;0.0;0.0;0.0;0.0;0.0;0.0;0.0;0.0;0.0;0.0;0.0;0.0;0.0;0.0;0.0;0.0;0.0;0.0;0.0;0.0;0.0;0.0;0.0;0.0;0.0;0.0;0.0
340307000000;214;340307000000;map;37.1658640229;10.7790300729;0.0;0.0;0.0;0.698769054648;0.715347334004;0.00248986564998;-6.68363198884e-05;0.00240481354547;0.0;0.0;0.0;0.0;0.0;0.000646876944795;0.0;0.0;0.0;0.0;0.0;0.0;0.0;0.0;0.0;0.0;0.0;0.0;0.0;0.0;0.0;0.0;0.0;0.0;0.0;0.0;0.0;0.0;0.0;0.0;0.0;0.0;0.0
340746368818;215;340746368818;map;37.1701490314;10.9804087729;0.0;0.0;0.0;0.698639673552;0.715473693814;0.00249948184774;-0.000100434618275;0.0023214534653;0.0;0.0;0.0;0.0;0.0;0.000630191468799;0.0;0.0;0.0;0.0;0.0;0.0;0.0;0.0;0.0;0.0;0.0;0.0;0.0;0.0;0.0;0.0;0.0;0.0;0.0;0.0;0.0;0.0;0.0;0.0;0.0;0.0;0.0
341092000000;216;341092000000;map;37.1741279095;11.1843181548;0.0;0.0;0.0;0.698872562055;0.71524621076;0.00246611219973;-0.00013370513858;0.00237345716069;0.0;0.0;0.0;0.0;0.0;0.000594542495248;0.0;0.0;0.0;0.0;0.0;0.0;0.0;0.0;0.0;0.0;0.0;0.0;0.0;0.0;0.0;0.0;0.0;0.0;0.0;0.0;0.0;0.0;0.0;0.0;0.0;0.0;0.0
341533000000;217;341533000000;map;37.1793902448;11.3849381957;0.0;0.0;0.0;0.69876973573;0.715346668705;0.00239443138139;-0.000184772181342;0.00240670368444;0.0;0.0;0.0;0.0;0.0;0.000574466704959;0.0;0.0;0.0;0.0;0.0;0.0;0.0;0.0;0.0;0.0;0.0;0.0;0.0;0.0;0.0;0.0;0.0;0.0;0.0;0.0;0.0;0.0;0.0;0.0;0.0;0.0;0.0
341907419997;218;341907419997;map;37.1862003482;11.5852029157;0.0;0.0;0.0;0.698781789626;0.715334893939;0.00234301575733;-0.000208703769033;0.00243220472532;0.0;0.0;0.0;0.0;0.0;0.000572736234917;0.0;0.0;0.0;0.0;0.0;0.0;0.0;0.0;0.0;0.0;0.0;0.0;0.0;0.0;0.0;0.0;0.0;0.0;0.0;0.0;0.0;0.0;0.0;0.0;0.0;0.0;0.0
342345000000;219;342345000000;map;37.1897626093;11.7884149512;0.0;0.0;0.0;0.698885287929;0.715233775989;0.0022578621215;-0.00019754587629;0.0024441442223;0.0;0.0;0.0;0.0;0.0;0.000576167646632;0.0;0.0;0.0;0.0;0.0;0.0;0.0;0.0;0.0;0.0;0.0;0.0;0.0;0.0;0.0;0.0;0.0;0.0;0.0;0.0;0.0;0.0;0.0;0.0;0.0;0.0;0.0
342792000000;220;342792000000;map;37.1941877453;11.9986687973;0.0;0.0;0.0;0.699092825376;0.715030923462;0.00227291835995;-0.000208035668834;0.0025120599152;0.0;0.0;0.0;0.0;0.0;0.000604357470991;0.0;0.0;0.0;0.0;0.0;0.0;0.0;0.0;0.0;0.0;0.0;0.0;0.0;0.0;0.0;0.0;0.0;0.0;0.0;0.0;0.0;0.0;0.0;0.0;0.0;0.0;0.0
343130000000;221;343130000000;map;37.1983975373;12.1998706014;0.0;0.0;0.0;0.699409377004;0.714721290685;0.00226773065742;-0.00020899054141;0.00249342538896;0.0;0.0;0.0;0.0;0.0;0.000611141294034;0.0;0.0;0.0;0.0;0.0;0.0;0.0;0.0;0.0;0.0;0.0;0.0;0.0;0.0;0.0;0.0;0.0;0.0;0.0;0.0;0.0;0.0;0.0;0.0;0.0;0.0;0.0
343585000000;222;343585000000;map;37.2024641008;12.4003620725;0.0;0.0;0.0;0.69941914854;0.71471172836;0.00233145777383;-0.000204702417022;0.00254836783392;0.0;0.0;0.0;0.0;0.0;0.000595674268407;0.0;0.0;0.0;0.0;0.0;0.0;0.0;0.0;0.0;0.0;0.0;0.0;0.0;0.0;0.0;0.0;0.0;0.0;0.0;0.0;0.0;0.0;0.0;0.0;0.0;0.0;0.0
343934000000;223;343934000000;map;37.206696519;12.6028055492;0.0;0.0;0.0;0.69947536546;0.714656709977;0.00233710743692;-0.0002225022875;0.00252823142236;0.0;0.0;0.0;0.0;0.0;0.000591577861852;0.0;0.0;0.0;0.0;0.0;0.0;0.0;0.0;0.0;0.0;0.0;0.0;0.0;0.0;0.0;0.0;0.0;0.0;0.0;0.0;0.0;0.0;0.0;0.0;0.0;0.0;0.0
344382356087;224;344382356087;map;37.2104436687;12.8132277173;0.0;0.0;0.0;0.699734492112;0.714402995899;0.00232739986859;-0.000240434239174;0.00252228167636;0.0;0.0;0.0;0.0;0.0;0.000592303439799;0.0;0.0;0.0;0.0;0.0;0.0;0.0;0.0;0.0;0.0;0.0;0.0;0.0;0.0;0.0;0.0;0.0;0.0;0.0;0.0;0.0;0.0;0.0;0.0;0.0;0.0;0.0
