%time,field.x,field.y,field.z,field.w
1521803950170667886,2.02991228936e-06,-2.05954828282e-06,-0.707142028618,0.707071531992
1521803950171466112,2.02993928743e-06,-2.05957929152e-06,-0.707142028594,0.707071532016
1521803950178097009,2.02996625877e-06,-2.05961026946e-06,-0.70714202857,0.70707153204
1521803950178637027,2.02999320319e-06,-2.0596412166e-06,-0.707142028545,0.707071532065
1521803950179248094,2.03002012095e-06,-2.05967213314e-06,-0.707142028521,0.707071532089
1521803950179420948,2.03004701198e-06,-2.059703019e-06,-0.707142028497,0.707071532113
1521803950179558992,2.03007387627e-06,-2.05973387411e-06,-0.707142028473,0.707071532137
1521803950190188884,2.03010071394e-06,-2.05976469865e-06,-0.707142028449,0.707071532162
1521803950190887928,2.03012752504e-06,-2.05979549263e-06,-0.707142028424,0.707071532186
1521803950190978050,2.03015430949e-06,-2.05982625604e-06,-0.7071420284,0.70707153221
1521803950191056013,2.03018106728e-06,-2.05985698892e-06,-0.707142028376,0.707071532234
1521803950191133022,2.03020779848e-06,-2.0598876912e-06,-0.707142028352,0.707071532258
1521803950191209077,2.03023450323e-06,-2.0599183632e-06,-0.707142028328,0.707071532283
1521803950191281080,2.03026118146e-06,-2.05994900453e-06,-0.707142028303,0.707071532307
1521803950191344022,2.0302878332e-06,-2.05997961552e-06,-0.707142028279,0.707071532331
1521803950191406011,2.03031445852e-06,-2.06001019628e-06,-0.707142028255,0.707071532355
1521803950191466093,2.03034105736e-06,-2.06004074652e-06,-0.707142028231,0.707071532379
1521803950194267988,2.0303676298e-06,-2.06007126659e-06,-0.707142028207,0.707071532403
1521803950197696924,2.03039417583e-06,-2.06010175621e-06,-0.707142028183,0.707071532428
1521803950197813987,2.03042069547e-06,-2.06013221569e-06,-0.707142028158,0.707071532452
1521803950198321104,2.03044718896e-06,-2.06016264496e-06,-0.707142028134,0.707071532476
1521803950198497056,2.030473656e-06,-2.06019304391e-06,-0.70714202811,0.7070715325
1521803950274004936,2.03050009682e-06,-2.06022341287e-06,-0.707142028086,0.707071532524
1521803950321937084,2.0305265113e-06,-2.06025375151e-06,-0.707142028062,0.707071532548
1521803950411170005,2.03055289966e-06,-2.06028406003e-06,-0.707142028038,0.707071532572
1521803950446360111,2.03057926177e-06,-2.0603143387e-06,-0.707142028014,0.707071532596
1521803950478226900,-5.00251170227e-07,-4.75022378032e-06,-0.707142762816,0.70707079771
1521803950478374958,-6.01600171837e-07,-4.81923042516e-06,-0.707143527393,0.707070033054
1521803950523924112,-5.92639318513e-07,-4.82357362853e-06,-0.707143757876,0.707069802547
1521803950526489019,-5.89705859427e-07,-4.82481566167e-06,-0.707143835107,0.707069725308
1521803950540317058,-5.88952179514e-07,-4.82489328477e-06,-0.707143862156,0.707069698255
1521803950540458917,-5.89154568444e-07,-4.8242726738e-06,-0.707143872535,0.707069687875
1521803950541177034,-5.90016134365e-07,-4.82296165252e-06,-0.707143877265,0.707069683145
1521803950574361085,-5.91562152235e-07,-4.82079681033e-06,-0.707143879969,0.707069680441
1521803950575917005,-5.93937303578e-07,-4.81754114908e-06,-0.707143881818,0.707069678592
1521803950575993061,-5.97332908768e-07,-4.81292385192e-06,-0.707143883159,0.70706967725
1521803950615052938,-6.01954592864e-07,-4.80666445573e-06,-0.707143884062,0.707069676347
1521803950615416049,-6.0800044995e-07,-4.7984957422e-06,-0.707143884493,0.707069675916
1521803950615515947,-6.15639576198e-07,-4.78819036419e-06,-0.707143884381,0.707069676028
1521803950615622043,-6.24987693216e-07,-4.77559275827e-06,-0.707143883642,0.707069676768
1521803950654617071,1.99749394043e-06,-2.01795548562e-06,-0.707142540764,0.707071019795
1521803950656887054,1.97046686992e-06,-1.99651022971e-06,-0.707142205665,0.707071354928
1521803950700858116,1.95185403102e-06,-1.98058744518e-06,-0.707142094766,0.707071465838
1521803950743156909,1.93632713744e-06,-1.96606031386e-06,-0.707142056395,0.707071504213
1521803950781842947,1.92198675269e-06,-1.95215419831e-06,-0.707142041896,0.707071518713
1521803950781944036,1.90841790948e-06,-1.9388278116e-06,-0.707142035316,0.707071525294
1521803950781982898,1.89568590225e-06,-1.92626778747e-06,-0.707142031411,0.707071529199
1521803950822948932,1.88400141864e-06,-1.91472249193e-06,-0.707142028469,0.707071532142
1521803950878102064,1.87360568384e-06,-1.90444327471e-06,-0.707142025949,0.707071534663
1521803950918843030,1.86472850567e-06,-1.89566119617e-06,-0.707142023692,0.70707153692
1521803950919094085,1.85757093445e-06,-1.88857593588e-06,-0.707142021667,0.707071538945
1521803950919228076,1.85229665389e-06,-1.88334929896e-06,-0.70714201988,0.707071540732
1521803950957927942,1.84902690564e-06,-1.88010087445e-06,-0.707142018346,0.707071542266
1521803950961812019,1.84783727342e-06,-1.87890508589e-06,-0.707142017079,0.707071543533
1521803950998492956,1.84875580794e-06,-1.87978941827e-06,-0.707142016088,0.707071544524
1521803951037878990,1.85176233624e-06,-1.88273376402e-06,-0.707142015378,0.707071545235
1521803951077950954,1.85678890813e-06,-1.88767087581e-06,-0.707142014945,0.707071545668
1521803951078056097,1.86372134665e-06,-1.89448790144e-06,-0.70714201478,0.707071545832
1521803951118063926,1.87240185937e-06,-1.90302896571e-06,-0.70714201487,0.707071545743
1521803951118159055,1.88263264976e-06,-1.91309873678e-06,-0.707142015192,0.70707154542
1521803951158132076,1.89418044318e-06,-1.92446689597e-06,-0.707142015722,0.70707154489
1521803951192923069,1.90678182638e-06,-1.93687340839e-06,-0.707142016428,0.707071544184
1521803951232186079,1.92014927438e-06,-1.95003447463e-06,-0.707142017275,0.707071543336
1521803951232299089,1.93397773125e-06,-1.96364902474e-06,-0.707142018227,0.707071542385
1521803951269933938,1.94795159025e-06,-1.97740561006e-06,-0.707142019241,0.70707154137
1521803951270010948,1.96175191672e-06,-1.99098953008e-06,-0.707142020277,0.707071540334
1521803951310343980,1.97506374518e-06,-2.00409003617e-06,-0.707142021292,0.707071539319
1521803951314488887,1.98758328822e-06,-2.01640744296e-06,-0.707142022244,0.707071538367
1521803951350210905,1.99902488716e-06,-2.0276599877e-06,-0.707142023094,0.707071537517
1521803951389841079,2.00912754926e-06,-2.03759027859e-06,-0.707142023803,0.707071536808
1521803951389966964,2.01766092072e-06,-2.04597118607e-06,-0.707142024336,0.707071536275
1521803951430084943,2.02443055777e-06,-2.05261104063e-06,-0.707142024662,0.707071535948
1521803951498503923,2.02928237671e-06,-2.05735801886e-06,-0.707142024757,0.707071535854
1521803951541898012,2.03210618102e-06,-2.06010361854e-06,-0.707142024598,0.707071536012
1521803951542041063,2.03283818319e-06,-2.06078514053e-06,-0.707142024172,0.707071536439
1521803951542103052,2.03146246449e-06,-2.05938712379e-06,-0.707142023469,0.707071537141
1521803951578075885,2.02801134104e-06,-2.05594169798e-06,-0.707142022488,0.707071538123
1521803951578174114,2.0225646241e-06,-2.05052784803e-06,-0.707142021232,0.707071539379
1521803951582971096,2.01524779442e-06,-2.04326960615e-06,-0.707142019711,0.7070715409
1521803951631683111,2.00622913104e-06,-2.03433321196e-06,-0.707142017943,0.707071542668
1521803951670753002,1.99571586021e-06,-2.02392330849e-06,-0.707142015949,0.707071544663
1521803951671103954,1.98394941368e-06,-2.01227825806e-06,-0.707142013756,0.707071546856
1521803951710182905,1.97119990305e-06,-1.99966468797e-06,-0.707142011397,0.707071549216
1521803951710266113,1.95775993827e-06,-1.98637138815e-06,-0.707142008906,0.707071551707
1521803951750746965,1.94393793055e-06,-1.97270270272e-06,-0.707142006323,0.70707155429
1521803951757801055,1.930051034e-06,-1.95897156536e-06,-0.707142003688,0.707071556925
1521803951793946027,1.91641788667e-06,-1.94549233867e-06,-0.707142001044,0.707071559569
1521803951834913969,1.90335131832e-06,-1.93257362013e-06,-0.707141998433,0.707071562181
1521803951835231065,1.89115119009e-06,-1.92051118043e-06,-0.707141995895,0.707071564719
1521803951889543056,1.88009753188e-06,-1.90958119585e-06,-0.707141993471,0.707071567143
1521803951911263942,1.8704441333e-06,-1.9000339271e-06,-0.707141991199,0.707071569416
1521803951950968027,1.86241273549e-06,-1.89208799368e-06,-0.707141989112,0.707071571503
1521803951991044998,1.85618795643e-06,-1.8859253699e-06,-0.707141987239,0.707071573377
1521803951991131067,1.85191306605e-06,-1.88168722074e-06,-0.707141985605,0.707071575011
1521803951991168975,1.84968670775e-06,-1.8794706707e-06,-0.707141984229,0.707071576386
1521803952031203031,1.84956064137e-06,-1.87932658078e-06,-0.707141983125,0.70707157749
1521803952033411026,1.85153855914e-06,-1.88125838411e-06,-0.7071419823,0.707071578316
1521803952070646047,1.85557600216e-06,-1.8852220065e-06,-0.707141981754,0.707071578861
1521803952110084056,1.86158137766e-06,-1.89112687472e-06,-0.707141981482,0.707071579133
1521803952110156059,1.86941805672e-06,-1.89883798846e-06,-0.707141981472,0.707071579143
1521803952149983882,1.87890750078e-06,-1.90817900943e-06,-0.707141981707,0.707071578909
1521803952175122022,1.88983334789e-06,-1.91893629687e-06,-0.707141982161,0.707071578454
1521803952214390993,1.90194636479e-06,-1.93086379606e-06,-0.707141982808,0.707071577808
1521803952271984100,1.91497014976e-06,-1.94368866956e-06,-0.707141983614,0.707071577001
1521803952310487031,1.92860745898e-06,-1.95711754167e-06,-0.707141984542,0.707071576073
1521803952310586929,1.94254700749e-06,-1.97084321232e-06,-0.707141985554,0.707071575061
1521803952310630083,1.95647059369e-06,-1.98455168827e-06,-0.707141986608,0.707071574006
1521803952310663938,1.97006037971e-06,-1.99792936902e-06,-0.707141987663,0.707071572952
1521803952350001096,1.98300616549e-06,-2.01067022494e-06,-0.707141988675,0.70707157194
1521803952383912086,1.9950124864e-06,-2.02248280098e-06,-0.707141989603,0.707071571011
1521803952423038959,2.00580537564e-06,-2.03309688725e-06,-0.70714199041,0.707071570204
1521803952423131942,2.01513863232e-06,-2.04226970359e-06,-0.707141991057,0.707071569557
1521803952466638088,2.02279945687e-06,-2.04979145527e-06,-0.707141991513,0.707071569101
1521803952466859102,2.02861332016e-06,-2.0554901348e-06,-0.707141991748,0.707071568866
1521803952506215095,2.03244795841e-06,-2.05923545822e-06,-0.70714199174,0.707071568874
1521803952521606922,2.03421639999e-06,-2.06094184578e-06,-0.707141991471,0.707071569143
1521803952557779073,2.03387895641e-06,-2.06057038092e-06,-0.707141990929,0.707071569685
1521803952557849884,2.03144413151e-06,-2.05812969969e-06,-0.707141990109,0.707071570505
1521803952624778032,2.02696842699e-06,-2.05367579239e-06,-0.707141989011,0.707071571603
1521803952624989986,2.02055505014e-06,-2.04731072203e-06,-0.707141987642,0.707071572972
1521803952662328958,2.0123515525e-06,-2.03918028797e-06,-0.707141986017,0.707071574597
1521803952662585973,2.00254645348e-06,-2.02947068854e-06,-0.707141984155,0.70707157646
1521803952703022956,1.9913649264e-06,-2.01840425969e-06,-0.707141982079,0.707071578535
1521803952744568109,1.97906364511e-06,-2.00623438673e-06,-0.707141979821,0.707071580794
1521803952782005071,1.96592491038e-06,-1.99323970548e-06,-0.707141977414,0.707071583202
1521803952782095909,1.95225018861e-06,-1.97971772601e-06,-0.707141974894,0.707071585721
1521803952782159090,1.93835321224e-06,-1.96597802423e-06,-0.707141972303,0.707071588313
1521803952839704036,1.92455279984e-06,-1.95233515792e-06,-0.707141969681,0.707071590935
1521803952839907884,1.91116555883e-06,-1.93910146839e-06,-0.707141967071,0.707071593546
1521803952883869886,1.89849863944e-06,-1.92657993341e-06,-0.707141964515,0.707071596102
1521803952923167943,1.88684270465e-06,-1.91505723397e-06,-0.707141962053,0.707071598564
1521803952923341989,1.87646527853e-06,-1.90479719342e-06,-0.707141959724,0.707071600893
1521803952962311029,1.86760462262e-06,-1.89603474134e-06,-0.707141957564,0.707071603054
1521803952962534904,1.86046428384e-06,-1.88897053638e-06,-0.707141955605,0.707071605014
1521803953002084016,1.85520843599e-06,-1.88376637431e-06,-0.707141953873,0.707071606746
1521803953020862102,1.85195812306e-06,-1.8805414855e-06,-0.70714195239,0.707071608229
1521803953059386968,1.85078848922e-06,-1.87936980555e-06,-0.707141951173,0.707071609445
1521803953098083019,1.85172705963e-06,-1.88027828297e-06,-0.707141950233,0.707071610386
1521803953098196029,1.85475311146e-06,-1.88324626175e-06,-0.707141949572,0.707071611047
1521803953139153957,1.85979814831e-06,-1.8882059535e-06,-0.707141949188,0.707071611431
1521803953164041042,1.86674746883e-06,-1.89504398831e-06,-0.707141949073,0.707071611546
1521803953207381010,1.87544279149e-06,-1.90360400835e-06,-0.707141949212,0.707071611407
1521803953207742929,1.88568587831e-06,-1.91369024621e-06,-0.707141949583,0.707071611035
1521803953243279933,1.89724307065e-06,-1.92507200444e-06,-0.707141950162,0.707071610457
1521803953243597984,1.90985063742e-06,-1.93748893542e-06,-0.707141950916,0.707071609703
1521803953282038927,1.92322080995e-06,-1.95065699891e-06,-0.707141951811,0.707071608808
1521803953319735050,1.93704836762e-06,-1.9642749635e-06,-0.707141952809,0.707071607809
1521803953358071088,1.9510176224e-06,-1.97803130006e-06,-0.70714195387,0.707071606748
1521803953358179092,1.96480964279e-06,-1.99161131248e-06,-0.707141954952,0.707071605666
1521803953397859096,1.97810955214e-06,-2.00470433932e-06,-0.707141956012,0.707071604605
1521803953397942066,1.99061373378e-06,-2.01701086461e-06,-0.707141957009,0.707071603608
1521803953438630104,2.00203677914e-06,-2.02824937286e-06,-0.707141957903,0.707071602714
1521803953455882072,2.01211801909e-06,-2.03816279167e-06,-0.707141958656,0.707071601961
1521803953494441986,2.02062748865e-06,-2.04652437585e-06,-0.707141959232,0.707071601385
1521803953494621992,2.02737119019e-06,-2.0531428962e-06,-0.707141959602,0.707071601015
1521803953534054040,2.03219553295e-06,-2.05786701586e-06,-0.707141959739,0.707071600878
1521803953534914016,2.03499084833e-06,-2.06058875394e-06,-0.707141959623,0.707071600994
1521803953574027061,2.03569389994e-06,-2.06124595531e-06,-0.707141959239,0.707071601378
1521803953614170074,2.03428933196e-06,-2.05982371392e-06,-0.707141958578,0.707071602039
1521803953614346027,2.03081001999e-06,-2.05635471193e-06,-0.707141957639,0.707071602978
1521803953654376983,2.0253363208e-06,-2.05091847212e-06,-0.707141956425,0.707071604192
1521803953667602062,2.01799423248e-06,-2.04363953692e-06,-0.707141954947,0.707071605671
1521803953706420898,2.00895251262e-06,-2.034684618e-06,-0.707141953221,0.707071607397
1521803953746138095,1.99841881548e-06,-2.02425878029e-06,-0.707141951269,0.707071609349
1521803953746252059,1.98663494089e-06,-2.01260074902e-06,-0.707141949119,0.707071611499
1521803953787197113,1.97387130026e-06,-1.99997744653e-06,-0.707141946803,0.707071613816
1521803953787620067,1.96042072757e-06,-1.98667788371e-06,-0.707141944356,0.707071616263
1521803953825943946,1.946591778e-06,-1.97300654607e-06,-0.707141941817,0.707071618802
1521803953831564903,1.93270166554e-06,-1.95927642623e-06,-0.707141939227,0.707071621393
1521803953871524095,1.91906900342e-06,-1.94580186157e-06,-0.707141936627,0.707071623993
1521803953910218000,1.90600651173e-06,-1.93289134108e-06,-0.707141934061,0.707071626559
1521803953910301923,1.89381385975e-06,-1.92084044612e-06,-0.707141931569,0.707071629051
1521803953950232982,1.88277080835e-06,-1.90992508658e-06,-0.707141929192,0.707071631429
1521803953959225893,1.87313080626e-06,-1.90039518695e-06,-0.707141926966,0.707071633655
1521803953998333930,1.86511519005e-06,-1.89246896727e-06,-0.707141924925,0.707071635696
1521803954038121938,1.85890811887e-06,-1.88632794882e-06,-0.707141923099,0.707071637523
1521803954079189062,1.85465235964e-06,-1.88211280035e-06,-0.707141921512,0.707071639109
1521803954079402923,1.85244602057e-06,-1.87992011804e-06,-0.707141920184,0.707071640438
1521803954119797945,1.852340306e-06,-1.87980021489e-06,-0.707141919128,0.707071641494
1521803954119875907,1.8543383454e-06,-1.88175596873e-06,-0.70714191835,0.707071642272
1521803954157921075,1.85839512209e-06,-1.8857427552e-06,-0.707141917852,0.707071642771
1521803954162605047,1.86441850446e-06,-1.89166946926e-06,-0.707141917627,0.707071642995
1521803954202892065,1.87227135453e-06,-1.89940060865e-06,-0.707141917664,0.707071642958
1521803954242244005,1.88177466721e-06,-1.9087593751e-06,-0.707141917944,0.707071642677
1521803954242367029,1.89271166685e-06,-1.91953171957e-06,-0.707141918445,0.707071642176
1521803954283129930,1.90483276853e-06,-1.93147124098e-06,-0.707141919138,0.707071641484
1521803954283520936,1.91786128978e-06,-1.944304825e-06,-0.707141919989,0.707071640632
1521803954322459936,1.93149978224e-06,-1.95773889462e-06,-0.707141920963,0.707071639659
1521803954335042953,1.94543683842e-06,-1.97146612908e-06,-0.707141922019,0.707071638602
1521803954370199918,1.95935421764e-06,-1.98517249702e-06,-0.707141923117,0.707071637504
1521803954410643100,1.97293412898e-06,-1.99854444493e-06,-0.707141924215,0.707071636406
1521803954410702943,1.98586650283e-06,-2.01127607222e-06,-0.707141925269,0.707071635351
1521803954454453945,1.99785608645e-06,-2.02307613323e-06,-0.70714192624,0.70707163438
1521803954458070993,2.00862920078e-06,-2.03367470263e-06,-0.707141927088,0.707071633532
1521803954493906974,2.01794000305e-06,-2.0428293537e-06,-0.707141927777,0.707071632843
1521803954534301042,2.0255761124e-06,-2.05033070541e-06,-0.707141928273,0.707071632347
1521803954534399986,2.03136347077e-06,-2.05600721537e-06,-0.707141928549,0.707071632071
1521803954578587055,2.0351703265e-06,-2.05972910514e-06,-0.707141928582,0.707071632038
1521803954582963943,2.03691024952e-06,-2.06141132947e-06,-0.707141928353,0.707071632268
1521803954618052005,2.03654410989e-06,-2.06101552294e-06,-0.70714192785,0.70707163277
1521803954693262100,2.03408097409e-06,-2.05855087665e-06,-0.70714192707,0.707071633551
1521803954729917049,2.02957789774e-06,-2.05407392771e-06,-0.707141926011,0.707071634609
1521803954730024099,2.02313862105e-06,-2.04768726455e-06,-0.707141924683,0.707071635938
1521803954730067014,2.01491119479e-06,-2.03953717877e-06,-0.707141923098,0.707071637523
1521803954771178007,2.00508459231e-06,-2.02981031645e-06,-0.707141921275,0.707071639346
1521803954771277904,1.99388438586e-06,-2.01872940694e-06,-0.70714191924,0.707071641381
1521803954808675050,1.98156758394e-06,-2.00654816494e-06,-0.707141917023,0.707071643599
1521803954834640979,1.96841674909e-06,-1.99354548457e-06,-0.707141914656,0.707071645965
1521803954874257087,1.95473353209e-06,-1.98001905703e-06,-0.707141912179,0.707071648444
1521803954874353885,1.94083176697e-06,-1.96627855827e-06,-0.707141909629,0.707071650993
1521803954914355039,1.92703028929e-06,-1.95263856226e-06,-0.70714190705,0.707071653573
1521803954941425085,1.91364563868e-06,-1.939411343e-06,-0.707141904482,0.707071656141
1521803954978149890,1.9009848134e-06,-1.92689972813e-06,-0.707141901969,0.707071658654
1521803955019028902,1.88933824529e-06,-1.91539016974e-06,-0.707141899551,0.707071661073
1521803955019145011,1.87897315151e-06,-1.9051461888e-06,-0.707141897266,0.707071663358
1521803955019220113,1.87012741977e-06,-1.89640234523e-06,-0.707141895151,0.707071665474
1521803955058053016,1.86300416374e-06,-1.88935887005e-06,-0.707141893236,0.707071667389
1521803955089319944,1.85776707455e-06,-1.88417708286e-06,-0.707141891548,0.707071669076
1521803955127532958,1.8545366755e-06,-1.88097570015e-06,-0.707141890111,0.707071670514
1521803955127983093,1.85338756373e-06,-1.87982811767e-06,-0.707141888939,0.707071671686
1521803955170849084,1.85434670339e-06,-1.88076073031e-06,-0.707141888044,0.707071672581
1521803955171524047,1.85739281017e-06,-1.88375232815e-06,-0.707141887428,0.707071673197
1521803955209933042,1.86245683779e-06,-1.88873458031e-06,-0.70714188709,0.707071673536
1521803955240233898,1.86942355936e-06,-1.89559359855e-06,-0.707141887019,0.707071673606
1521803955279300928,1.87813420498e-06,-1.90417254319e-06,-0.707141887203,0.707071673422
1521803955279460906,1.88839009497e-06,-1.91427521159e-06,-0.707141887618,0.707071673007
1521803955318157911,1.89995718802e-06,-1.92567052869e-06,-0.70714188824,0.707071672385
1521803955318221092,1.91257143581e-06,-1.93809783416e-06,-0.707141889038,0.707071671587
1521803955358002901,1.92594482723e-06,-1.951272849e-06,-0.707141889976,0.707071670649
1521803955359021902,1.9397719779e-06,-1.96489418041e-06,-0.707141891016,0.707071669608
1521803955398924112,1.95373711933e-06,-1.97865022055e-06,-0.707141892119,0.707071668505
1521803955438023090,1.96752132467e-06,-1.99222627806e-06,-0.707141893242,0.707071667382
1521803955478960990,1.98080980653e-06,-2.00531178031e-06,-0.707141894343,0.70707166628
1521803955479387044,1.99329912048e-06,-2.01760738154e-06,-0.707141895381,0.707071665243
1521803955519180059,2.0047041091e-06,-2.02883181445e-06,-0.707141896315,0.707071664309
1521803955519452095,2.0147644273e-06,-2.03872832701e-06,-0.707141897106,0.707071663517
1521803955558080911,2.02325050011e-06,-2.04707055899e-06,-0.707141897722,0.707071662902
1521803955594893932,2.02996877647e-06,-2.05366772217e-06,-0.70714189813,0.707071662493
1521803955635124921,2.03476615887e-06,-2.0583689668e-06,-0.707141898305,0.707071662318
1521803955635585069,2.03753350713e-06,-2.0610668334e-06,-0.707141898227,0.707071662396
1521803955635735988,2.03820813666e-06,-2.06169971161e-06,-0.707141897881,0.707071662743
1521803955675653934,2.03677525375e-06,-2.06025324994e-06,-0.707141897258,0.707071663366
1521803955682172060,2.03326829412e-06,-2.05676068289e-06,-0.707141896356,0.707071664267
1521803955717962026,2.02776815906e-06,-2.05130207094e-06,-0.707141895179,0.707071665444
1521803955757957935,2.02040136406e-06,-2.0440024664e-06,-0.707141893739,0.707071666885
1521803955804430961,2.01133714433e-06,-2.03502905207e-06,-0.707141892051,0.707071668573
1521803955841962099,2.00078358174e-06,-2.02458731435e-06,-0.707141890137,0.707071670487
1521803955842053890,1.9889828432e-06,-2.01291634048e-06,-0.707141888025,0.707071672599
1521803955842113971,1.97620563884e-06,-2.00028334702e-06,-0.707141885748,0.707071674877
1521803955882668972,1.96274502589e-06,-1.98697756465e-06,-0.70714188334,0.707071677285
1521803955900810956,1.94890970239e-06,-1.97330361954e-06,-0.70714188084,0.707071679785
1521803955938015937,1.93501694138e-06,-1.95957456194e-06,-0.70714187829,0.707071682335
1521803955938132047,1.92138533e-06,-1.94610470312e-06,-0.707141875731,0.707071684895
1521803955978018045,1.90832747737e-06,-1.93320242235e-06,-0.707141873206,0.707071687421
1521803956005856990,1.89614286064e-06,-1.92116311069e-06,-0.707141870755,0.707071689871
1521803956047008037,1.88511097002e-06,-1.91026241095e-06,-0.707141868419,0.707071692208
1521803956086899042,1.87548491278e-06,-1.90074991042e-06,-0.707141866235,0.707071694392
1521803956087004899,1.86748562016e-06,-1.89284342891e-06,-0.707141864237,0.70707169639
1521803956087050914,1.86129679178e-06,-1.88672403415e-06,-0.707141862454,0.707071698174
1521803956126202106,1.85706069145e-06,-1.88253189825e-06,-0.70714186091,0.707071699718
1521803956131072998,1.8548748916e-06,-1.88036308882e-06,-0.707141859625,0.707071701003
1521803956170725107,1.85479004097e-06,-1.88026737062e-06,-0.707141858611,0.707071702017
1521803956210200071,1.85680870613e-06,-1.88224706609e-06,-0.707141857876,0.707071702752
1521803956210386991,1.86088531324e-06,-1.88625700116e-06,-0.707141857421,0.707071703207
1521803956250607013,1.86692719155e-06,-1.892205539e-06,-0.707141857239,0.707071703389
1521803956257371902,1.87479669498e-06,-1.89995667605e-06,-0.707141857318,0.70707170331
1521803956294441938,1.88431435238e-06,-1.90933315451e-06,-0.707141857641,0.707071702987
1521803956338454961,1.89526297519e-06,-1.920120518e-06,-0.707141858184,0.707071702444
1521803956377887010,1.90739262775e-06,-1.93207201991e-06,-0.707141858918,0.707071701709
1521803956377966880,1.92042634759e-06,-1.9449142697e-06,-0.707141859811,0.707071700817
1521803956419039011,1.93406648289e-06,-1.9583534902e-06,-0.707141860825,0.707071699803
1521803956419287919,1.9480015045e-06,-1.97208224072e-06,-0.707141861921,0.707071698706
1521803956459508895,1.96191313424e-06,-1.98578645377e-06,-0.707141863059,0.707071697568
1521803956459975004,1.9754836287e-06,-1.99915262268e-06,-0.707141864195,0.707071696432
1521803956502012968,1.98840305003e-06,-2.0118749777e-06,-0.707141865288,0.707071695338
1521803956508640050,2.00037635838e-06,-2.02366248327e-06,-0.707141866297,0.707071694329
1521803956561559915,2.01113016335e-06,-2.03424549968e-06,-0.707141867183,0.707071693444
1521803956598037004,2.0204189804e-06,-2.04338195385e-06,-0.707141867908,0.707071692718
1521803956598150968,2.02803084882e-06,-2.0508628798e-06,-0.707141868441,0.707071692185
1521803956638082981,2.03379218227e-06,-2.05651720082e-06,-0.707141868753,0.707071691873
1521803956638194084,2.03757174138e-06,-2.06021564392e-06,-0.707141868822,0.707071691804
1521803956678280115,2.03928363794e-06,-2.06187369907e-06,-0.707141868628,0.707071691998
1521803956719305992,2.03888930053e-06,-2.06145355183e-06,-0.707141868162,0.707071692465
1521803956759134054,2.03639835827e-06,-2.05896494838e-06,-0.707141867416,0.70707169321
1521803956759479045,2.03186842087e-06,-2.05446497244e-06,-0.707141866393,0.707071694233
1521803956798286914,2.02540376054e-06,-2.04805673741e-06,-0.707141865101,0.707071695526
1521803956798372030,2.01715292669e-06,-2.03988702658e-06,-0.707141863551,0.707071697076
1521803956839174985,2.0073053466e-06,-2.03014293345e-06,-0.707141861765,0.707071698862
1521803956839581966,1.99608699057e-06,-2.01904757973e-06,-0.707141859766,0.707071700861
1521803956878737926,1.98375520011e-06,-2.00685500858e-06,-0.707141857585,0.707071703043
1521803956881160020,1.97059279955e-06,-1.99384437167e-06,-0.707141855255,0.707071705372
1521803956935334920,1.95690162254e-06,-1.98031354038e-06,-0.707141852815,0.707071707813
1521803956974256038,1.94299560377e-06,-1.96657228942e-06,-0.707141850303,0.707071710325
1521803956974395036,1.92919359487e-06,-1.95293520819e-06,-0.707141847762,0.707071712867
1521803957013967037,1.91581206602e-06,-1.9397145019e-06,-0.707141845233,0.707071715396
1521803957014060974,1.90315786334e-06,-1.92721284751e-06,-0.707141842759,0.70707171787
1521803957054090023,1.89152118562e-06,-1.91571646697e-06,-0.70714184038,0.70707172025
1521803957058900117,1.8811689431e-06,-1.90548857801e-06,-0.707141838135,0.707071722495
1521803957097951889,1.8723386485e-06,-1.8967633704e-06,-0.70714183606,0.70707172457
1521803957139214992,1.86523298153e-06,-1.88974064676e-06,-0.707141834185,0.707071726445
1521803957177963972,1.86001515019e-06,-1.88458124973e-06,-0.707141832539,0.707071728092
1521803957178056001,1.85680515674e-06,-1.88140338171e-06,-0.707141831142,0.707071729489
1521803957219024896,1.85567705092e-06,-1.8802798983e-06,-0.707141830011,0.707071730619
1521803957229947090,1.85665723624e-06,-1.88123664119e-06,-0.707141829157,0.707071731474
1521803957270551919,1.85972386639e-06,-1.88425184599e-06,-0.707141828582,0.707071732049
1521803957309942960,1.8648073457e-06,-1.88925663987e-06,-0.707141828285,0.707071732346
1521803957310081005,1.87179192255e-06,-1.89613661688e-06,-0.707141828255,0.707071732376
1521803957310141086,1.88051833839e-06,-1.90473445561e-06,-0.707141828479,0.707071732152
1521803957356323003,1.89078747362e-06,-1.91485351917e-06,-0.707141828934,0.707071731696
1521803957356812000,1.90236490391e-06,-1.92626235517e-06,-0.707141829596,0.707071731034
1521803957394156932,1.91498626556e-06,-1.93869999225e-06,-0.707141830433,0.707071730198
1521803957435930967,1.92836330514e-06,-1.95188191283e-06,-0.70714183141,0.707071729221
1521803957436007022,1.94219047616e-06,-1.96550656447e-06,-0.707141832489,0.707071728141
1521803957478415012,1.9561519305e-06,-1.97926226111e-06,-0.707141833629,0.707071727001
1521803957513726949,1.96992874704e-06,-1.99283431749e-06,-0.70714183479,0.70707172584
1521803957555671930,1.98320622862e-06,-2.00591225052e-06,-0.707141835928,0.707071724702
1521803957594059944,1.99568110429e-06,-2.01819688602e-06,-0.707141837001,0.707071723628
1521803957594180107,2.00706846859e-06,-2.02940720557e-06,-0.707141837971,0.707071722658
1521803957594242095,2.01710830133e-06,-2.03928677826e-06,-0.707141838798,0.707071721831
1521803957634897947,2.02557141816e-06,-2.04760962986e-06,-0.707141839448,0.707071721181
1521803957635056018,2.03226471533e-06,-2.05418541359e-06,-0.70714183989,0.707071720739
1521803957678244113,2.03703558903e-06,-2.05886376709e-06,-0.7071418401,0.707071720529
1521803957678885936,2.03977542806e-06,-2.06153775306e-06,-0.707141840055,0.707071720573
1521803957726639032,2.04042209974e-06,-2.06214630576e-06,-0.707141839743,0.707071720886
1521803957766736984,2.03896137221e-06,-2.0606756282e-06,-0.707141839153,0.707071721476
1521803957805865049,2.0354272414e-06,-2.05715950766e-06,-0.707141838285,0.707071722344
1521803957805953025,2.029901153e-06,-2.05167854137e-06,-0.707141837142,0.707071723487
1521803957806021928,2.02251013918e-06,-2.04435829148e-06,-0.707141835735,0.707071724894
1521803957846896886,2.01342391233e-06,-2.03536641128e-06,-0.707141834081,0.707071726549
1521803957855973958,2.00285098117e-06,-2.0249088079e-06,-0.707141832202,0.707071728428
1521803957893899917,1.99103387896e-06,-2.01322492972e-06,-0.707141830124,0.707071730506
1521803957934273958,1.97824361343e-06,-2.00058228671e-06,-0.707141827882,0.707071732749
1521803957973967075,1.96477346457e-06,-1.98727032854e-06,-0.707141825509,0.707071735122
1521803957974056005,1.95093227173e-06,-1.97359382054e-06,-0.707141823045,0.707071737586
1521803958015027046,1.93703736601e-06,-1.95986586993e-06,-0.707141820531,0.707071740101
1521803958039217948,1.92340730742e-06,-1.9464007606e-06,-0.707141818008,0.707071742624
1521803958078033924,1.91035459359e-06,-1.93350676137e-06,-0.70714181552,0.707071745112
1521803958078146934,1.89817850777e-06,-1.92147907175e-06,-0.707141813106,0.707071747526
1521803958118145942,1.887158269e-06,-1.9105930667e-06,-0.707141810808,0.707071749824
1521803958118247985,1.87754664214e-06,-1.90109799526e-06,-0.707141808662,0.70707175197
1521803958158066987,1.86956415258e-06,-1.89321127666e-06,-0.707141806702,0.707071753931
1521803958160475015,1.86339403968e-06,-1.88711352444e-06,-0.707141804958,0.707071755675
1521803958199126958,1.85917806354e-06,-1.88294441335e-06,-0.707141803453,0.707071757181
1521803958238095998,1.85701326059e-06,-1.88079948223e-06,-0.707141802207,0.707071758427
1521803958238226890,1.85694972393e-06,-1.88072794763e-06,-0.707141801232,0.707071759401
1521803958278059959,1.85898945735e-06,-1.88273157638e-06,-0.707141800537,0.707071760097
1521803958311033964,1.86308632979e-06,-1.88676464502e-06,-0.70714180012,0.707071760513
1521803958354470968,1.86914713183e-06,-1.89273498512e-06,-0.707141799977,0.707071760656
1521803958390517950,1.87703370965e-06,-1.90050609248e-06,-0.707141800096,0.707071760538
1521803958390587091,1.88656612664e-06,-1.90990025017e-06,-0.707141800457,0.707071760177
1521803958390640020,1.89752678199e-06,-1.92070259538e-06,-0.707141801038,0.707071759596
1521803958431102037,1.90966539053e-06,-1.93266603669e-06,-0.70714180181,0.707071758824
1521803958445770025,1.92270471036e-06,-1.94551690836e-06,-0.707141802739,0.707071757894
1521803958486452102,1.93634688744e-06,-1.95896123401e-06,-0.70714180379,0.707071756843
1521803958525980949,1.95028027168e-06,-1.97269145406e-06,-0.707141804923,0.70707175571
1521803958526070117,1.96418654874e-06,-1.98639346558e-06,-0.707141806096,0.707071754537
1521803958566396951,1.97774802377e-06,-1.99975381054e-06,-0.707141807267,0.707071753365
1521803958566564083,1.99065489156e-06,-2.01246685022e-06,-0.707141808395,0.707071752237
1521803958606209993,2.00261232592e-06,-2.02424176065e-06,-0.707141809438,0.707071751194
1521803958625031948,2.01334722629e-06,-2.03480918831e-06,-0.707141810357,0.707071750275
1521803958664695024,2.02261446772e-06,-2.04392741515e-06,-0.707141811116,0.707071749516
1521803958703130960,2.03020250958e-06,-2.0513878904e-06,-0.707141811682,0.70707174895
1521803958703233003,2.03593823785e-06,-2.0570200033e-06,-0.707141812026,0.707071748605
1521803958742297887,2.03969092605e-06,-2.06069498754e-06,-0.707141812127,0.707071748505
1521803958790079116,2.0413752278e-06,-2.06232886763e-06,-0.707141811965,0.707071748666
1521803958829895019,2.04095313091e-06,-2.06188438081e-06,-0.70714181153,0.707071749101
1521803958829993009,2.03843482674e-06,-2.05937182856e-06,-0.707141810817,0.707071749815
1521803958830055952,2.03387847859e-06,-2.05484884032e-06,-0.707141809826,0.707071750806
1521803958870557069,2.02738889085e-06,-2.0484190544e-06,-0.707141808565,0.707071752067
1521803958871238946,2.01911511107e-06,-2.04022974551e-06,-0.707141807047,0.707071753585
1521803958910265922,2.00924701938e-06,-2.03046845355e-06,-0.707141805293,0.70707175534
1521803958910391092,1.99801098328e-06,-2.01935869183e-06,-0.707141803327,0.707071757306
1521803958954051017,1.98566467727e-06,-2.00715483159e-06,-0.707141801178,0.707071759455
1521803958956371068,1.97249118571e-06,-1.99413628077e-06,-0.707141798882,0.707071761751
1521803959008910894,1.95879252417e-06,-1.98060108984e-06,-0.707141796475,0.707071764159
1521803959046089887,1.94488272727e-06,-1.96685913129e-06,-0.707141793997,0.707071766637
1521803959046175003,1.93108066152e-06,-1.95322500917e-06,-0.70714179149,0.707071769144
1521803959085871934,1.91770272686e-06,-1.94001085885e-06,-0.707141788996,0.707071771638
1521803959085980892,1.90505561564e-06,-1.92751920518e-06,-0.707141786558,0.707071774077
1521803959126346111,1.89342929343e-06,-1.91603603953e-06,-0.707141784215,0.70707177642
1521803959144392967,1.88309036203e-06,-1.90582427518e-06,-0.707141782006,0.707071778629
1521803959182877063,1.87427595873e-06,-1.89711773101e-06,-0.707141779967,0.707071780669
1521803959222583055,1.86718832847e-06,-1.89011578067e-06,-0.707141778129,0.707071782507
1521803959222943067,1.86199019576e-06,-1.88497878967e-06,-0.70714177652,0.707071784116
1521803959261820077,1.85880104131e-06,-1.88182444538e-06,-0.70714177516,0.707071785476
1521803959285581111,1.85769436721e-06,-1.88072506328e-06,-0.707141774067,0.707071786569
1521803959322679042,1.85869601628e-06,-1.88170593169e-06,-0.70714177325,0.707071787386
1521803959362726926,1.86178358053e-06,-1.88474473212e-06,-0.707141772713,0.707071787924
1521803959403182983,1.86688691499e-06,-1.88977204979e-06,-0.707141772452,0.707071788184
1521803959403472900,1.8738897433e-06,-1.89667296118e-06,-0.70714177246,0.707071788177
1521803959403604030,1.88263231947e-06,-1.90528966404e-06,-0.70714177272,0.707071787916
1521803959444725036,1.89291508418e-06,-1.91542508793e-06,-0.707141773212,0.707071787424
1521803959444808006,1.90450323123e-06,-1.926847404e-06,-0.70714177391,0.707071786726
1521803959457304954,1.9171320821e-06,-1.93929533042e-06,-0.707141774783,0.707071785853
1521803959481177091,1.93051314239e-06,-1.9524841122e-06,-0.707141775795,0.707071784841
1521803959522805929,1.94434070409e-06,-1.96611203797e-06,-0.707141776909,0.707071783727
1521803959561817884,1.95829884068e-06,-1.97986734475e-06,-0.707141778083,0.707071782552
1521803959561892032,1.9720686378e-06,-1.9934353543e-06,-0.707141779277,0.707071781358
1521803959602499961,1.98533548982e-06,-2.00650567434e-06,-0.707141780449,0.707071780186
1521803959630925893,1.9977962999e-06,-2.01877930291e-06,-0.707141781555,0.70707177908
1521803959669926881,2.00916641542e-06,-2.02997547156e-06,-0.707141782556,0.707071778078
1521803959670015096,2.01918614231e-06,-2.03983807156e-06,-0.707141783415,0.70707177722
1521803959710903882,2.02762668739e-06,-2.04814151483e-06,-0.707141784096,0.707071776538
1521803959711184024,2.03429539506e-06,-2.05469589718e-06,-0.70714178457,0.707071776065
1521803959759990930,2.03904015567e-06,-2.05935134419e-06,-0.70714178481,0.707071775825
1521803959792942047,2.04175288694e-06,-2.06200144058e-06,-0.707141784796,0.707071775839
1521803959829983949,2.04237200824e-06,-2.06258566558e-06,-0.707141784513,0.707071776121
1521803959830061912,2.04088385048e-06,-2.06109077712e-06,-0.707141783954,0.707071776681
1521803959870553970,2.03732296871e-06,-2.05755111458e-06,-0.707141783115,0.707071777519
1521803959870735883,2.03177135314e-06,-2.05204781206e-06,-0.707141782003,0.707071778632
1521803959910636901,2.02435655237e-06,-2.04470694095e-06,-0.707141780626,0.707071780009
1521803959910742998,2.0152487551e-06,-2.03569662444e-06,-0.707141779002,0.707071781633
1521803959950114965,2.00465689617e-06,-2.02522318966e-06,-0.707141777153,0.707071783482
1521803959956173896,1.99282387453e-06,-2.01352644547e-06,-0.707141775107,0.707071785529
1521803959994254112,1.98002099479e-06,-2.00087419425e-06,-0.707141772895,0.70707178774
1521803960034897089,1.966541758e-06,-1.98755610364e-06,-0.707141770554,0.707071790082
1521803960073885917,1.95269514448e-06,-1.97387707738e-06,-0.707141768122,0.707071792514
1521803960073991060,1.93879854248e-06,-1.96015027848e-06,-0.707141765641,0.707071794996
1521803960115329980,1.92517048329e-06,-1.94668996232e-06,-0.707141763151,0.707071797486
1521803960119355916,1.91212335198e-06,-1.93380428623e-06,-0.707141760696,0.707071799941
1521803960159302949,1.89995623721e-06,-1.92178825733e-06,-0.707141758317,0.707071802321
1521803960200253963,1.88894808629e-06,-1.91091698192e-06,-0.707141756053,0.707071804585
1521803960241978883,1.87935132015e-06,-1.90143937004e-06,-0.707141753942,0.707071806697
1521803960242060899,1.87138605804e-06,-1.89357243914e-06,-0.707141752017,0.707071808622
1521803960291337013,1.86523507838e-06,-1.88749634828e-06,-0.707141750307,0.707071810331
1521803960300065994,1.86103963697e-06,-1.88335027441e-06,-0.707141748838,0.707071811801
1521803960339076995,1.85889623415e-06,-1.88122922752e-06,-0.707141747627,0.707071813012
1521803960339458942,1.85885440719e-06,-1.88118187528e-06,-0.707141746689,0.70707181395
1521803960339618921,1.86091559689e-06,-1.88320942938e-06,-0.707141746029,0.70707181461
1521803960378043889,1.86503311531e-06,-1.88726561691e-06,-0.707141745648,0.707071814991
1521803960405674934,1.87111321465e-06,-1.89325773843e-06,-0.707141745541,0.707071815098
1521803960442017078,1.87901723395e-06,-1.90104878927e-06,-0.707141745694,0.707071814945
1521803960442116975,1.88856477168e-06,-1.91046059392e-06,-0.707141746091,0.707071814548
1521803960487400054,1.89953781552e-06,-1.92127788422e-06,-0.707141746706,0.707071813933
1521803960487752914,1.91168573136e-06,-1.93325322448e-06,-0.707141747512,0.707071813127
1521803960525983095,1.92473099903e-06,-1.9461126747e-06,-0.707141748475,0.707071812163
1521803960531425952,1.93837556323e-06,-1.9595620602e-06,-0.70714174956,0.707071811079
1521803960569797992,1.95230765437e-06,-1.97329370389e-06,-0.707141750725,0.707071809913
1521803960610245943,1.96620892215e-06,-1.98699346823e-06,-0.707141751931,0.707071808707
1521803960610366106,1.97976172195e-06,-2.00034794448e-06,-0.707141753134,0.707071807504
1521803960649945020,1.99265638207e-06,-2.0130516267e-06,-0.707141754293,0.707071806345
1521803960656383037,2.00459829089e-06,-2.02481390278e-06,-0.707141755367,0.707071805271
1521803960699318885,2.015314639e-06,-2.03536570676e-06,-0.707141756316,0.707071804321
1521803960738022089,2.02456066075e-06,-2.0444656761e-06,-0.707141757105,0.707071803533
1521803960738168001,2.03212523744e-06,-2.05190567594e-06,-0.7071417577,0.707071802937
1521803960777894020,2.0378357273e-06,-2.05751556217e-06,-0.707141758073,0.707071802563
1521803960796391963,2.04156191732e-06,-2.06116707528e-06,-0.707141758203,0.707071802434
1521803960835200071,2.04321900362e-06,-2.06277677528e-06,-0.70714175807,0.707071802567
1521803960873845100,2.04276953253e-06,-2.06230795053e-06,-0.707141757663,0.707071802974
1521803960873919963,2.0402242581e-06,-2.05977145763e-06,-0.707141756978,0.707071803659
1521803960915143966,2.03564189714e-06,-2.05522547216e-06,-0.707141756016,0.707071804622
1521803960915484905,2.0291277856e-06,-2.04877415673e-06,-0.707141754783,0.707071805854
1521803960953990936,2.02083146858e-06,-2.04056527677e-06,-0.707141753294,0.707071807343
1521803960956562995,2.01094327876e-06,-2.03078681805e-06,-0.707141751569,0.707071809069
1521803960998970031,1.99968997984e-06,-2.01966268498e-06,-0.707141749631,0.707071811007
1521803961044486045,1.98732957834e-06,-2.0074475757e-06,-0.707141747513,0.707071813126
1521803961082617998,1.97414541802e-06,-1.99442115341e-06,-0.707141745246,0.707071815392
1521803961082896947,1.9604396954e-06,-1.98088164712e-06,-0.707141742869,0.707071817769
1521803961121951103,1.94652654375e-06,-1.96713902602e-06,-0.707141740422,0.707071820217
1521803961122031927,1.93272484325e-06,-1.95350790726e-06,-0.707141737947,0.707071822693
1521803961162452936,1.91935092291e-06,-1.94030035562e-06,-0.707141735485,0.707071825155
1521803961162677049,1.90671132042e-06,-1.92781874306e-06,-0.707141733078,0.707071827562
1521803961202858924,1.89509576664e-06,-1.91634882923e-06,-0.707141730767,0.707071829873
1521803961225696086,1.88477055462e-06,-1.90615322232e-06,-0.707141728592,0.707071832049
1521803961262952089,1.87597244513e-06,-1.89746536924e-06,-0.707141726586,0.707071834055
1521803961304086923,1.86890324764e-06,-1.89048421421e-06,-0.707141724782,0.707071835859
1521803961342514038,1.86372520299e-06,-1.88536964488e-06,-0.707141723206,0.707071837435
1521803961342659950,1.86055726951e-06,-1.88223883359e-06,-0.707141721881,0.707071838761
1521803961382152080,1.85947240191e-06,-1.8811635553e-06,-0.707141720822,0.70707183982
1521803961382301092,1.86049588186e-06,-1.88216854485e-06,-0.707141720039,0.707071840603
1521803961382365942,1.86360473991e-06,-1.88523092969e-06,-0.707141719535,0.707071841106
1521803961425839900,1.86872828186e-06,-1.89028075355e-06,-0.707141719309,0.707071841333
1521803961430031061,1.87574970759e-06,-1.8972025757e-06,-0.70714171935,0.707071841291
1521803961497994899,1.88450878369e-06,-1.90583811343e-06,-0.707141719644,0.707071840997
1521803961539206981,1.89480551173e-06,-1.91598986337e-06,-0.70714172017,0.707071840472
1521803961539664983,1.90640470478e-06,-1.9274256211e-06,-0.707141720901,0.707071839741
1521803961583370923,1.91904137007e-06,-1.93988379523e-06,-0.707141721806,0.707071838836
1521803961583839893,1.9324267733e-06,-1.95307939414e-06,-0.70714172285,0.707071837791
1521803961622503042,1.94625504581e-06,-1.96671054861e-06,-0.707141723995,0.707071836646
1521803961622720956,1.96021018425e-06,-1.98046541982e-06,-0.707141725201,0.70707183544
1521803961662218093,1.97397328146e-06,-1.99402933763e-06,-0.707141726425,0.707071834215
1521803961662383079,1.98722982477e-06,-2.00709200142e-06,-0.707141727626,0.707071833014
1521803961722704887,1.99967689225e-06,-2.01935458257e-06,-0.707141728762,0.707071831878
1521803961747601985,2.01103008517e-06,-2.03053656345e-06,-0.707141729793,0.707071830847
1521803961787156105,2.02103003629e-06,-2.04038215823e-06,-0.70714173068,0.70707182996
1521803961826065063,2.02944834441e-06,-2.04866616601e-06,-0.707141731389,0.70707182925
1521803961826201915,2.03609280258e-06,-2.05519912543e-06,-0.70714173189,0.707071828749
1521803961826277971,2.04081179567e-06,-2.05983165069e-06,-0.707141732158,0.707071828482
1521803961866756916,2.04349777112e-06,-2.06245784907e-06,-0.707141732171,0.707071828469
1521803961889255046,2.04408970065e-06,-2.0630177446e-06,-0.707141731915,0.707071828724
1521803961926158905,2.04257447711e-06,-2.06149865034e-06,-0.707141731383,0.707071829257
1521803961926276922,2.03898721535e-06,-2.05793545765e-06,-0.707141730572,0.707071830068
1521803961966767072,2.03341044945e-06,-2.05240983699e-06,-0.707141729486,0.707071831154
1521803961970911979,2.02597224385e-06,-2.04504836885e-06,-0.707141728136,0.707071832504
1521803962021583080,2.01684326349e-06,-2.03601964584e-06,-0.707141726539,0.707071834101
1521803962058161973,2.00623286832e-06,-2.02553041415e-06,-0.707141724718,0.707071835922
1521803962058343887,1.99438432221e-06,-2.01382084227e-06,-0.7071417227,0.707071837941
1521803962098062992,1.9815692256e-06,-2.00115902434e-06,-0.707141720516,0.707071840125
1521803962098208904,1.96808130017e-06,-1.98783484484e-06,-0.707141718204,0.707071842438
1521803962138222932,1.9542296659e-06,-1.9741533448e-06,-0.707141715801,0.707071844841
1521803962152563095,1.94033176645e-06,-1.96042774219e-06,-0.707141713349,0.707071847293
1521803962189939975,1.92670610454e-06,-1.94697226314e-06,-0.707141710889,0.707071849753
1521803962190066099,1.91366495092e-06,-1.93409495194e-06,-0.707141708464,0.707071852178
1521803962232355117,1.90150719906e-06,-1.92209062253e-06,-0.707141706116,0.707071854527
1521803962257029056,1.89051152284e-06,-1.91123411168e-06,-0.707141703883,0.70707185676
1521803962293916940,1.88092999965e-06,-1.90177398935e-06,-0.707141701804,0.70707185884
1521803962334561109,1.87298234078e-06,-1.89392687115e-06,-0.707141699911,0.707071860733
1521803962334683895,1.86685086372e-06,-1.88787246071e-06,-0.707141698233,0.70707186241
1521803962374123096,1.86267631943e-06,-1.88374943671e-06,-0.707141696796,0.707071863848
1521803962374233007,1.86055467199e-06,-1.88165227992e-06,-0.707141695618,0.707071865026
1521803962419815063,1.86053490249e-06,-1.88162910932e-06,-0.707141694713,0.707071865932
1521803962441993951,1.86261788873e-06,-1.88368058138e-06,-0.707141694085,0.707071866559
1521803962483093023,1.86675638602e-06,-1.8877598735e-06,-0.707141693737,0.707071866907
1521803962483494043,1.87285610883e-06,-1.89377375583e-06,-0.707141693662,0.707071866982
1521803962522793054,1.88077788904e-06,-1.90158472366e-06,-0.707141693848,0.707071866796
1521803962523005008,1.89034086124e-06,-1.91101414386e-06,-0.707141694276,0.707071866368
1521803962563039064,1.90132660224e-06,-1.92184634281e-06,-0.707141694924,0.70707186572
1521803962563225984,1.9134841297e-06,-1.933833542e-06,-0.707141695761,0.707071864883
1521803962606425046,1.92653564605e-06,-1.94670152806e-06,-0.707141696755,0.707071863889
1521803962630253076,1.94018289602e-06,-1.96015592904e-06,-0.707141697869,0.707071862774
1521803962670459985,1.9541139908e-06,-1.97388895092e-06,-0.707141699065,0.707071861579
1521803962670617103,1.96801054635e-06,-1.98758642272e-06,-0.707141700299,0.707071860344
1521803962710093021,1.9815549681e-06,-2.00093498654e-06,-0.707141701532,0.707071859111
1521803962710258007,1.99443771981e-06,-2.01362926946e-06,-0.707141702719,0.707071857924
1521803962752016067,2.00636440513e-06,-2.02537887276e-06,-0.707141703821,0.707071856822
1521803962795511960,2.01706250609e-06,-2.03591501844e-06,-0.707141704797,0.707071855845
1521803962834990978,2.02628761815e-06,-2.04499670047e-06,-0.707141705612,0.70707185503
1521803962874989986,2.0338290442e-06,-2.05241620062e-06,-0.707141706234,0.707071854408
1521803962875372886,2.03951461603e-06,-2.05800384202e-06,-0.707141706634,0.707071854008
1521803962875488996,2.04321463426e-06,-2.06163187238e-06,-0.707141706789,0.707071853853
1521803962913992881,2.04484483752e-06,-2.06321738712e-06,-0.707141706682,0.70707185396
1521803962925697088,2.04436833126e-06,-2.06272422622e-06,-0.707141706301,0.707071854341
1521803962961955070,2.04179643188e-06,-2.06016380127e-06,-0.707141705641,0.707071855001
1521803962962083101,2.03718840948e-06,-2.05559483362e-06,-0.707141704704,0.707071855938
1521803963012670993,2.03065013139e-06,-2.04912200986e-06,-0.707141703497,0.707071857145
1521803963013494014,2.0223316397e-06,-2.04089358583e-06,-0.707141702034,0.707071858609
1521803963050623893,2.0124237186e-06,-2.03109799253e-06,-0.707141700334,0.707071860308
1521803963090029001,2.00115352812e-06,-2.01995952459e-06,-0.707141698424,0.70707186222
1521803963131869077,1.98877940521e-06,-2.00773320607e-06,-0.707141696331,0.707071864312
1521803963131923913,1.97558495224e-06,-1.99469895499e-06,-0.707141694092,0.707071866552
1521803963171272993,1.96187254563e-06,-1.98115517739e-06,-0.707141691742,0.707071868901
1521803963171703100,1.94795641654e-06,-1.96741193847e-06,-0.707141689323,0.707071871321
1521803963210609912,1.93415545786e-06,-1.95378386733e-06,-0.707141686876,0.707071873769
1521803963210700035,1.92078592604e-06,-1.94058295714e-06,-0.707141684442,0.707071876202
1521803963257159948,1.90815420362e-06,-1.928111426e-06,-0.707141682065,0.70707187858
1521803963261249065,1.8965497857e-06,-1.91665480089e-06,-0.707141679784,0.707071880861
1521803963306220054,1.88623865579e-06,-1.90647538396e-06,-0.707141677638,0.707071883007
1521803963345896959,1.87745719693e-06,-1.89780625001e-06,-0.707141675663,0.707071884983
1521803963346004009,1.87040678327e-06,-1.89084591235e-06,-0.70714167389,0.707071886757
1521803963386936902,1.86524917065e-06,-1.88575378068e-06,-0.707141672345,0.707071888301
1521803963387304067,1.86210279522e-06,-1.88264651186e-06,-0.707141671051,0.707071889596
1521803963440193891,1.86104006386e-06,-1.88159534007e-06,-0.707141670023,0.707071890624
1521803963463947057,1.86208569674e-06,-1.8826244467e-06,-0.707141669271,0.707071891376
1521803963503597021,1.86521616354e-06,-1.88571040516e-06,-0.707141668799,0.707071891848
1521803963503804922,1.87036022119e-06,-1.89078271783e-06,-0.707141668604,0.707071892043
1521803963542046070,1.87740054536e-06,-1.89772542751e-06,-0.707141668676,0.70707189197
1521803963559495925,1.88617641637e-06,-1.90637977145e-06,-0.707141669001,0.707071891645
1521803963597943067,1.89648739749e-06,-1.91654781359e-06,-0.707141669557,0.707071891089
1521803963598063945,1.90809792155e-06,-1.92799697495e-06,-0.707141670318,0.707071890328
1521803963638022899,1.9207426824e-06,-1.94046535546e-06,-0.707141671253,0.707071889394
1521803963641976118,1.93413270687e-06,-1.95366772802e-06,-0.707141672326,0.70707188832
1521803963681941986,1.94796196667e-06,-1.9673020663e-06,-0.7071416735,0.707071887146
1521803963682044982,1.96191438239e-06,-1.98105645691e-06,-0.707141674734,0.707071885912
1521803963724276065,1.97567105562e-06,-1.99461623846e-06,-0.707141675986,0.707071884659
1521803963771723985,1.98891756716e-06,-2.00767120327e-06,-0.707141677214,0.707071883431
1521803963810379028,2.00135117119e-06,-2.01992269685e-06,-0.707141678377,0.707071882268
1521803963850954055,2.012687724e-06,-2.03109045363e-06,-0.707141679433,0.707071881211
1521803963851317882,2.0226681855e-06,-2.04091901103e-06,-0.707141680346,0.707071880298
1521803963851404905,2.03106454792e-06,-2.04918355651e-06,-0.707141681081,0.707071879564
1521803963890074968,2.03768505294e-06,-2.05569507216e-06,-0.707141681607,0.707071879037
1521803963890187978,2.04237858077e-06,-2.06030466079e-06,-0.707141681899,0.707071878745
1521803963906388044,2.04503810884e-06,-2.06290695278e-06,-0.707141681937,0.707071878708
1521803963930965900,2.04560316114e-06,-2.06344251755e-06,-0.707141681705,0.707071878939
1521803963969960927,2.04406119308e-06,-2.06189922278e-06,-0.707141681197,0.707071879447
1521803964010340929,2.0404478788e-06,-2.05831251188e-06,-0.70714168041,0.707071880235
1521803964049958944,2.03484629594e-06,-2.05276459157e-06,-0.707141679348,0.707071881297
1521803964050066947,2.02738502451e-06,-2.04538255068e-06,-0.707141678023,0.707071882622
1521803964090962886,2.01823520493e-06,-2.03633545073e-06,-0.707141676451,0.707071884195
1521803964097136020,2.00760662162e-06,-2.02583045655e-06,-0.707141674654,0.707071885991
1521803964134813070,1.99574290275e-06,-2.01410809529e-06,-0.707141672661,0.707071887985
1521803964175823926,1.98291594361e-06,-2.00143675189e-06,-0.707141670503,0.707071890143
1521803964214123964,1.96941968536e-06,-1.98810652693e-06,-0.707141668216,0.70707189243
1521803964214431047,1.9555633866e-06,-1.97442259799e-06,-0.70714166584,0.707071894807
1521803964255207061,1.94166454617e-06,-1.96069823612e-06,-0.707141663414,0.707071897233
1521803964255645990,1.92804163587e-06,-1.9472476376e-06,-0.707141660982,0.707071899665
1521803964294049024,1.91500681246e-06,-1.93437873313e-06,-0.707141658585,0.707071902063
1521803964294156074,1.90285877212e-06,-1.92238614214e-06,-0.707141656264,0.707071904384
1521803964334877967,1.89187591519e-06,-1.91154443073e-06,-0.70714165406,0.707071906588
1521803964357888936,1.88230997393e-06,-1.90210182854e-06,-0.70714165201,0.707071908639
1521803964398102045,1.874380252e-06,-1.89427454804e-06,-0.707141650146,0.707071910503
1521803964398231983,1.86826860454e-06,-1.88824183701e-06,-0.707141648498,0.707071912151
1521803964439040899,1.86411527761e-06,-1.88414187595e-06,-0.707141647091,0.707071913558
1521803964439378023,1.86201569849e-06,-1.88206861545e-06,-0.707141645943,0.707071914706
1521803964478001117,1.86201829194e-06,-1.88206962609e-06,-0.707141645067,0.707071915582
1521803964484903097,1.864123373e-06,-1.88414500847e-06,-0.70714164447,0.707071916179
1521803964522005081,1.86828314039e-06,-1.88824739127e-06,-0.707141644152,0.707071916498
1521803964562134027,1.87440277106e-06,-1.89428301423e-06,-0.707141644106,0.707071916543
1521803964562256097,1.88234259031e-06,-1.90211387298e-06,-0.707141644322,0.707071916327
1521803964603075027,1.89192126895e-06,-1.91156087757e-06,-0.707141644779,0.707071915869
1521803964613825082,1.90291997399e-06,-1.92240794969e-06,-0.707141645456,0.707071915193
1521803964653871059,1.91508737584e-06,-1.93440696843e-06,-0.707141646322,0.707071914327
1521803964694334030,1.92814540058e-06,-1.94728344821e-06,-0.707141647344,0.707071913305
1521803964694560050,1.9417955934e-06,-1.96074282051e-06,-0.707141648486,0.707071912162
1521803964735039949,1.95572594795e-06,-1.97447717565e-06,-0.707141649708,0.70707191094
1521803964735486984,1.96961804645e-06,-1.98817231064e-06,-0.70714165097,0.707071909678
1521803964793850898,1.98315434696e-06,-2.00151491817e-06,-0.707141652228,0.70707190842
1521803964794248104,1.99602544811e-06,-2.01419976049e-06,-0.707141653441,0.707071907206
1521803964831276893,2.00793717085e-06,-2.02593665266e-06,-0.707141654568,0.70707190608
1521803964870306968,2.01861728895e-06,-2.03645710613e-06,-0.707141655569,0.707071905078
1521803964870642900,2.02782176029e-06,-2.04552047155e-06,-0.707141656409,0.707071904238
1521803964910015106,2.03534030977e-06,-2.05291944837e-06,-0.707141657054,0.707071903593
1521803964910188913,2.04100124289e-06,-2.05848482705e-06,-0.707141657478,0.707071903169
1521803964950644016,2.04467537511e-06,-2.06208936324e-06,-0.707141657656,0.707071902991
1521803964956468105,2.0462789873e-06,-2.06365068798e-06,-0.707141657572,0.707071903075
1521803964994048118,2.0457757441e-06,-2.06313319311e-06,-0.707141657214,0.707071903433
1521803965033895969,2.04317752456e-06,-2.06054884484e-06,-0.707141656577,0.70707190407
1521803965033993959,2.03854415148e-06,-2.05595691025e-06,-0.707141655663,0.707071904985
1521803965075381040,2.03198202319e-06,-2.04946259971e-06,-0.707141654478,0.707071906169
1521803965081105947,1.55938621356e-05,-1.26459168824e-06,-0.707301635017,0.706911873473
1521803965117887020,0.000262672881891,5.29287411744e-05,-0.708232326602,0.705979390462
1521803965159560918,-3.89404998789e-05,-2.12764231481e-05,-0.710802746172,0.703391394648
1521803965203458070,0.000617161132428,0.00058444393102,-0.714194915072,0.699946355675
1521803965203677892,-0.000228054182806,-0.000179100126451,-0.718696938753,0.695323396803
1521803965241913080,0.000840227627362,0.000455742060132,-0.722411032634,0.691463221181
1521803965242017030,-5.93846457552e-05,-6.70237877855e-05,-0.726499487996,0.687167000025
1521803965283087968,-7.12201519228e-05,-5.22417484149e-05,-0.727705855691,0.685889334945
1521803965283394098,-2.7563165419e-06,-1.03316803378e-05,-0.728276030052,0.685283900246
1521803965322029113,-9.01532824163e-08,-4.86573885569e-06,-0.728238324412,0.685323969254
1521803965333158016,7.02966341384e-07,-4.56136936067e-06,-0.728226028622,0.685337034761
1521803965369951009,2.79744590643e-06,-1.74877516681e-06,-0.728216955535,0.68534667553
1521803965410162925,2.56405870817e-06,-1.69330650714e-06,-0.728213945996,0.685349873311
1521803965410283088,2.48594835735e-06,-1.67830829379e-06,-0.728212955664,0.68535092558
1521803965473628997,2.45854914699e-06,-1.67283866576e-06,-0.728212619509,0.685351282759
1521803965492584943,2.44912974312e-06,-1.67152092082e-06,-0.728212497535,0.685351412361
1521803965530060052,1.4744099882e-05,1.20300581423e-06,-0.728324515601,0.685232369169
1521803965530194044,9.01696728409e-05,3.43271751937e-05,-0.729137066936,0.684367685028
1521803965570775985,-6.81517731039e-05,-4.5236867374e-07,-0.731412912286,0.681934855464
1521803965570874929,0.000834058335869,0.000191533768401,-0.734514143416,0.678592838735
1521803965610905885,-0.000193639090669,-4.75645107053e-06,-0.739046915244,0.673653931593
1521803965611200094,0.000755343855098,0.000225163712114,-0.742404852913,0.669951052786
1521803965669805049,-0.000227951794602,1.86447604681e-05,-0.746881415389,0.664957215944
1521803965670677900,0.000251627880648,-6.25718747213e-05,-0.750292037048,0.661106490598
1521803965709870100,-1.40187040578e-05,-3.5349830276e-05,-0.752585734713,0.658494275191
1521803965709964990,3.15316766555e-05,-1.65623039888e-05,-0.753270593269,0.657710735847
1521803965751192092,-1.73541832323e-06,-6.1641093388e-06,-0.753314919769,0.657659966557
1521803965788546085,-1.4776882563e-06,-6.45823214276e-06,-0.753290739974,0.657687662212
1521803965825925111,-1.20585424727e-06,-6.31812420796e-06,-0.753281587287,0.657698145211
1521803965826045036,5.11543115589e-07,-4.99756266768e-06,-0.753278097059,0.657702142665
1521803965866596937,1.23630024335e-05,-2.06078472989e-06,-0.753380963533,0.657584309141
1521803965866699934,6.49609791278e-05,-3.6494778501e-05,-0.754153392225,0.656698298646
1521803965907160997,0.000271737399946,0.000212550533047,-0.756261424204,0.654269469899
1521803965944438934,0.000562075080398,6.33938774638e-05,-0.759728763521,0.650239867996
1521803965983988046,0.000249771124513,0.000187491210132,-0.763783071456,0.645472944606
1521803965984637975,0.000391180183806,2.83121974452e-05,-0.767658064504,0.64085953389
1521803966023972988,0.000359234339276,0.000272674082954,-0.771302071151,0.636469097159
1521803966024847030,0.000324680344401,2.29472343569e-05,-0.775208084545,0.631705880702
1521803966062068939,0.000460326103297,0.000350732207467,-0.778705215935,0.627389712828
1521803966062190055,0.000247337926693,-1.89855083293e-06,-0.782624003786,0.622494664651
1521803966104728937,0.000547441598131,0.000407533238469,-0.786007516398,0.618216562695
1521803966105568885,0.000297131618063,-2.29703993064e-05,-0.78993578959,0.613189497227
1521803966141936063,0.000715414237614,0.000556367992796,-0.793069499443,0.609130484946
1521803966181911945,-0.000193415949611,-0.000265368922666,-0.79692809638,0.604074085994
1521803966235099077,0.000181210133225,0.000159259947853,-0.79990103101,0.600131887495
1521803966275713920,0.000342808329947,-0.0002652781759,-0.803407297256,0.595429699314
1521803966276140928,-0.000136893625909,-0.000115680723333,-0.805231860598,0.592960048026
1521803966276360034,-1.72427361133e-05,-4.08504782894e-06,-0.806307597876,0.591496455859
1521803966315032005,-5.17224372594e-07,-5.2158044972e-06,-0.806543899166,0.591174203337
1521803966315373897,-3.50473163602e-07,-4.69380088958e-06,-0.806523579285,0.591201924926
1521803966332204103,-8.63530326279e-07,-4.37705222515e-06,-0.806515695408,0.591212680041
1521803966379924058,-1.0277185429e-06,-4.58426174793e-06,-0.806511954212,0.591217783638
1521803966420990943,7.03574367231e-06,5.13009833215e-07,-0.806521370637,0.59120493795
1521803966421422004,-3.23233117719e-05,3.28343577166e-05,-0.807067930302,0.590458596139
1521803966457967042,-5.39944888315e-05,-2.615464392e-06,-0.808699345272,0.588222208043
1521803966485235929,0.000679259903124,0.000491344411053,-0.810986524033,0.585064231536
1521803966521965026,-0.000284639449089,-0.00026125295638,-0.814633674949,0.579975711877
1521803966522074937,0.000924755452225,0.000686086750054,-0.817712000698,0.575626404907
1521803966562213897,-0.000253639646263,-0.000255564464456,-0.821500918456,0.570207077586
1521803966603703022,0.000934063535151,0.000671848273733,-0.82460872943,0.565702324101
1521803966642044067,-0.000372867556223,-0.0003244198485,-0.828533970197,0.559938582302
1521803966642180919,0.000200839355823,6.81360030588e-05,-0.831175031425,0.556010811188
1521803966682109117,0.000340323943181,-0.000126331367556,-0.834923230948,0.550366302242
1521803966682250022,-0.000215382757642,1.91372340454e-05,-0.836431464321,0.548071490536
1521803966682307958,0.00053834924275,-0.000387458877047,-0.839776392318,0.542932013203
1521803966724025964,-0.000238535703147,-8.26319699295e-05,-0.841526500781,0.540215776108
