%time,field.x,field.y,field.z,field.w
1521803950178131103,0.0,0.0,0.000110290813391,0.999999993918
1521803950178291082,0.0,0.0,0.000110295272138,0.999999993917
1521803950189131021,0.0,0.0,0.000110299794636,0.999999993917
1521803950189410924,0.0,0.0,0.000110304078823,0.999999993917
1521803950189524888,0.0,0.0,0.000110306918336,0.999999993916
1521803950189590930,0.0,0.0,0.000110310936769,0.999999993916
1521803950189656019,0.0,0.0,0.000110313245216,0.999999993915
1521803950189718008,0.0,0.0,0.000110317968293,0.999999993915
1521803950189790010,0.0,0.0,0.000110326134146,0.999999993914
1521803950189850091,0.0,0.0,0.000110333035389,0.999999993913
1521803950189915895,0.0,0.0,0.000110339500343,0.999999993913
1521803950189971923,0.0,0.0,0.000110346722052,0.999999993912
1521803950190027952,0.0,0.0,0.000110350146337,0.999999993911
1521803950213568925,0.0,0.0,0.000110356726316,0.999999993911
1521803950273072957,0.0,0.0,0.000110359734129,0.99999999391
1521803950321295022,0.0,0.0,0.000110367212698,0.99999999391
1521803950381702899,0.0,0.0,0.000110371753439,0.999999993909
1521803950446388959,0.0,0.0,0.000110378752168,0.999999993908
1521803950446516036,0.0,0.0,0.000110385023002,0.999999993908
1521803950477313041,0.0,0.0,0.00011023133599,0.999999993925
1521803950523081064,0.0,0.0,0.000109338091898,0.999999994023
1521803950523473024,0.0,0.0,0.000108389727887,0.999999994126
1521803950523598909,0.0,0.0,0.000107932999292,0.999999994175
1521803950537144899,0.0,0.0,0.000107866375653,0.999999994182
1521803950538773059,0.0,0.0,0.000107840301559,0.999999994185
1521803950539309024,0.0,0.0,0.000107836660226,0.999999994186
1521803950575385093,0.0,0.0,0.000107826123203,0.999999994187
1521803950575540065,0.0,0.0,0.000107828401483,0.999999994187
1521803950575618982,0.0,0.0,0.000107829103729,0.999999994186
1521803950575674057,0.0,0.0,0.000107831091401,0.999999994186
1521803950599208116,0.0,0.0,0.000107834803553,0.999999994186
1521803950600220918,0.0,0.0,0.000107840095994,0.999999994185
1521803950600539922,0.0,0.0,0.000107844000506,0.999999994185
1521803950600749969,0.0,0.0,0.000107848890643,0.999999994184
1521803950625432968,0.0,0.0,0.000107856443719,0.999999994183
1521803950638833999,0.0,0.0,0.000109148704724,0.999999994043
1521803950656043052,0.0,0.0,0.000109374539348,0.999999994019
1521803950701049089,0.0,0.0,0.000110296747,0.999999993917
1521803950724910020,0.0,0.0,0.000110406839669,0.999999993905
1521803950725364923,0.0,0.0,0.000110454545067,0.9999999939
1521803950756969928,0.0,0.0,0.000110474223083,0.999999993898
1521803950768601894,0.0,0.0,0.000110495857206,0.999999993895
1521803950806097984,0.0,0.0,0.000110506820285,0.999999993894
1521803950846009016,0.0,0.0,0.000110516181622,0.999999993893
1521803950846199035,0.0,0.0,0.000110524825705,0.999999993892
1521803950886395931,0.0,0.0,0.000110533629679,0.999999993891
1521803950886552095,0.0,0.0,0.000110540997387,0.99999999389
1521803950925896883,0.0,0.0,0.000110549559518,0.999999993889
1521803950926029920,0.0,0.0,0.000110555618994,0.999999993889
1521803950966114997,0.0,0.0,0.000110559885716,0.999999993888
1521803950966197013,0.0,0.0,0.000110566965966,0.999999993887
1521803951005975961,0.0,0.0,0.000110572594611,0.999999993887
1521803951006098031,0.0,0.0,0.00011057826876,0.999999993886
1521803951046237945,0.0,0.0,0.000110586945142,0.999999993885
1521803951068628072,0.0,0.0,0.000110593546816,0.999999993885
1521803951106167078,0.0,0.0,0.000110597373961,0.999999993884
1521803951146301984,0.0,0.0,0.000110601950637,0.999999993884
1521803951146456003,0.0,0.0,0.000110605964345,0.999999993883
1521803951146541118,0.0,0.0,0.000110611203379,0.999999993883
1521803951185852050,0.0,0.0,0.000110614323119,0.999999993882
1521803951193794965,0.0,0.0,0.000110616166682,0.999999993882
1521803951231117010,0.0,0.0,0.000110621564004,0.999999993881
1521803951231271982,0.0,0.0,0.000110625056074,0.999999993881
1521803951269938945,0.0,0.0,0.000110629556325,0.999999993881
1521803951270013093,0.0,0.0,0.000110631406246,0.99999999388
1521803951310467004,0.0,0.0,0.00011063297778,0.99999999388
1521803951310637950,0.0,0.0,0.000110635887194,0.99999999388
1521803951350392103,0.0,0.0,0.000110639073717,0.999999993879
1521803951350492000,0.0,0.0,0.000110641171675,0.999999993879
1521803951389847040,0.0,0.0,0.000110645795922,0.999999993879
1521803951389966011,0.0,0.0,0.000110651914463,0.999999993878
1521803951431626081,0.0,0.0,0.00011065629112,0.999999993878
1521803951457921981,0.0,0.0,0.00011065982038,0.999999993877
1521803951498389959,0.0,0.0,0.000110662028867,0.999999993877
1521803951538902997,0.0,0.0,0.000110670185189,0.999999993876
1521803951538995981,0.0,0.0,0.000110676999677,0.999999993875
1521803951539053916,0.0,0.0,0.000110680828557,0.999999993875
1521803951578099012,0.0,0.0,0.000110684657414,0.999999993874
1521803951578198909,0.0,0.0,0.000110690592981,0.999999993874
1521803951578262090,0.0,0.0,0.000110693757758,0.999999993873
1521803951618169069,0.0,0.0,0.000110699902332,0.999999993873
1521803951658896923,0.0,0.0,0.000110706132867,0.999999993872
1521803951698559999,0.0,0.0,0.000110711942827,0.999999993871
1521803951699033021,0.0,0.0,0.000110718841556,0.999999993871
1521803951699202060,0.0,0.0,0.000110725400951,0.99999999387
1521803951699295997,0.0,0.0,0.000110734289537,0.999999993869
1521803951737940073,0.0,0.0,0.000110740198515,0.999999993868
1521803951753545045,0.0,0.0,0.000110749903242,0.999999993867
1521803951790066003,0.0,0.0,0.000110759796284,0.999999993866
1521803951790199995,0.0,0.0,0.000110770498673,0.999999993865
1521803951830231904,0.0,0.0,0.000110777387996,0.999999993864
1521803951830385923,0.0,0.0,0.000110783640714,0.999999993863
1521803951871455907,0.0,0.0,0.000110791672773,0.999999993863
1521803951910604953,0.0,0.0,0.000110803441061,0.999999993861
1521803951951078891,0.0,0.0,0.000110810976724,0.99999999386
1521803951951342105,0.0,0.0,0.000110817222571,0.99999999386
1521803951951447010,0.0,0.0,0.00011082537579,0.999999993859
1521803951990083932,0.0,0.0,0.000110838503753,0.999999993857
1521803951990187883,0.0,0.0,0.000110841258013,0.999999993857
1521803951995390892,0.0,0.0,0.000110847848456,0.999999993856
1521803952024946928,0.0,0.0,0.000110854504407,0.999999993856
1521803952065123081,0.0,0.0,0.000110858689974,0.999999993855
1521803952102350950,0.0,0.0,0.000110864985297,0.999999993854
1521803952102448940,0.0,0.0,0.000110866335349,0.999999993854
1521803952142112016,0.0,0.0,0.000110877902577,0.999999993853
1521803952142277956,0.0,0.0,0.000110882823388,0.999999993852
1521803952182939052,0.0,0.0,0.00011088731176,0.999999993852
1521803952183134078,0.0,0.0,0.000110890440094,0.999999993852
1521803952221786975,0.0,0.0,0.000110892274645,0.999999993851
1521803952272125959,0.0,0.0,0.000110901017149,0.99999999385
1521803952309959888,0.0,0.0,0.000110906119338,0.99999999385
1521803952310111999,0.0,0.0,0.000110909111902,0.99999999385
1521803952310189008,0.0,0.0,0.000110916180111,0.999999993849
1521803952310234069,0.0,0.0,0.000110919840926,0.999999993848
1521803952349980115,0.0,0.0,0.000110923704041,0.999999993848
1521803952350090026,0.0,0.0,0.000110927847831,0.999999993848
1521803952383685111,0.0,0.0,0.000110928798829,0.999999993847
1521803952408023118,0.0,0.0,0.000110930591831,0.999999993847
1521803952446825027,0.0,0.0,0.000110934263754,0.999999993847
1521803952486471891,0.0,0.0,0.000110938458896,0.999999993846
1521803952486829996,0.0,0.0,0.000110943597525,0.999999993846
1521803952486988067,0.0,0.0,0.000110948793371,0.999999993845
1521803952525876045,0.0,0.0,0.000110952059085,0.999999993845
1521803952526036024,0.0,0.0,0.000110957533606,0.999999993844
1521803952540436983,0.0,0.0,0.000110962119957,0.999999993844
1521803952559139966,0.0,0.0,0.000110966832338,0.999999993843
1521803952624346971,0.0,0.0,0.000110968452828,0.999999993843
1521803952662343025,0.0,0.0,0.000110981002222,0.999999993842
1521803952662570953,0.0,0.0,0.000110987572727,0.999999993841
1521803952662627935,0.0,0.0,0.000110994107565,0.99999999384
1521803952703109979,0.0,0.0,0.000111002627139,0.999999993839
1521803952703480005,0.0,0.0,0.000111008695505,0.999999993839
1521803952744564056,0.0,0.0,0.000111014679256,0.999999993838
1521803952745091915,0.0,0.0,0.000111023266232,0.999999993837
1521803952781985044,0.0,0.0,0.00011103112558,0.999999993836
1521803952782104015,0.0,0.0,0.000111041486008,0.999999993835
1521803952821929931,0.0,0.0,0.000111048836167,0.999999993834
1521803952839647054,0.0,0.0,0.000111057113361,0.999999993833
1521803952878004074,0.0,0.0,0.000111063804283,0.999999993832
1521803952920466899,0.0,0.0,0.000111075829985,0.999999993831
1521803952920984983,0.0,0.0,0.000111084586401,0.99999999383
1521803952958071947,0.0,0.0,0.000111091115391,0.999999993829
1521803952958183050,0.0,0.0,0.000111098273478,0.999999993829
1521803952958251953,0.0,0.0,0.000111107289419,0.999999993828
1521803953002147912,0.0,0.0,0.000111115043324,0.999999993827
1521803953020298957,0.0,0.0,0.000111120882325,0.999999993826
1521803953058088064,0.0,0.0,0.000111125842737,0.999999993826
1521803953058187007,0.0,0.0,0.000111133368221,0.999999993825
1521803953058243036,0.0,0.0,0.000111142079718,0.999999993824
1521803953098083972,0.0,0.0,0.000111147162045,0.999999993823
1521803953098202943,0.0,0.0,0.000111151732241,0.999999993823
1521803953109183073,0.0,0.0,0.000111158214562,0.999999993822
1521803953164041996,0.0,0.0,0.000111165380326,0.999999993821
1521803953207614898,0.0,0.0,0.000111171794616,0.99999999382
1521803953207777023,0.0,0.0,0.000111178175476,0.99999999382
1521803953207881927,0.0,0.0,0.000111179150868,0.99999999382
1521803953243275880,0.0,0.0,0.000111188513661,0.999999993819
1521803953243597984,0.0,0.0,0.000111193731879,0.999999993818
1521803953259496927,0.0,0.0,0.000111199954726,0.999999993817
1521803953275378942,0.0,0.0,0.000111199526481,0.999999993817
1521803953320890903,0.0,0.0,0.000111204384168,0.999999993817
1521803953358021974,0.0,0.0,0.000111211719068,0.999999993816
1521803953358179092,0.0,0.0,0.000111215113254,0.999999993816
1521803953397855997,0.0,0.0,0.000111219078837,0.999999993815
1521803953397943019,0.0,0.0,0.000111222610741,0.999999993815
1521803953439537048,0.0,0.0,0.000111225106421,0.999999993814
1521803953452001094,0.0,0.0,0.00011122743606,0.999999993814
1521803953491256952,0.0,0.0,0.000111231115385,0.999999993814
1521803953491652965,0.0,0.0,0.000111239064398,0.999999993813
1521803953530160903,0.0,0.0,0.000111243625373,0.999999993812
1521803953534981966,0.0,0.0,0.000111248274665,0.999999993812
1521803953573993921,0.0,0.0,0.000111254785528,0.999999993811
1521803953574106931,0.0,0.0,0.000111260389386,0.999999993811
1521803953614800930,0.0,0.0,0.00011126562344,0.99999999381
1521803953614933013,0.0,0.0,0.000111274849068,0.999999993809
1521803953654376029,0.0,0.0,0.000111281370779,0.999999993808
1521803953654567956,0.0,0.0,0.000111288291662,0.999999993807
1521803953694622993,0.0,0.0,0.00011130305611,0.999999993806
1521803953694765090,0.0,0.0,0.000111311947566,0.999999993805
1521803953733978986,0.0,0.0,0.000111322058876,0.999999993804
1521803953734138011,0.0,0.0,0.000111330727775,0.999999993803
1521803953773850917,0.0,0.0,0.000111339364506,0.999999993802
1521803953775057077,0.0,0.0,0.000111348427116,0.999999993801
1521803953813863992,0.0,0.0,0.000111355816107,0.9999999938
1521803953855109930,0.0,0.0,0.000111365517692,0.999999993799
1521803953855525970,0.0,0.0,0.000111380209948,0.999999993797
1521803953894093990,0.0,0.0,0.000111382694155,0.999999993797
1521803953894207954,0.0,0.0,0.000111392788522,0.999999993796
1521803953935484886,0.0,0.0,0.000111411874218,0.999999993794
1521803953935733079,0.0,0.0,0.000111415458976,0.999999993793
1521803953974481105,0.0,0.0,0.000111420679794,0.999999993793
1521803954014034986,0.0,0.0,0.000111427323973,0.999999993792
1521803954014142036,0.0,0.0,0.000111432830966,0.999999993791
1521803954054028034,0.0,0.0,0.000111441949226,0.99999999379
1521803954054490089,0.0,0.0,0.000111444954795,0.99999999379
1521803954094055891,0.0,0.0,0.000111454406661,0.999999993789
1521803954135097980,0.0,0.0,0.000111458285023,0.999999993789
1521803954135194063,0.0,0.0,0.00011146313301,0.999999993788
1521803954135253906,0.0,0.0,0.000111471990061,0.999999993787
1521803954174417972,0.0,0.0,0.00011147708757,0.999999993786
1521803954174520015,0.0,0.0,0.000111482252301,0.999999993786
1521803954187484025,0.0,0.0,0.000111488081025,0.999999993785
1521803954212352037,0.0,0.0,0.000111490622589,0.999999993785
1521803954265342950,0.0,0.0,0.000111495948637,0.999999993784
1521803954302782058,0.0,0.0,0.000111500772977,0.999999993784
1521803954303072929,0.0,0.0,0.000111507405143,0.999999993783
1521803954303175926,0.0,0.0,0.000111513237743,0.999999993782
1521803954341903924,0.0,0.0,0.000111517465273,0.999999993782
1521803954342000961,0.0,0.0,0.000111517991661,0.999999993782
1521803954366899013,0.0,0.0,0.000111522542641,0.999999993781
1521803954385502099,0.0,0.0,0.000111527376581,0.999999993781
1521803954422884941,0.0,0.0,0.000111534196293,0.99999999378
1521803954423011064,0.0,0.0,0.000111538656476,0.99999999378
1521803954461877107,0.0,0.0,0.000111541253257,0.999999993779
1521803954463784933,0.0,0.0,0.000111544309268,0.999999993779
1521803954503009080,0.0,0.0,0.000111549608313,0.999999993778
1521803954541898012,0.0,0.0,0.00011155461004,0.999999993778
1521803954541975021,0.0,0.0,0.000111560643597,0.999999993777
1521803954582964897,0.0,0.0,0.00011156531366,0.999999993777
1521803954583291053,0.0,0.0,0.000111572017516,0.999999993776
1521803954623517990,0.0,0.0,0.00011157979457,0.999999993775
1521803954624176979,0.0,0.0,0.000111585985061,0.999999993774
1521803954692975997,0.0,0.0,0.000111590342728,0.999999993774
1521803954694173097,0.0,0.0,0.000111596839007,0.999999993773
1521803954694380044,0.0,0.0,0.000111604547335,0.999999993772
1521803954729909896,0.0,0.0,0.000111610636219,0.999999993772
1521803954730019092,0.0,0.0,0.000111614423227,0.999999993771
1521803954771215915,0.0,0.0,0.000111625006124,0.99999999377
1521803954771315097,0.0,0.0,0.000111630282808,0.999999993769
1521803954810312032,0.0,0.0,0.000111632056622,0.999999993769
1521803954834728002,0.0,0.0,0.000111647167271,0.999999993767
1521803954875118017,0.0,0.0,0.000111652862313,0.999999993767
1521803954875195026,0.0,0.0,0.000111656563276,0.999999993766
1521803954875253915,0.0,0.0,0.000111660735246,0.999999993766
1521803954941133975,0.0,0.0,0.000111665173564,0.999999993765
1521803954941365957,0.0,0.0,0.000111672961019,0.999999993765
1521803954978154897,0.0,0.0,0.00011167840361,0.999999993764
1521803954978293895,0.0,0.0,0.000111685583685,0.999999993763
1521803955019026994,0.0,0.0,0.000111693665396,0.999999993762
1521803955019154071,0.0,0.0,0.000111701822788,0.999999993761
1521803955019217967,0.0,0.0,0.000111710482399,0.99999999376
1521803955058011054,0.0,0.0,0.000111716683979,0.99999999376
1521803955058562040,0.0,0.0,0.000111725845393,0.999999993759
1521803955113291978,0.0,0.0,0.000111730034181,0.999999993758
1521803955151544094,0.0,0.0,0.000111734010715,0.999999993758
1521803955152005910,0.0,0.0,0.000111741371127,0.999999993757
1521803955190031051,0.0,0.0,0.000111754616137,0.999999993755
1521803955190128087,0.0,0.0,0.000111758435817,0.999999993755
1521803955190165042,0.0,0.0,0.000111765529881,0.999999993754
1521803955231426000,0.0,0.0,0.000111771461339,0.999999993754
1521803955240602016,0.0,0.0,0.000111775821248,0.999999993753
1521803955278233051,0.0,0.0,0.000111781607496,0.999999993752
1521803955278435945,0.0,0.0,0.000111784479126,0.999999993752
1521803955318633079,0.0,0.0,0.000111791309553,0.999999993751
1521803955318722963,0.0,0.0,0.000111794152006,0.999999993751
1521803955357975006,0.0,0.0,0.000111799073383,0.99999999375
1521803955358082056,0.0,0.0,0.000111801202913,0.99999999375
1521803955400473117,0.0,0.0,0.000111803710395,0.99999999375
1521803955401796102,0.0,0.0,0.000111806584539,0.99999999375
1521803955449011087,0.0,0.0,0.000111809640832,0.999999993749
1521803955486696004,0.0,0.0,0.000111811803544,0.999999993749
1521803955486768007,0.0,0.0,0.000111815606663,0.999999993749
1521803955526284933,0.0,0.0,0.000111822142992,0.999999993748
1521803955526422977,0.0,0.0,0.00011182085232,0.999999993748
1521803955526474952,0.0,0.0,0.000111824770116,0.999999993748
1521803955565881013,0.0,0.0,0.000111827496396,0.999999993747
1521803955593712091,0.0,0.0,0.000111833295561,0.999999993747
1521803955629911899,0.0,0.0,0.000111837657051,0.999999993746
1521803955630016088,0.0,0.0,0.000111840705932,0.999999993746
1521803955670011997,0.0,0.0,0.000111850317425,0.999999993745
1521803955675403118,0.0,0.0,0.000111851645812,0.999999993745
1521803955713979005,0.0,0.0,0.000111857400769,0.999999993744
1521803955755072116,0.0,0.0,0.000111870031349,0.999999993743
1521803955755408048,0.0,0.0,0.000111873870629,0.999999993742
1521803955755505084,0.0,0.0,0.000111880920229,0.999999993741
1521803955804560899,0.0,0.0,0.000111888485482,0.99999999374
1521803955805195093,0.0,0.0,0.000111894452845,0.99999999374
1521803955841941118,0.0,0.0,0.000111902885336,0.999999993739
1521803955842056989,0.0,0.0,0.000111908510777,0.999999993738
1521803955882639884,0.0,0.0,0.00011191245362,0.999999993738
1521803955935426950,0.0,0.0,0.000111925865265,0.999999993736
1521803955975334882,0.0,0.0,0.000111929742166,0.999999993736
1521803955975941896,0.0,0.0,0.000111935855896,0.999999993735
1521803955976067066,0.0,0.0,0.000111945137374,0.999999993734
1521803955976136922,0.0,0.0,0.000111954123773,0.999999993733
1521803956016226053,0.0,0.0,0.000111964893347,0.999999993732
1521803956016311883,0.0,0.0,0.000111973548064,0.999999993731
1521803956022382974,0.0,0.0,0.000111979717892,0.99999999373
1521803956075325965,0.0,0.0,0.000111981747911,0.99999999373
1521803956113936901,0.0,0.0,0.000111995922613,0.999999993728
1521803956114037036,0.0,0.0,0.000112005166945,0.999999993727
1521803956114097118,0.0,0.0,0.000112011618158,0.999999993727
1521803956158082008,0.0,0.0,0.000112014647998,0.999999993726
1521803956158180952,0.0,0.0,0.000112023999462,0.999999993725
1521803956163610935,0.0,0.0,0.000112032303019,0.999999993724
1521803956188122987,0.0,0.0,0.00011203771587,0.999999993724
1521803956229923963,0.0,0.0,0.00011204463817,0.999999993723
1521803956230051994,0.0,0.0,0.000112046427704,0.999999993723
1521803956270947933,0.0,0.0,0.000112050875478,0.999999993722
1521803956271233081,0.0,0.0,0.000112054722157,0.999999993722
1521803956314167022,0.0,0.0,0.000112056592054,0.999999993722
1521803956337373018,0.0,0.0,0.000112062568832,0.999999993721
1521803956374129056,0.0,0.0,0.000112065193685,0.999999993721
1521803956374242067,0.0,0.0,0.000112068877415,0.99999999372
1521803956414968013,0.0,0.0,0.000112072259776,0.99999999372
1521803956416137933,0.0,0.0,0.000112073677712,0.99999999372
1521803956455094099,0.0,0.0,0.000112077633833,0.999999993719
1521803956455173015,0.0,0.0,0.000112080487679,0.999999993719
1521803956494070053,0.0,0.0,0.00011208864238,0.999999993718
1521803956494164943,0.0,0.0,0.000112096315125,0.999999993717
1521803956534550905,0.0,0.0,0.000112097681824,0.999999993717
1521803956534852027,0.0,0.0,0.000112098931259,0.999999993717
1521803956574261903,0.0,0.0,0.000112109188481,0.999999993716
1521803956574419021,0.0,0.0,0.000112113789875,0.999999993715
1521803956614140033,0.0,0.0,0.000112120549058,0.999999993714
1521803956614260911,0.0,0.0,0.000112122816355,0.999999993714
1521803956654808998,0.0,0.0,0.000112124883991,0.999999993714
1521803956655014991,0.0,0.0,0.0001121313981,0.999999993713
1521803956697242975,0.0,0.0,0.00011213904802,0.999999993712
1521803956719638109,0.0,0.0,0.000112146794673,0.999999993712
1521803956759387969,0.0,0.0,0.000112152366387,0.999999993711
1521803956759804964,0.0,0.0,0.00011215844195,0.99999999371
1521803956798202037,0.0,0.0,0.000112164594748,0.99999999371
1521803956798300027,0.0,0.0,0.000112169683549,0.999999993709
1521803956798371076,0.0,0.0,0.000112175375296,0.999999993708
1521803956841593027,0.0,0.0,0.000112181418058,0.999999993708
1521803956844029903,0.0,0.0,0.000112194113144,0.999999993706
1521803956881810903,0.0,0.0,0.000112202055182,0.999999993705
1521803956881877899,0.0,0.0,0.000112208900283,0.999999993705
1521803956937146902,0.0,0.0,0.000112218351829,0.999999993704
1521803956937870025,0.0,0.0,0.000112227127971,0.999999993703
1521803956977982044,0.0,0.0,0.000112233954441,0.999999993702
1521803956978094100,0.0,0.0,0.000112240419108,0.999999993701
1521803957019845008,0.0,0.0,0.000112249776326,0.9999999937
1521803957020117044,0.0,0.0,0.000112259376753,0.999999993699
1521803957057895898,0.0,0.0,0.000112264970191,0.999999993698
1521803957058255910,0.0,0.0,0.000112270258352,0.999999993698
1521803957098366975,0.0,0.0,0.000112276793418,0.999999993697
1521803957098423004,0.0,0.0,0.00011228674984,0.999999993696
1521803957143131971,0.0,0.0,0.000112301007817,0.999999993694
1521803957143340110,0.0,0.0,0.000112303654264,0.999999993694
1521803957182132005,0.0,0.0,0.000112323694916,0.999999993692
1521803957222611904,0.0,0.0,0.00011232603123,0.999999993691
1521803957262238025,0.0,0.0,0.000112334067816,0.999999993691
1521803957262418985,0.0,0.0,0.000112344485765,0.999999993689
1521803957262500047,0.0,0.0,0.000112350116413,0.999999993689
1521803957302002906,0.0,0.0,0.000112357936586,0.999999993688
1521803957302148103,0.0,0.0,0.000112361357471,0.999999993687
1521803957313427925,0.0,0.0,0.000112368743392,0.999999993687
1521803957356489896,0.0,0.0,0.000112375447835,0.999999993686
1521803957394732952,0.0,0.0,0.000112377764673,0.999999993686
1521803957394821882,0.0,0.0,0.000112382265303,0.999999993685
1521803957433923006,0.0,0.0,0.000112386787442,0.999999993685
1521803957434015035,0.0,0.0,0.000112390685561,0.999999993684
1521803957479419946,0.0,0.0,0.000112396408699,0.999999993684
1521803957479506969,0.0,0.0,0.000112402031481,0.999999993683
1521803957519534111,0.0,0.0,0.000112407555579,0.999999993682
1521803957519772052,0.0,0.0,0.000112409876352,0.999999993682
1521803957558202981,0.0,0.0,0.000112413198626,0.999999993682
1521803957558362007,0.0,0.0,0.000112413981984,0.999999993682
1521803957558455944,0.0,0.0,0.000112418290196,0.999999993681
1521803957597889900,0.0,0.0,0.000112422447285,0.999999993681
1521803957605685949,0.0,0.0,0.000112426208663,0.99999999368
1521803957641982078,0.0,0.0,0.000112429045485,0.99999999368
1521803957642069101,0.0,0.0,0.000112430273295,0.99999999368
1521803957681963920,0.0,0.0,0.000112434654817,0.999999993679
1521803957702065944,0.0,0.0,0.000112439154968,0.999999993679
1521803957742048978,0.0,0.0,0.000112442690164,0.999999993678
1521803957742180109,0.0,0.0,0.000112446380803,0.999999993678
1521803957783170938,0.0,0.0,0.000112451808654,0.999999993677
1521803957783458948,0.0,0.0,0.000112456273998,0.999999993677
1521803957821903944,0.0,0.0,0.000112461357679,0.999999993676
1521803957822016000,0.0,0.0,0.000112468992994,0.999999993675
1521803957862027883,0.0,0.0,0.000112477169543,0.999999993674
1521803957862166881,0.0,0.0,0.00011248411813,0.999999993674
1521803957906200885,0.0,0.0,0.000112489391297,0.999999993673
1521803957906323909,0.0,0.0,0.000112495059622,0.999999993672
1521803957946878910,0.0,0.0,0.000112501176876,0.999999993672
1521803957949485063,0.0,0.0,0.000112513497409,0.99999999367
1521803957991221904,0.0,0.0,0.000112517651321,0.99999999367
1521803957991411924,0.0,0.0,0.000112528122353,0.999999993669
1521803957991498947,0.0,0.0,0.000112533464122,0.999999993668
1521803958039422035,0.0,0.0,0.00011254169218,0.999999993667
1521803958039691925,0.0,0.0,0.000112549466736,0.999999993666
1521803958078007936,0.0,0.0,0.000112556551366,0.999999993666
1521803958118144989,0.0,0.0,0.000112566266376,0.999999993664
1521803958118223905,0.0,0.0,0.000112574661405,0.999999993663
1521803958158020973,0.0,0.0,0.000112582051092,0.999999993663
1521803958158123970,0.0,0.0,0.00011258402777,0.999999993662
1521803958199007034,0.0,0.0,0.000112599734676,0.999999993661
1521803958199204921,0.0,0.0,0.000112608601443,0.99999999366
1521803958238102912,0.0,0.0,0.000112614366378,0.999999993659
1521803958238245964,0.0,0.0,0.000112621728222,0.999999993658
1521803958277821063,0.0,0.0,0.000112630546539,0.999999993657
1521803958277909994,0.0,0.0,0.000112636871179,0.999999993656
1521803958322341918,0.0,0.0,0.0001126408778,0.999999993656
1521803958353318929,0.0,0.0,0.000112645459107,0.999999993656
1521803958389949083,0.0,0.0,0.000112652182162,0.999999993655
1521803958390049934,0.0,0.0,0.000112659720281,0.999999993654
1521803958390104055,0.0,0.0,0.000112664254128,0.999999993653
1521803958390156030,0.0,0.0,0.000112670452257,0.999999993653
1521803958445141077,0.0,0.0,0.000112673924489,0.999999993652
1521803958445415019,0.0,0.0,0.000112676600351,0.999999993652
1521803958493705034,0.0,0.0,0.000112679171555,0.999999993652
1521803958530030012,0.0,0.0,0.000112681397086,0.999999993651
1521803958530153036,0.0,0.0,0.000112686019728,0.999999993651
1521803958570708990,0.0,0.0,0.000112686619259,0.999999993651
1521803958571324110,0.0,0.0,0.000112691375802,0.99999999365
1521803958610244035,0.0,0.0,0.000112694118739,0.99999999365
1521803958610397100,0.0,0.0,0.000112700088785,0.999999993649
1521803958651531934,0.0,0.0,0.000112704349812,0.999999993649
1521803958652018070,0.0,0.0,0.00011270599666,0.999999993649
1521803958690181970,0.0,0.0,0.000112706181473,0.999999993649
1521803958690352916,0.0,0.0,0.000112712293343,0.999999993648
1521803958730241060,0.0,0.0,0.000112721245257,0.999999993647
1521803958790097951,0.0,0.0,0.000112732123803,0.999999993646
1521803958829878091,0.0,0.0,0.000112740153838,0.999999993645
1521803958829957962,0.0,0.0,0.000112749011076,0.999999993644
1521803958829999923,0.0,0.0,0.000112755306181,0.999999993643
1521803958830035924,0.0,0.0,0.000112761127335,0.999999993642
1521803958830070018,0.0,0.0,0.000112767858048,0.999999993642
1521803958875539064,0.0,0.0,0.000112775823337,0.999999993641
1521803958875777959,0.0,0.0,0.000112783123329,0.99999999364
1521803958887376070,0.0,0.0,0.000112787394152,0.99999999364
1521803958909023046,0.0,0.0,0.000112794526819,0.999999993639
1521803958955210924,0.0,0.0,0.000112803979267,0.999999993638
1521803958994055986,0.0,0.0,0.000112808812111,0.999999993637
1521803958994180917,0.0,0.0,0.000112813053429,0.999999993637
1521803959035407066,0.0,0.0,0.000112822295765,0.999999993636
1521803959036134004,0.0,0.0,0.00011283086291,0.999999993635
1521803959082075119,0.0,0.0,0.000112837219023,0.999999993634
1521803959119211912,0.0,0.0,0.000112846011068,0.999999993633
1521803959119370937,0.0,0.0,0.000112852278941,0.999999993632
1521803959158193111,0.0,0.0,0.00011286339264,0.999999993631
1521803959158293008,0.0,0.0,0.000112868355421,0.99999999363
1521803959158359050,0.0,0.0,0.000112874613209,0.99999999363
1521803959210380077,0.0,0.0,0.000112882006993,0.999999993629
1521803959213026046,0.0,0.0,0.000112891665837,0.999999993628
1521803959254780054,0.0,0.0,0.000112895158726,0.999999993627
1521803959294172048,0.0,0.0,0.000112898970651,0.999999993627
1521803959294318914,0.0,0.0,0.000112907575958,0.999999993626
1521803959294385910,0.0,0.0,0.000112913651443,0.999999993625
1521803959335767030,0.0,0.0,0.000112920625607,0.999999993624
1521803959369505882,0.0,0.0,0.000112926941195,0.999999993624
1521803959406402111,0.0,0.0,0.000112929789059,0.999999993623
1521803959406516075,0.0,0.0,0.000112934854955,0.999999993623
1521803959446038007,0.0,0.0,0.000112943678372,0.999999993622
1521803959446290016,0.0,0.0,0.000112948538801,0.999999993621
1521803959486244916,0.0,0.0,0.000112953440644,0.999999993621
1521803959486396074,0.0,0.0,0.000112955590797,0.999999993621
1521803959526103973,0.0,0.0,0.000112959730794,0.99999999362
1521803959526237010,0.0,0.0,0.000112963362318,0.99999999362
1521803959566059112,0.0,0.0,0.000112967877371,0.999999993619
1521803959566186904,0.0,0.0,0.000112971995773,0.999999993619
1521803959606359958,0.0,0.0,0.000112972241218,0.999999993619
1521803959606429100,0.0,0.0,0.000112978998496,0.999999993618
1521803959646023988,0.0,0.0,0.00011298181831,0.999999993618
1521803959646114110,0.0,0.0,0.000112982918235,0.999999993617
1521803959686975955,0.0,0.0,0.000112988937689,0.999999993617
1521803959687261104,0.0,0.0,0.000112994386169,0.999999993616
1521803959725889921,0.0,0.0,0.000112997973683,0.999999993616
1521803959725985050,0.0,0.0,0.000113003594684,0.999999993615
1521803959791699886,0.0,0.0,0.000113009662488,0.999999993614
1521803959792814016,0.0,0.0,0.00011301333625,0.999999993614
1521803959829891920,0.0,0.0,0.000113016173429,0.999999993614
1521803959830008983,0.0,0.0,0.000113016149287,0.999999993614
1521803959830070972,0.0,0.0,0.000113018972439,0.999999993613
1521803959871314048,0.0,0.0,0.0001130272377,0.999999993612
1521803959895281076,0.0,0.0,0.00011303381283,0.999999993612
1521803959939363956,0.0,0.0,0.000113040341067,0.999999993611
1521803959939657926,0.0,0.0,0.000113046178293,0.99999999361
1521803959979139089,0.0,0.0,0.000113050909291,0.99999999361
1521803959979329109,0.0,0.0,0.000113057164046,0.999999993609
1521803959979399919,0.0,0.0,0.000113061778834,0.999999993609
1521803960018178939,0.0,0.0,0.00011308117945,0.999999993606
1521803960059659957,0.0,0.0,0.000113089524267,0.999999993605
1521803960102116107,0.0,0.0,0.000113096299936,0.999999993605
1521803960102484941,0.0,0.0,0.000113102843168,0.999999993604
1521803960142697095,0.0,0.0,0.000113112301691,0.999999993603
1521803960142833948,0.0,0.0,0.000113118269901,0.999999993602
1521803960142923116,0.0,0.0,0.000113123128911,0.999999993602
1521803960181946992,0.0,0.0,0.000113132665523,0.9999999936
1521803960203742027,0.0,0.0,0.000113137637098,0.9999999936
1521803960242396116,0.0,0.0,0.000113143855791,0.999999993599
1521803960242456912,0.0,0.0,0.000113150417855,0.999999993598
1521803960299640893,0.0,0.0,0.000113155453342,0.999999993598
1521803960299884080,0.0,0.0,0.000113163925655,0.999999993597
1521803960339180946,0.0,0.0,0.000113168238051,0.999999993596
1521803960339531898,0.0,0.0,0.0001131738251,0.999999993596
1521803960339701890,0.0,0.0,0.000113181500204,0.999999993595
1521803960378036022,0.0,0.0,0.000113183463749,0.999999993595
1521803960405833959,0.0,0.0,0.000113188085383,0.999999993594
1521803960442040920,0.0,0.0,0.000113194514341,0.999999993594
1521803960442114114,0.0,0.0,0.000113199950294,0.999999993593
1521803960487190008,0.0,0.0,0.000113203616175,0.999999993592
1521803960487529993,0.0,0.0,0.000113207564808,0.999999993592
1521803960530627012,0.0,0.0,0.000113211735033,0.999999993592
1521803960530910968,0.0,0.0,0.000113210913793,0.999999993592
1521803960531007051,0.0,0.0,0.000113212316137,0.999999993591
1521803960569969892,0.0,0.0,0.0001132154324,0.999999993591
1521803960570059061,0.0,0.0,0.000113221318799,0.99999999359
1521803960588922977,0.0,0.0,0.000113224239514,0.99999999359
1521803960641972064,0.0,0.0,0.000113227124384,0.99999999359
1521803960679081916,0.0,0.0,0.000113229802405,0.99999999359
1521803960679240942,0.0,0.0,0.000113235639252,0.999999993589
1521803960679296016,0.0,0.0,0.000113238207901,0.999999993589
1521803960722620964,0.0,0.0,0.000113241529504,0.999999993588
1521803960722958087,0.0,0.0,0.000113246317865,0.999999993588
1521803960761984109,0.0,0.0,0.00011324869048,0.999999993587
1521803960762115955,0.0,0.0,0.00011325418296,0.999999993587
1521803960803076028,0.0,0.0,0.000113259575712,0.999999993586
1521803960803281068,0.0,0.0,0.000113262504909,0.999999993586
1521803960842174053,0.0,0.0,0.000113267445757,0.999999993585
1521803960852785110,0.0,0.0,0.000113270521978,0.999999993585
1521803960890235900,0.0,0.0,0.000113275740725,0.999999993584
1521803960890492916,0.0,0.0,0.000113277673318,0.999999993584
1521803960930160999,0.0,0.0,0.0001132805382,0.999999993584
1521803960930289030,0.0,0.0,0.000113286210536,0.999999993583
1521803960969860076,0.0,0.0,0.000113293344015,0.999999993582
1521803960969957113,0.0,0.0,0.000113301093049,0.999999993581
1521803961010129928,0.0,0.0,0.000113308829663,0.999999993581
1521803961038657903,0.0,0.0,0.00011331650125,0.99999999358
1521803961074199914,0.0,0.0,0.000113329911721,0.999999993578
1521803961074410915,0.0,0.0,0.000113336576777,0.999999993577
1521803961115845918,0.0,0.0,0.000113345208966,0.999999993576
1521803961116235971,0.0,0.0,0.000113353918126,0.999999993575
1521803961116362094,0.0,0.0,0.000113360308829,0.999999993575
1521803961155699014,0.0,0.0,0.000113368039667,0.999999993574
1521803961162969112,0.0,0.0,0.000113378750007,0.999999993573
1521803961202807903,0.0,0.0,0.00011338642159,0.999999993572
1521803961203134059,0.0,0.0,0.000113394457512,0.999999993571
1521803961258232116,0.0,0.0,0.000113404561186,0.99999999357
1521803961266052007,0.0,0.0,0.000113423449918,0.999999993568
1521803961310009956,0.0,0.0,0.000113431819669,0.999999993567
1521803961346152067,0.0,0.0,0.000113439063202,0.999999993566
1521803961346297025,0.0,0.0,0.000113450003853,0.999999993565
1521803961386064052,0.0,0.0,0.000113453261137,0.999999993564
1521803961386157989,0.0,0.0,0.000113454725943,0.999999993564
1521803961386215925,0.0,0.0,0.000113466675312,0.999999993563
1521803961425893068,0.0,0.0,0.000113472817355,0.999999993562
1521803961426013946,0.0,0.0,0.000113474263823,0.999999993562
1521803961442014932,0.0,0.0,0.000113484426463,0.999999993561
1521803961497956037,0.0,0.0,0.000113491815578,0.99999999356
1521803961534288883,0.0,0.0,0.000113499350717,0.999999993559
1521803961534420967,0.0,0.0,0.000113501005554,0.999999993559
1521803961534466981,0.0,0.0,0.000113503998939,0.999999993558
1521803961575876951,0.0,0.0,0.000113503710469,0.999999993558
1521803961576209068,0.0,0.0,0.000113505691268,0.999999993558
1521803961614257097,0.0,0.0,0.000113507476759,0.999999993558
1521803961614589929,0.0,0.0,0.000113511515959,0.999999993558
1521803961655438899,0.0,0.0,0.000113515791471,0.999999993557
1521803961655889987,0.0,0.0,0.000113522772728,0.999999993556
1521803961699163913,0.0,0.0,0.000113527429513,0.999999993556
1521803961746004104,0.0,0.0,0.000113530266145,0.999999993555
1521803961782625913,0.0,0.0,0.000113536060637,0.999999993555
1521803961782818078,0.0,0.0,0.000113540885113,0.999999993554
1521803961822633028,0.0,0.0,0.00011354875403,0.999999993553
1521803961822887897,0.0,0.0,0.000113550302782,0.999999993553
1521803961822983980,0.0,0.0,0.000113554971754,0.999999993553
1521803961862111091,0.0,0.0,0.000113560711368,0.999999993552
1521803961862245082,0.0,0.0,0.000113565932191,0.999999993551
1521803961900785923,0.0,0.0,0.000113573945784,0.99999999355
1521803961901704072,0.0,0.0,0.000113577173542,0.99999999355
1521803961938417911,0.0,0.0,0.000113581320182,0.99999999355
1521803961938709020,0.0,0.0,0.000113588178705,0.999999993549
1521803961977998971,0.0,0.0,0.000113592280585,0.999999993548
1521803961978136062,0.0,0.0,0.000113602729526,0.999999993547
1521803962018752098,0.0,0.0,0.000113606911051,0.999999993547
1521803962022247076,0.0,0.0,0.00011361236962,0.999999993546
1521803962062057018,0.0,0.0,0.000113620212263,0.999999993545
1521803962101985931,0.0,0.0,0.000113626062224,0.999999993545
1521803962102101087,0.0,0.0,0.000113634483002,0.999999993544
1521803962102144002,0.0,0.0,0.000113643314159,0.999999993543
1521803962151727914,0.0,0.0,0.000113650492023,0.999999993542
1521803962152478933,0.0,0.0,0.000113663032594,0.99999999354
1521803962189929008,0.0,0.0,0.000113664947737,0.99999999354
1521803962190038919,0.0,0.0,0.000113678499318,0.999999993539
1521803962229903936,0.0,0.0,0.000113682123852,0.999999993538
1521803962256314992,0.0,0.0,0.000113683752623,0.999999993538
1521803962293996095,0.0,0.0,0.000113698731204,0.999999993536
1521803962294115066,0.0,0.0,0.000113704517058,0.999999993536
1521803962334536075,0.0,0.0,0.000113710412592,0.999999993535
1521803962334690093,0.0,0.0,0.000113719112625,0.999999993534
1521803962374109029,0.0,0.0,0.000113724757606,0.999999993533
1521803962374236106,0.0,0.0,0.000113731598255,0.999999993533
1521803962418867111,0.0,0.0,0.000113741340452,0.999999993531
1521803962441907882,0.0,0.0,0.000113745456344,0.999999993531
1521803962485239028,0.0,0.0,0.000113751319006,0.99999999353
1521803962485831975,0.0,0.0,0.000113758802389,0.999999993529
1521803962485966920,0.0,0.0,0.000113761555999,0.999999993529
1521803962486042022,0.0,0.0,0.000113767971948,0.999999993528
1521803962522660017,0.0,0.0,0.00011377255384,0.999999993528
1521803962522803068,0.0,0.0,0.000113773864614,0.999999993528
1521803962560950994,0.0,0.0,0.000113780439202,0.999999993527
1521803962564393043,0.0,0.0,0.000113782922197,0.999999993527
1521803962602128028,0.0,0.0,0.000113786828176,0.999999993526
1521803962602281093,0.0,0.0,0.000113790379804,0.999999993526
1521803962648382902,0.0,0.0,0.000113791320452,0.999999993526
1521803962651238918,0.0,0.0,0.000113796210442,0.999999993525
1521803962690450906,0.0,0.0,0.000113799971865,0.999999993525
1521803962690814018,0.0,0.0,0.000113807375285,0.999999993524
1521803962730058908,0.0,0.0,0.000113812780988,0.999999993523
1521803962795552015,0.0,0.0,0.000113814999586,0.999999993523
1521803962835160017,0.0,0.0,0.000113820098227,0.999999993522
1521803962835484981,0.0,0.0,0.000113823644514,0.999999993522
1521803962835655927,0.0,0.0,0.000113823881602,0.999999993522
1521803962835890054,0.0,0.0,0.000113832923597,0.999999993521
1521803962874982118,0.0,0.0,0.000113834852742,0.999999993521
1521803962875381946,0.0,0.0,0.000113837817096,0.99999999352
1521803962898879051,0.0,0.0,0.000113845553466,0.99999999352
1521803962925066947,0.0,0.0,0.000113853620526,0.999999993519
1521803962962456941,0.0,0.0,0.000113861293012,0.999999993518
1521803962962544918,0.0,0.0,0.000113867193444,0.999999993517
1521803963013101100,0.0,0.0,0.000113869821448,0.999999993517
1521803963013252019,0.0,0.0,0.000113880056235,0.999999993516
1521803963051966905,0.0,0.0,0.000113885414641,0.999999993515
1521803963090037107,0.0,0.0,0.000113891552282,0.999999993514
1521803963090121984,0.0,0.0,0.00011389553497,0.999999993514
1521803963130805015,0.0,0.0,0.000113900485431,0.999999993513
1521803963131046056,0.0,0.0,0.000113906432343,0.999999993513
1521803963173286914,0.0,0.0,0.000113919865801,0.999999993511
1521803963173794984,0.0,0.0,0.000113926313977,0.99999999351
1521803963210016965,0.0,0.0,0.000113927936572,0.99999999351
1521803963210170030,0.0,0.0,0.000113940097569,0.999999993509
1521803963253268003,0.0,0.0,0.000113945920789,0.999999993508
1521803963260982036,0.0,0.0,0.000113953386638,0.999999993507
1521803963298130989,0.0,0.0,0.000113956663732,0.999999993507
1521803963339036941,0.0,0.0,0.000113962500956,0.999999993506
1521803963339375972,0.0,0.0,0.00011396922384,0.999999993506
1521803963339508056,0.0,0.0,0.000113978688756,0.999999993504
1521803963382772922,0.0,0.0,0.000113987362446,0.999999993503
1521803963383021116,0.0,0.0,0.000113995125572,0.999999993503
1521803963388480901,0.0,0.0,0.000114002746916,0.999999993502
1521803963463670969,0.0,0.0,0.000114010886468,0.999999993501
1521803963502299070,0.0,0.0,0.000114014276162,0.9999999935
1521803963502439975,0.0,0.0,0.000114019565302,0.9999999935
1521803963502510070,0.0,0.0,0.000114022977038,0.999999993499
1521803963502571105,0.0,0.0,0.000114029352606,0.999999993499
1521803963542058944,0.0,0.0,0.000114033137196,0.999999993498
1521803963559492111,0.0,0.0,0.000114036793751,0.999999993498
1521803963598002910,0.0,0.0,0.000114044144103,0.999999993497
1521803963598098039,0.0,0.0,0.000114046130959,0.999999993497
1521803963638065099,0.0,0.0,0.000114048893115,0.999999993496
1521803963638185024,0.0,0.0,0.000114052396205,0.999999993496
1521803963681983947,0.0,0.0,0.000114060458434,0.999999993495
1521803963682071924,0.0,0.0,0.000114065382764,0.999999993495
1521803963682127952,0.0,0.0,0.000114066045233,0.999999993494
1521803963722264051,0.0,0.0,0.000114068156723,0.999999993494
1521803963745846033,0.0,0.0,0.000114074048646,0.999999993494
1521803963783602952,0.0,0.0,0.000114076365299,0.999999993493
1521803963783780097,0.0,0.0,0.000114076487551,0.999999993493
1521803963783852100,0.0,0.0,0.000114077020982,0.999999993493
1521803963822020053,0.0,0.0,0.000114083588648,0.999999993492
1521803963822144985,0.0,0.0,0.00011408400065,0.999999993492
1521803963850507020,0.0,0.0,0.000114088580017,0.999999993492
1521803963873308897,0.0,0.0,0.000114093083474,0.999999993491
1521803963909832000,0.0,0.0,0.000114098849121,0.999999993491
1521803963951872110,0.0,0.0,0.000114107159105,0.99999999349
1521803963952714920,0.0,0.0,0.000114111760454,0.999999993489
1521803963989859104,0.0,0.0,0.000114116544661,0.999999993489
1521803963990010023,0.0,0.0,0.000114123379529,0.999999993488
1521803964030386924,0.0,0.0,0.000114128173825,0.999999993487
1521803964037915945,0.0,0.0,0.000114133108292,0.999999993487
1521803964074189901,0.0,0.0,0.000114141719113,0.999999993486
1521803964074374914,0.0,0.0,0.0001141487055,0.999999993485
1521803964118474960,0.0,0.0,0.000114156534183,0.999999993484
1521803964118586063,0.0,0.0,0.000114164935128,0.999999993483
1521803964118643999,0.0,0.0,0.000114172255711,0.999999993482
1521803964170248985,0.0,0.0,0.000114174324662,0.999999993482
1521803964175858974,0.0,0.0,0.000114191364418,0.99999999348
1521803964214087963,0.0,0.0,0.000114199454239,0.999999993479
1521803964255191087,0.0,0.0,0.000114211628184,0.999999993478
1521803964255584955,0.0,0.0,0.000114219025264,0.999999993477
1521803964293988943,0.0,0.0,0.00011422873998,0.999999993476
1521803964294131040,0.0,0.0,0.000114235013704,0.999999993475
1521803964335562944,0.0,0.0,0.000114244085158,0.999999993474
1521803964354388952,0.0,0.0,0.000114253066683,0.999999993473
1521803964394047021,0.0,0.0,0.000114260757106,0.999999993472
1521803964394155979,0.0,0.0,0.000114267877773,0.999999993471
1521803964394200086,0.0,0.0,0.000114274173623,0.999999993471
1521803964434581041,0.0,0.0,0.000114278215502,0.99999999347
1521803964434864044,0.0,0.0,0.000114283420034,0.99999999347
1521803964457237005,0.0,0.0,0.000114290092581,0.999999993469
1521803964474323987,0.0,0.0,0.000114293634575,0.999999993468
1521803964509975910,0.0,0.0,0.00011430107074,0.999999993468
1521803964551525115,0.0,0.0,0.000114308951917,0.999999993467
1521803964590050935,0.0,0.0,0.000114313918661,0.999999993466
1521803964590156078,0.0,0.0,0.000114319133516,0.999999993466
1521803964590200901,0.0,0.0,0.000114326149288,0.999999993465
1521803964630189895,0.0,0.0,0.000114334883935,0.999999993464
1521803964630356073,0.0,0.0,0.000114336202677,0.999999993464
1521803964643573045,0.0,0.0,0.000114341509635,0.999999993463
1521803964666400909,0.0,0.0,0.000114344037807,0.999999993463
1521803964702867984,0.0,0.0,0.000114345275807,0.999999993463
1521803964746202945,0.0,0.0,0.000114347807839,0.999999993462
1521803964746392011,0.0,0.0,0.000114351082489,0.999999993462
1521803964746481895,0.0,0.0,0.000114356563955,0.999999993461
1521803964787070989,0.0,0.0,0.000114361416356,0.999999993461
1521803964794137001,0.0,0.0,0.000114366450135,0.99999999346
1521803964834462881,0.0,0.0,0.000114369762805,0.99999999346
1521803964874767065,0.0,0.0,0.000114372251337,0.999999993459
1521803964875144958,0.0,0.0,0.000114376647256,0.999999993459
1521803964914062023,0.0,0.0,0.000114380489463,0.999999993459
1521803964914180040,0.0,0.0,0.000114383737664,0.999999993458
1521803964955101013,0.0,0.0,0.000114388181096,0.999999993458
1521803964955313920,0.0,0.0,0.000114389423243,0.999999993458
1521803964994174003,0.0,0.0,0.000114394321259,0.999999993457
1521803964994298934,0.0,0.0,0.000114397275861,0.999999993457
1521803965033941030,0.0,0.0,0.000114404593532,0.999999993456
1521803965034049987,0.0,0.0,0.000114411078293,0.999999993455
1521803965075529098,0.0,0.0,0.000114413311219,0.999999993455
1521803965075990915,0.0,0.0,0.000114419135907,0.999999993454
1521803965113996028,0.0,0.0,0.000114420861274,0.999999993454
1521803965114118099,0.0,0.0,-3.90975885198e-05,0.999999999236
1521803965155073881,0.0,0.0,-0.000209360963981,0.999999978084
1521803965159989118,0.0,0.0,-0.00373462172806,0.999993026276
1521803965199115991,0.0,0.0,-0.00729845228725,0.999973365942
1521803965237930059,0.0,0.0,-0.0118336958608,0.99992997937
1521803965238013029,0.0,0.0,-0.0199854848769,0.999800270251
1521803965277978897,0.0,0.0,-0.0211442288249,0.999776435803
1521803965278111934,0.0,0.0,-0.0256694920077,0.9996704843
1521803965319036006,0.0,0.0,-0.0297329339227,0.999557878585
1521803965319475889,0.0,0.0,-0.0302085085105,0.999543618865
1521803965358180046,0.0,0.0,-0.0301931225678,0.999544083745
1521803965358316898,0.0,0.0,-0.0301699822229,0.999544782475
1521803965398875951,0.0,0.0,-0.0301582871925,0.999545135406
1521803965399231910,0.0,0.0,-0.0301477812459,0.999545452336
1521803965437900066,0.0,0.0,-0.0301447823713,0.999545542782
1521803965491662979,0.0,0.0,-0.0301437423422,0.999545574147
1521803965530173063,0.0,0.0,-0.0301430250198,0.99954559578
1521803965530277013,0.0,0.0,-0.0301427959717,0.999545602687
1521803965530354022,0.0,0.0,-0.030163366234,0.999544982148
1521803965530431032,0.0,0.0,-0.0304227929998,0.999537119704
1521803965571115016,0.0,0.0,-0.0313892653775,0.999507235601
1521803965571273088,0.0,0.0,-0.0330875017435,0.999452458713
1521803965598654031,0.0,0.0,-0.0368395656639,0.999321192811
1521803965601720094,0.0,0.0,-0.041011504237,0.999158674346
1521803965637931108,0.0,0.0,-0.0464072159313,0.998922604765
1521803965678375005,0.0,0.0,-0.0506140907684,0.998718285512
1521803965678525924,0.0,0.0,-0.0590052502495,0.998257672369
1521803965720247983,0.0,0.0,-0.062911403411,0.998019115709
1521803965720947980,0.0,0.0,-0.0636748425858,0.997970698178
1521803965757932901,0.0,0.0,-0.0661349218546,0.997810689515
1521803965758083105,0.0,0.0,-0.0670261416197,0.997751219663
1521803965799562931,0.0,0.0,-0.0674531419175,0.99772244319
1521803965800189018,0.0,0.0,-0.067432183839,0.997723859884
1521803965839323997,0.0,0.0,-0.067422538602,0.997724511721
1521803965859827041,0.0,0.0,-0.0674176225282,0.997724843919
1521803965899684906,0.0,0.0,-0.0674987324313,0.9977193599
1521803965900338888,0.0,0.0,-0.0680662316285,0.997680804723
1521803965900554895,0.0,0.0,-0.0693890309828,0.99758967636
1521803965944369077,0.0,0.0,-0.0764926174476,0.997070147721
1521803965944781064,0.0,0.0,-0.0809585580615,0.996717468432
1521803965983287096,0.0,0.0,-0.0866027961145,0.996242920028
1521803965983935117,0.0,0.0,-0.0897692565829,0.995962589946
1521803966023396968,0.0,0.0,-0.0954325931163,0.995435894556
1521803966028402090,0.0,0.0,-0.100311347482,0.994956096301
1521803966065865039,0.0,0.0,-0.104738728207,0.994499773159
1521803966065968036,0.0,0.0,-0.110183126351,0.99391130322
1521803966105773925,0.0,0.0,-0.114451335691,0.993428855912
1521803966110160112,0.0,0.0,-0.118829516183,0.992914672106
1521803966149821996,0.0,0.0,-0.123935781152,0.992290240882
1521803966190839052,0.0,0.0,-0.128225039096,0.991745097971
1521803966234806060,0.0,0.0,-0.133533759022,0.991044265006
1521803966275747060,0.0,0.0,-0.13771312716,0.990472157412
1521803966276082038,0.0,0.0,-0.145762204867,0.989319654931
1521803966276182889,0.0,0.0,-0.147235230544,0.989101504845
1521803966276288986,0.0,0.0,-0.150805273965,0.988563487766
1521803966314933061,0.0,0.0,-0.151850316917,0.988403501234
1521803966315403938,0.0,0.0,-0.15211604792,0.988362639908
1521803966322760105,0.0,0.0,-0.152095348217,0.988365825517
1521803966373835086,0.0,0.0,-0.152095348217,0.988365825517
1521803966410357952,0.0,0.0,-0.152071159891,0.988369547451
1521803966410543918,0.0,0.0,-0.15207139999,0.98836951051
1521803966450135946,0.0,0.0,-0.152868032546,0.988246611239
1521803966484725952,0.0,0.0,-0.154449278628,0.988000718791
1521803966522478103,0.0,0.0,-0.157564660498,0.987508672247
1521803966522559881,0.0,0.0,-0.161392984523,0.986890219096
1521803966522617101,0.0,0.0,-0.166169804875,0.986097153402
1521803966562215089,0.0,0.0,-0.170675048341,0.985327370915
1521803966573128938,0.0,0.0,-0.176114391714,0.984369707494
1521803966610389947,0.0,0.0,-0.18037747831,0.983597461017
1521803966610574960,0.0,0.0,-0.184900451506,0.982757255396
1521803966651582002,0.0,0.0,-0.18998703885,0.981786598538
1521803966651875019,0.0,0.0,-0.19424372869,0.980953298514
1521803966690032005,0.0,0.0,-0.1985071758,0.980099434321
1521803966690136909,0.0,0.0,-0.202243768239,0.97933521238
1521803966730010986,0.0,0.0,-0.205519491486,0.978653022587
1521803966730149984,0.0,0.0,-0.209881811018,0.977726764185
1521803966774406909,0.0,0.0,-0.212202158225,0.977225789695
1521803966774508953,0.0,0.0,-0.217096026577,0.976150252392
1521803966814527034,0.0,0.0,-0.219203689557,0.975679118606
1521803966814579963,0.0,0.0,-0.222992977898,0.974820050988
1521803966854126930,0.0,0.0,-0.224742276282,0.97441824144
1521803966854228019,0.0,0.0,-0.226391190586,0.974036461753
1521803966894778013,0.0,0.0,-0.227431641644,0.973794048236
1521803966895029067,0.0,0.0,-0.227509729988,0.973775807237
1521803966934004068,0.0,0.0,-0.227476896684,0.973783477717
1521803966934112071,0.0,0.0,-0.22745827547,0.973787827466
1521803966976344108,0.0,0.0,-0.227455317107,0.973788518478
1521803966976998090,0.0,0.0,-0.227454131683,0.973788795366
1521803967013972997,0.0,0.0,-0.227453705297,0.97378889496
1521803967014060974,0.0,0.0,-0.227453595453,0.973788920616
1521803967057272911,0.0,0.0,-0.227453622077,0.973788914398
1521803967064393997,0.0,0.0,-0.227453706299,0.973788894725
1521803967103226900,0.0,0.0,-0.227453809568,0.973788870604
1521803967103718042,0.0,0.0,-0.2274539249,0.973788843666
1521803967142939090,0.0,0.0,-0.227453954729,0.973788836698
1521803967143266916,0.0,0.0,-0.227446959301,0.973790470638
1521803967183023929,0.0,0.0,-0.22744232014,0.973791554189
1521803967183254957,0.0,0.0,-0.227440101031,0.973792072489
1521803967223541021,0.0,0.0,-0.227438610811,0.973792420546
1521803967224086046,0.0,0.0,-0.227437791284,0.973792611954
1521803967261914014,0.0,0.0,-0.227437106435,0.973792771906
1521803967279036045,0.0,0.0,-0.227436034712,0.973793022215
1521803967319569110,0.0,0.0,-0.227435461919,0.973793155995
1521803967320240974,0.0,0.0,-0.227435322507,0.973793188555
1521803967357825040,0.0,0.0,-0.227434370888,0.973793410811
1521803967357969045,0.0,0.0,-0.227433847865,0.973793532965
1521803967398307085,0.0,0.0,-0.227433211787,0.973793681524
1521803967398658037,0.0,0.0,-0.227432719072,0.973793796599
1521803967438579082,0.0,0.0,-0.227432238111,0.973793908929
1521803967438684940,0.0,0.0,-0.227431768287,0.973794018658
1521803967479790925,0.0,0.0,-0.227431310469,0.973794125582
1521803967480607986,0.0,0.0,-0.227430861843,0.97379423036
1521803967518984079,0.0,0.0,-0.227430424281,0.973794332553
1521803967519376039,0.0,0.0,-0.227430000194,0.973794431598
1521803967558269977,0.0,0.0,-0.227429586774,0.973794528153
1521803967558464050,0.0,0.0,-0.227452558721,0.973789162772
1521803967599632978,0.0,0.0,-0.227699294949,0.973731498453
1521803967610312938,0.0,0.0,-0.228671839807,0.973503564287
1521803967653713941,0.0,0.0,-0.230853508839,0.972988518666
1521803967654272079,0.0,0.0,-0.234556259443,0.972102546626
1521803967703815937,0.0,0.0,-0.237859342615,0.971299610383
1521803967728322029,0.0,0.0,-0.240124998952,0.970741976469
1521803967766623020,0.0,0.0,-0.241890954623,0.970303440204
1521803967766889095,0.0,0.0,-0.242993218639,0.970027987068
1521803967767046928,0.0,0.0,-0.242981883495,0.970030826465
1521803967767159938,0.0,0.0,-0.242969913267,0.970033824795
1521803967808423995,0.0,0.0,-0.243023592759,0.970020377808
1521803967808685064,0.0,0.0,-0.244543094524,0.969638424837
1521803967846954107,0.0,0.0,-0.246287053044,0.969196929165
1521803967886884927,0.0,0.0,-0.249537119026,0.968365233901
1521803967886996984,0.0,0.0,-0.254320744666,0.967119929912
1521803967926070928,0.0,0.0,-0.258082944185,0.96612276338
1521803967926181077,0.0,0.0,-0.260195058629,0.965556073703
1521803967966018915,0.0,0.0,-0.262105187923,0.96503931032
1521803967966135978,0.0,0.0,-0.262818296449,0.964845346702
1521803968010525941,0.0,0.0,-0.262793343881,0.96485214329
1521803968010598897,0.0,0.0,-0.262757014997,0.964862037325
1521803968010632038,0.0,0.0,-0.262744554747,0.964865430488
1521803968049845933,0.0,0.0,-0.262739001345,0.96486694273
1521803968087320089,0.0,0.0,-0.26273221992,0.964868789326
1521803968126492977,0.0,0.0,-0.262775370174,0.964857038545
1521803968126610994,0.0,0.0,-0.263850967175,0.964563459354
1521803968174416065,0.0,0.0,-0.265908144925,0.963998370571
1521803968174549102,0.0,0.0,-0.268868175591,0.963176984855
1521803968174643039,0.0,0.0,-0.273614628145,0.961839402013
1521803968239985942,0.0,0.0,-0.278309289133,0.960491509375
1521803968240308046,0.0,0.0,-0.279603065528,0.960115683523
1521803968277960062,0.0,0.0,-0.280805965658,0.959764559489
1521803968278064012,0.0,0.0,-0.281065515688,0.959688582766
1521803968278115987,0.0,0.0,-0.281039008136,0.959696345677
1521803968318787097,0.0,0.0,-0.281021360484,0.959701513467
1521803968319246053,0.0,0.0,-0.281011654096,0.959704355654
1521803968378047943,0.0,0.0,-0.281005351116,0.959706201212
1521803968378278970,0.0,0.0,-0.281000351979,0.959707664962
1521803968418301105,0.0,0.0,-0.280997349236,0.959708544154
1521803968418543100,0.0,0.0,-0.281071220661,0.959686911923
1521803968418709993,0.0,0.0,-0.281618252272,0.959526529069
1521803968458013057,0.0,0.0,-0.282501420357,0.959266880225
1521803968458142995,0.0,0.0,-0.284760196257,0.958598785013
1521803968470004081,0.0,0.0,-0.287838298819,0.957679024378
1521803968494611024,0.0,0.0,-0.292615448568,0.956230202022
1521803968535195112,0.0,0.0,-0.297083614557,0.954851468011
1521803968573957920,0.0,0.0,-0.301160592497,0.953573435833
1521803968574054002,0.0,0.0,-0.305675017762,0.952135906011
1521803968574131965,0.0,0.0,-0.310126860987,0.950695182535
1521803968619945049,0.0,0.0,-0.315377840194,0.948966183757
1521803968620522022,0.0,0.0,-0.319313017558,0.947649300542
1521803968660814046,0.0,0.0,-0.323759193579,0.946139516442
1521803968697912931,0.0,0.0,-0.328372376137,0.944548348466
1521803968698008060,0.0,0.0,-0.332741665718,0.94301801886
1521803968698048114,0.0,0.0,-0.338332099845,0.941026774441
1521803968758836030,0.0,0.0,-0.342083606436,0.939669519676
1521803968759753942,0.0,0.0,-0.346325148245,0.938114540817
1521803968798047065,0.0,0.0,-0.354234483904,0.93515663416
1521803968798180103,0.0,0.0,-0.3571109047,0.934061990311
1521803968844269037,0.0,0.0,-0.362483574219,0.931990160045
1521803968844846010,0.0,0.0,-0.362846775989,0.931848816684
1521803968882258892,0.0,0.0,-0.365316362852,0.930883427198
1521803968882581949,0.0,0.0,-0.366063086214,0.930590036972
1521803968922091960,0.0,0.0,-0.36610587169,0.930573205457
1521803968922226905,0.0,0.0,-0.366152894086,0.930554704546
1521803968967104911,0.0,0.0,-0.366286431318,0.930502149505
1521803968967329978,0.0,0.0,-0.368353728697,0.929685716011
1521803969006479978,0.0,0.0,-0.370953235012,0.928651547909
1521803969006582021,0.0,0.0,-0.377052910068,0.926191720439
1521803969046206951,0.0,0.0,-0.379694166028,0.925112069041
1521803969046386957,0.0,0.0,-0.38375209968,0.923436151551
1521803969086213111,0.0,0.0,-0.388214421541,0.921569076579
1521803969086370944,0.0,0.0,-0.390910141731,0.920428846295
1521803969126044034,0.0,0.0,-0.394642448667,0.918834771714
1521803969126167058,0.0,0.0,-0.397272158124,0.91770084035
1521803969166605949,0.0,0.0,-0.400352937715,0.916361023431
1521803969166876077,0.0,0.0,-0.403717438456,0.91488372479
1521803969206748008,0.0,0.0,-0.405191838146,0.914231685242
1521803969206890106,0.0,0.0,-0.407816580194,0.913063873406
1521803969246068000,0.0,0.0,-0.408612690823,0.912707877088
1521803969247112989,0.0,0.0,-0.408707723186,0.91266532585
1521803969286719083,0.0,0.0,-0.408702592891,0.912667623269
1521803969286998987,0.0,0.0,-0.408700727817,0.912668458468
1521803969325958013,0.0,0.0,-0.408699822742,0.912668863767
1521803969328147888,0.0,0.0,-0.408698684856,0.91266937332
1521803969366136074,0.0,0.0,-0.40869652214,0.912670341794
1521803969405852079,0.0,0.0,-0.408705963642,0.912666113803
1521803969405951976,0.0,0.0,-0.408871944984,0.912591766676
1521803969445893049,0.0,0.0,-0.409687888636,0.91222575819
1521803969446001052,0.0,0.0,-0.411255315391,0.911520194819
1521803969485949993,0.0,0.0,-0.413197851931,0.910641276881
1521803969486067056,0.0,0.0,-0.416602209715,0.909088883917
1521803969526000976,0.0,0.0,-0.421361537883,0.906892746907
1521803969526115894,0.0,0.0,-0.425161190249,0.905117651085
1521803969566056966,0.0,0.0,-0.428952925826,0.903326844185
1521803969566188097,0.0,0.0,-0.433634856231,0.901088681242
1521803969606458902,0.0,0.0,-0.437483395821,0.899226488923
1521803969606785058,0.0,0.0,-0.44169272392,0.897166393506
1521803969645997047,0.0,0.0,-0.445890244564,0.895087643643
1521803969646296977,0.0,0.0,-0.44982855793,0.893114924559
1521803969686122894,0.0,0.0,-0.454305909127,0.890845744746
1521803969704906940,0.0,0.0,-0.458005081928,0.888949573895
1521803969742230892,0.0,0.0,-0.459286835397,0.888288017949
1521803969742326974,0.0,0.0,-0.46194401945,0.886909083782
1521803969742382049,0.0,0.0,-0.462524640349,0.886606427379
1521803969782773017,0.0,0.0,-0.462584921854,0.88657497713
1521803969783013105,0.0,0.0,-0.4625676471,0.8865839903
1521803969805283069,0.0,0.0,-0.462552207226,0.886592045752
1521803969820164918,0.0,0.0,-0.462547471644,0.88659451638
1521803969858273029,0.0,0.0,-0.462545543728,0.886595522196
1521803969858443975,0.0,0.0,-0.462545278292,0.886595660676
1521803969900012016,0.0,0.0,-0.462544517108,0.886596057793
1521803969900238990,0.0,0.0,-0.462544074164,0.88659628888
1521803969940190076,0.0,0.0,-0.462543551546,0.886596561533
1521803969940536022,0.0,0.0,-0.462543488279,0.886596594541
1521803969984587907,0.0,0.0,-0.462543243564,0.88659672221
1521803969984850883,0.0,0.0,-0.462542847665,0.886596928753
1521803970027196884,0.0,0.0,-0.462543098182,0.886596798057
1521803970065943002,0.0,0.0,-0.46254502536,0.886595792633
1521803970066057920,0.0,0.0,-0.462545261827,0.886595669266
1521803970106357097,0.0,0.0,-0.462545327526,0.88659563499
1521803970106559991,0.0,0.0,-0.462545341696,0.886595627598
1521803970145951986,0.0,0.0,-0.462545338388,0.886595629323
1521803970146064996,0.0,0.0,-0.46254531948,0.886595639188
1521803970186017036,0.0,0.0,-0.462545307919,0.88659564522
1521803970186129093,0.0,0.0,-0.462545289474,0.886595654842
1521803970225881099,0.0,0.0,-0.462545274225,0.886595662798
1521803970225990056,0.0,0.0,-0.462545258294,0.886595671109
1521803970266062974,0.0,0.0,-0.462545245893,0.886595677579
1521803970266192913,0.0,0.0,-0.462545233003,0.886595684304
1521803970305983066,0.0,0.0,-0.46254522052,0.886595690816
1521803970306123971,0.0,0.0,-0.46254520913,0.886595696759
1521803970345829010,0.0,0.0,-0.462545196337,0.886595703433
1521803970393513917,0.0,0.0,-0.46254518329,0.886595710239
1521803970430037021,0.0,0.0,-0.462545170088,0.886595717127
1521803970430166006,0.0,0.0,-0.46254515795,0.88659572346
1521803970430227994,0.0,0.0,-0.462545146801,0.886595729276
1521803970474483966,0.0,0.0,-0.462545132993,0.88659573648
1521803970474800109,0.0,0.0,-0.462545121766,0.886595742337
1521803970474927902,0.0,0.0,-0.462545107246,0.886595749912
1521803970514009952,0.0,0.0,-0.462545093341,0.886595757167
1521803970514287948,0.0,0.0,-0.46254508121,0.886595763496
1521803970554790973,0.0,0.0,-0.462545070874,0.886595768888
1521803970593996047,0.0,0.0,-0.462545060718,0.886595774186
1521803970594139099,0.0,0.0,-0.462545045858,0.886595781939
1521803970634187936,0.0,0.0,-0.462966518956,0.886375768129
1521803970638489007,0.0,0.0,-0.463935511881,0.885868974971
1521803970678548097,0.0,0.0,-0.46508674111,0.885265114666
1521803970678925037,0.0,0.0,-0.466812572052,0.884356275815
1521803970719449996,0.0,0.0,-0.470989057212,0.882139052523
1521803970719952106,0.0,0.0,-0.474224812848,0.88040378627
1521803970758028030,0.0,0.0,-0.47489443043,0.880042771657
1521803970758132934,0.0,0.0,-0.475296247404,0.879825822083
1521803970799077987,0.0,0.0,-0.476149562993,0.879364312252
1521803970800436973,0.0,0.0,-0.478076289778,0.878318314253
1521803970838769912,0.0,0.0,-0.481046442443,0.876695112461
1521803970878077030,0.0,0.0,-0.485705033262,0.874122772077
1521803970919207096,0.0,0.0,-0.48948634519,0.872010962014
1521803970919833898,0.0,0.0,-0.494210274472,0.869342397797
1521803970920084953,0.0,0.0,-0.498452153637,0.866917210888
1521803970959501981,0.0,0.0,-0.502536301392,0.864556109101
1521803970959717035,0.0,0.0,-0.506494672391,0.86224309034
1521803970998377084,0.0,0.0,-0.511439510353,0.859319281321
1521803970998589992,0.0,0.0,-0.514532877479,0.857470651389
1521803971039213895,0.0,0.0,-0.517310418073,0.855797833225
1521803971042522907,0.0,0.0,-0.519634657635,0.854388566511
