%time,field.x,field.y,field.z
1521803950177200078,0.000198776380282,4.06377736357e-08,0.0
1521803950177891969,0.000198829312214,4.06494495361e-08,0.0
1521803950184993028,0.000198882243967,4.06611258694e-08,0.0
1521803950187663078,0.000198935175539,4.06728026462e-08,0.0
1521803950188687086,0.000198988106933,4.06844797924e-08,0.0
1521803950189626932,0.000199041038146,4.069615724e-08,0.0
1521803950190030097,0.00019909396918,4.07078350229e-08,0.0
1521803950190121889,0.000199146900035,4.07195130485e-08,0.0
1521803950190495014,0.000199199830711,4.07311916263e-08,0.0
1521803950190567016,0.000199252761209,4.07428709964e-08,0.0
1521803950190632104,0.000199305691527,4.07545510652e-08,0.0
1521803950190691947,0.000199398319158,4.07749923846e-08,0.0
1521803950190751075,0.000199464481411,4.07895940603e-08,0.0
1521803950213979959,0.000199517411015,4.08012757899e-08,0.0
1521803950271801948,0.000199570340442,4.08129580728e-08,0.0
1521803950321304082,0.000199636501947,4.08275612053e-08,0.0
1521803950381705045,0.000199676198834,4.08363237509e-08,0.0
1521803950446388959,0.000199729127731,4.08480076042e-08,0.0
1521803950446484088,0.000199782056448,4.08596921384e-08,0.0
1521803950477144002,0.000204777347705,4.19618159189e-08,0.0
1521803950524245023,0.00106850831318,2.32262466652e-07,0.0
1521803950524331092,0.00305060480095,6.66536872215e-07,0.0
1521803950524398088,0.00963666945887,2.09709132468e-06,0.0
1521803950540189027,0.0148575458187,3.22624451304e-06,0.0
1521803950540355920,0.0212676982785,4.61101161775e-06,0.0
1521803950540425062,0.0227394638724,4.92844291435e-06,0.0
1521803950574592113,0.0397493096299,8.60009414439e-06,0.0
1521803950574733018,0.0481132077554,1.04037875953e-05,0.0
1521803950574816942,0.0594982048803,1.28605422524e-05,0.0
1521803950574873924,0.0718752961312,1.55311007238e-05,0.0
1521803950598886966,0.0869832528656,1.87918128612e-05,0.0
1521803950600452899,0.10193832668,2.20184588594e-05,0.0
1521803950601174116,0.118167235459,2.5519959385e-05,0.0
1521803950602456092,0.135634742826,2.92887066554e-05,0.0
1521803950625503063,0.169262911713,3.65444832469e-05,0.0
1521803950638854026,0.188987747762,4.08073039251e-05,0.0
1521803950656081914,0.193910074358,4.1881835066e-05,0.0
1521803950701946973,0.233804814689,5.06430411668e-05,0.0
1521803950725086927,0.253784515446,5.50516071301e-05,0.0
1521803950725574970,0.273772329217,5.94658112713e-05,0.0
1521803950757261037,0.288708530956,6.27655391796e-05,0.0
1521803950768594026,0.313758285191,6.83007345578e-05,0.0
1521803950786739110,0.333753424948,7.27197178912e-05,0.0
1521803950807286977,0.353749169316,7.71392481392e-05,0.0
1521803950844366073,0.373745265407,8.15592152316e-05,0.0
1521803950882064104,0.393741585361,8.59795782008e-05,0.0
1521803950882169961,0.413738063946,9.04003083007e-05,0.0
1521803950922996997,0.433734667315,9.4821373092e-05,0.0
1521803950923265933,0.453731377371,9.92427840936e-05,0.0
1521803950962053060,0.473728183935,0.000103664432679,0.0
1521803950962163925,0.493725080823,0.000108086298423,0.0
1521803951002985954,0.513722063879,0.00011250845163,0.0
1521803951003194093,0.533719129995,0.000116930845535,0.0
1521803951043267011,0.568663115436,0.000124659345125,0.0
1521803951068627119,0.588661049864,0.000129082502438,0.0
1521803951106076955,0.60865905056,0.000133505924915,0.0
1521803951146147966,0.633705625185,0.000139046242774,0.0
1521803951146291017,0.648655243524,0.000142353242276,0.0
1521803951146339893,0.673700729778,0.000147893763844,0.0
1521803951185904979,0.693698383352,0.000152317802857,0.0
1521803951193939924,0.713696102168,0.000156741958439,0.0
1521803951234613895,0.733693884564,0.000161166237637,0.0
1521803951235112905,0.753691728915,0.000165590724347,0.0
1521803951274060964,0.77368963363,0.000170015377199,0.0
1521803951274169921,0.79368759715,0.000174440198228,0.0
1521803951314807891,0.813685617947,0.000178865098663,0.0
1521803951314933061,0.833683694523,0.000183290083464,0.0
1521803951354815959,0.853681825408,0.000187715201277,0.0
1521803951355242967,0.873680009161,0.00019214044212,0.0
1521803951393867969,0.893678244369,0.000196565796867,0.0
1521803951393923997,0.913676529647,0.000200991361092,0.0
1521803951435081005,0.948633624158,0.000208727814808,0.0
1521803951458391904,0.973671672438,0.000214269161115,0.0
1521803951499027013,0.99367014467,0.000218695281738,0.0
1521803951538261890,1.01366866044,0.000223121555793,0.0
1521803951538352966,1.03366721839,0.000227548159161,0.0
1521803951538412094,1.05366581756,0.000231975017211,0.0
1521803951578113079,1.07366445673,0.000236402029553,0.0
1521803951578202962,1.09366313472,0.000240829229341,0.0
1521803951578258037,1.11366185041,0.000245256642185,0.0
1521803951618243932,1.13366060273,0.000249684215481,0.0
1521803951658087968,1.15365939063,0.00025411204424,0.0
1521803951698673963,1.17365821307,0.000258540122406,0.0
1521803951699050903,1.19365706908,0.000262968452009,0.0
1521803951699178934,1.21365595768,0.000267397054062,0.0
1521803951699248075,1.23365487795,0.000271825954975,0.0
1521803951738025903,1.253653829,0.000276255180795,0.0
1521803951753593921,1.27365280994,0.000280684689722,0.0
1521803951790052890,1.30861930796,0.000288430105113,0.0
1521803951790164947,1.32861877054,0.000292860495173,0.0
1521803951830071926,1.34861825486,0.000297291305226,0.0
1521803951830166101,1.36861776026,0.000301722384016,0.0
1521803951871217966,1.38861728611,0.000306153726708,0.0
1521803951910725116,1.41364644712,0.000311699983697,0.0
1521803951951495885,1.43364563958,0.000316132046433,0.0
1521803951951903104,1.45364485545,0.00032056439886,0.0
1521803951952121973,1.47364409412,0.000324997023408,0.0
1521803951990488052,1.50699116471,0.000332388426802,0.0
1521803951990570068,1.51368238981,0.000333871825152,0.0
1521803951995326995,1.53369690905,0.000338308777291,0.0
1521803952025230884,1.55370520204,0.000342744622714,0.0
1521803952061814069,1.57370891128,0.000347179696204,0.0
1521803952102318048,1.60868385035,0.00035493447097,0.0
1521803952102411031,1.61370994258,0.000356048906274,0.0
1521803952142110109,1.65370811094,0.000364918211137,0.0
1521803952142256021,1.67370691831,0.000369353136229,0.0
1521803952182452917,1.69370568057,0.000373788245271,0.0
1521803952182951927,1.71370443853,0.000378223524359,0.0
1521803952221781015,1.7337032119,0.000382658910305,0.0
1521803952272260904,1.76867725164,0.000390415890552,0.0
1521803952310226917,1.7886764057,0.000394851812279,0.0
1521803952310362100,1.80867558698,0.000399287932509,0.0
1521803952310452938,1.83369750256,0.000404838377061,0.0
1521803952310523986,1.84867403027,0.000408160685984,0.0
1521803952350505113,1.87369543127,0.000413711507365,0.0
1521803952350579023,1.89369443931,0.000418148301548,0.0
1521803952383941888,1.91369347549,0.000422585236691,0.0
1521803952408019065,1.93369253907,0.000427022218965,0.0
1521803952447262048,1.95369162931,0.000431459294897,0.0
1521803952486361980,1.97369074547,0.000435896526273,0.0
1521803952486690044,1.99368988682,0.000440333937932,0.0
1521803952486841917,2.01368905265,0.000444771566803,0.0
1521803952525872945,2.03368824224,0.0004492093824,0.0
1521803952526020050,2.0536874549,0.000453647368448,0.0
1521803952540460109,2.08866668409,0.000461409822395,0.0
1521803952559124946,2.10866620427,0.00046584826189,0.0
1521803952624341964,2.1136852263,0.000466962151863,0.0
1521803952663470983,2.14866529616,0.000474725834612,0.0
1521803952663629055,2.1736831801,0.000480278970633,0.0
1521803952663711071,2.19368253605,0.000484718398151,0.0
1521803952704783916,2.21368191007,0.000489158114073,0.0
1521803952704914093,2.23368130158,0.000493598153521,0.0
1521803952744561910,2.25368071008,0.000498038431991,0.0
1521803952745088100,2.27368013504,0.000502478980335,0.0
1521803952781872987,2.29367957597,0.000506919862091,0.0
1521803952781960964,2.31367903241,0.000511361091049,0.0
1521803952821892023,2.33378331487,0.00051582590993,0.0
1521803952839780092,2.35372835348,0.000520255759947,0.0
1521803952878000974,2.37370745667,0.000524693482481,0.0
1521803952918401956,2.40867605867,0.000532461200163,0.0
1521803952918570995,2.42867334527,0.000536903717004,0.0
1521803952958034992,2.44867182156,0.00054134683401,0.0
1521803952958122014,2.47368604793,0.000546904661645,0.0
1521803952958159923,2.49368524316,0.000551348502273,0.0
1521803952998847007,2.51368459902,0.000555792730921,0.0
1521803953020297050,2.53368404114,0.000560237273833,0.0
1521803953058831930,2.55368353258,0.000564682048219,0.0
1521803953058967113,2.57368305496,0.000569127047022,0.0
1521803953059004068,2.59368259904,0.000573572369828,0.0
1521803953098105907,2.61368216014,0.000578018013143,0.0
1521803953098179101,2.6336817358,0.000582463854136,0.0
1521803953109127998,2.65368132471,0.000586909896379,0.0
1521803953164032936,2.67368092607,0.000591356208329,0.0
1521803953203547000,2.70866715279,0.000599134968928,0.0
1521803953204119920,2.7286669525,0.000603581852053,0.0
1521803953204366922,2.73367980045,0.000604696490651,0.0
1521803953244868040,2.76866657852,0.000612476258614,0.0
1521803953245100021,2.78866640439,0.000616923818065,0.0
1521803953259610891,2.80866623855,0.000621371590345,0.0
1521803953275378942,2.82866608078,0.000625819575093,0.0
1521803953321068048,2.84866593088,0.000630267564739,0.0
1521803953358006000,2.86866578863,0.000634715774318,0.0
1521803953358108043,2.89367726576,0.000640278978447,0.0
1521803953398039102,2.91367699229,0.000644727565974,0.0
1521803953398178100,2.93367672764,0.000649176311937,0.0
1521803953439402103,2.95367647155,0.000653625191672,0.0
1521803953451993942,2.97367622378,0.000658074170812,0.0
1521803953494430065,2.99367598405,0.000662523246401,0.0
1521803953494606018,3.01367575212,0.000666972517266,0.0
1521803953534593105,3.03367552772,0.000671422077304,0.0
1521803953534811019,3.05367531059,0.000675871817715,0.0
1521803953577934980,3.07367510047,0.000680321763896,0.0
1521803953578042984,3.0936748971,0.000684771966591,0.0
1521803953619016885,3.11367470042,0.00068922238151,0.0
1521803953619349956,3.13367450979,0.0006936730496,0.0
1521803953660186052,3.15367432515,0.000698124063255,0.0
1521803953660540103,3.17367414626,0.000702575338223,0.0
1521803953698512077,3.21367380476,0.000711478795059,0.0
1521803953698940992,3.23367364171,0.000715930956262,0.0
1521803953743077039,3.25367348349,0.000720383488415,0.0
1521803953743375062,3.27367332991,0.000724836413258,0.0
1521803953782812118,3.29367318078,0.0007292896834,0.0
1521803953783258914,3.3136730359,0.000733743308663,0.0
1521803953822241067,3.33367289511,0.000738197276078,0.0
1521803953828948020,3.35367275826,0.000742651564494,0.0
1521803953866489887,3.38866403303,0.000750445535822,0.0
1521803953866749048,3.39367249578,0.000751561223108,0.0
1521803953909791946,3.4136723699,0.000756016591323,0.0
1521803953935484886,3.45367212831,0.00076492850221,0.0
1521803953974369049,3.47372282291,0.000769396273224,0.0
1521803953974488973,3.49367338889,0.000773841933301,0.0
1521803954014147996,3.51367503165,0.000778299187117,0.0
1521803954014281034,3.53367584519,0.000782756514644,0.0
1521803954053941011,3.57367627591,0.000791671494239,0.0
1521803954054445981,3.58866878957,0.000795013093064,0.0
1521803954094089031,3.61367615466,0.00080058712903,0.0
1521803954134844064,3.63367603714,0.000805045315375,0.0
1521803954134984970,3.6537212722,0.000809513730505,0.0
1521803954135047912,3.67371442848,0.000813970740763,0.0
1521803954173942089,3.69371402752,0.000818429540398,0.0
1521803954174051046,3.71368318743,0.000822881799625,0.0
1521803954187447071,3.73368586313,0.000827341744716,0.0
1521803954212348937,3.75368716031,0.000831801579024,0.0
1521803954265470981,3.77368768655,0.000836261370667,0.0
1521803954302695989,3.79368781735,0.000840721278474,0.0
1521803954302896976,3.81368775281,0.000845181353008,0.0
1521803954302999019,3.83368759478,0.000849641668878,0.0
1521803954341907024,3.86868092999,0.00085744625175,0.0
1521803954341995000,3.87368717611,0.000858562819527,0.0
1521803954367578029,3.90868064083,0.000866367727547,0.0
1521803954385921001,3.92868049926,0.000870828637489,0.0
1521803954425930976,3.94868036201,0.000875289756911,0.0
1521803954426023006,3.96868022967,0.00087975113902,0.0
1521803954469877958,3.98868010242,0.000884212685405,0.0
1521803954469952106,4.00867998028,0.00088867433666,0.0
1521803954509911060,4.02867986315,0.000893136125501,0.0
1521803954530323982,4.05368532576,0.000898714896283,0.0
1521803954569968938,4.07368514819,0.000903177095531,0.0
1521803954570074081,4.093684976,0.000907639521051,0.0
1521803954614011049,4.11368480899,0.000912102150206,0.0
1521803954614115953,4.13368464696,0.000916565061705,0.0
1521803954614170074,4.15368448987,0.000921028271528,0.0
1521803954694641113,4.16867916959,0.000924374669561,0.0
1521803954695039987,4.19368418891,0.000929955396811,0.0
1521803954695101976,4.2136840448,0.000934419303677,0.0
1521803954705692052,4.23368390468,0.00093888350948,0.0
1521803954718214035,4.25368376836,0.000943347939218,0.0
1521803954757822036,4.28867871695,0.000951159986251,0.0
1521803954799480915,4.30867865135,0.000955625021298,0.0
1521803954838440895,4.31368338049,0.000956742379977,0.0
1521803954838875055,4.3536831379,0.000965673326715,0.0
1521803954839107036,4.37368302098,0.000970139238941,0.0
1521803954877859115,4.39368290681,0.000974605359736,0.0
1521803954877950906,4.41368279528,0.000979071634749,0.0
1521803954941226959,4.43368268631,0.000983538071128,0.0
1521803954941469907,4.4536825798,0.000988004722192,0.0
1521803954979285001,4.47368247568,0.000992471660406,0.0
1521803954979358911,4.49368237388,0.000996938830793,0.0
1521803955019025087,4.51368227437,0.00100140629767,0.0
1521803955019141912,4.53368217709,0.00100587408627,0.0
1521803955019216060,4.55368208202,0.00101034221348,0.0
1521803955058383941,4.57368198914,0.00101481065622,0.0
1521803955058540105,4.59368189843,0.0010192793848,0.0
1521803955113290071,4.61368180989,0.00102374843676,0.0
1521803955151385068,4.63368172352,0.00102821764625,0.0
1521803955151798963,4.65368163932,0.00103268705169,0.0
1521803955190046072,4.68867776141,0.0010405083009,0.0
1521803955190124034,4.70867773057,0.00104497852056,0.0
1521803955190159082,4.72867770136,0.00104944890316,0.0
1521803955231800079,4.74867767379,0.00105391956877,0.0
1521803955240619897,4.77368118054,0.00105950898675,0.0
1521803955278240919,4.79368111195,0.00106398005501,0.0
1521803955278434991,4.80867760117,0.0010673327222,0.0
1521803955318222045,4.83368098161,0.00107292280791,0.0
1521803955318319082,4.85368091986,0.00107739446684,0.0
1521803955358172893,4.87368086038,0.00108186626518,0.0
1521803955358273983,4.89368080315,0.00108633823437,0.0
1521803955398900985,4.91368074816,0.00109081029207,0.0
1521803955401360034,4.93368069537,0.00109528245288,0.0
1521803955449068069,4.95368064474,0.00109975473338,0.0
1521803955486193895,4.97368059623,0.00110422712519,0.0
1521803955486303091,4.99368054979,0.00110869961736,0.0
1521803955526281118,5.02867746468,0.0011165261895,0.0
1521803955526410102,5.04867746158,0.00112099907433,0.0
1521803955526452064,5.06867745978,0.00112547193206,0.0
1521803955565867900,5.0886774592,0.0011299449484,0.0
1521803955593780994,5.11368031035,0.00113553704132,0.0
1521803955629909992,5.13368027618,0.00114001040456,0.0
1521803955630013942,5.15368024338,0.00114448392415,0.0
1521803955670010089,5.18867747154,0.00115231237852,0.0
1521803955675391912,5.19368018171,0.00115343148798,0.0
1521803955713888883,5.2136801524,0.00115790559063,0.0
1521803955755812883,5.25368009649,0.00116685455782,0.0
1521803955756083965,5.27368006968,0.00117132937944,0.0
1521803955756221055,5.29368004351,0.00117580438214,0.0
1521803955804560899,5.31368001789,0.00118027967656,0.0
1521803955805197000,5.33367999271,0.00118475525263,0.0
1521803955842046022,5.35367996791,0.00118923109478,0.0
1521803955842132091,5.3736799434,0.00119370725444,0.0
1521803955883239984,5.39367991913,0.00119818361274,0.0
1521803955935720920,5.42867754373,0.00120601728226,0.0
1521803955976440906,5.44867754929,0.00121049435347,0.0
1521803955976603031,5.46867755455,0.00121497158888,0.0
1521803955976686954,5.48867755949,0.00121944909157,0.0
1521803955976758003,5.50867756411,0.00122392696851,0.0
1521803956014955997,5.52867756841,0.00122840521473,0.0
1521803956015407085,5.54867757241,0.0012328838819,0.0
1521803956022465944,5.56867757612,0.00123736287672,0.0
1521803956075325012,5.57367970497,0.0012384831507,0.0
1521803956113934993,5.60867758282,0.00124632172608,0.0
1521803956114032983,5.6286775859,0.0012508016325,0.0
1521803956114093065,5.65367961208,0.00125640244704,0.0
1521803956158082008,5.66867759176,0.00125976234517,0.0
1521803956158176898,5.69367956711,0.00126536364765,0.0
1521803956163609027,5.71569346128,0.00127029581667,0.0
1521803956188121080,5.7336799629,0.00127432599515,0.0
1521803956229922056,5.75368043199,0.0012788076728,0.0
1521803956230045080,5.77368067637,0.00128328952399,0.0
1521803956270847082,5.79368078539,0.00128777144093,0.0
1521803956271147012,5.81368082283,0.0012922535197,0.0
1521803956314193964,5.83368082436,0.00129673572021,0.0
1521803956334239959,5.859696688,0.00130256621836,0.0
1521803956374346971,5.87368162111,0.00130570061453,0.0
1521803956374427080,5.89368219417,0.00131018337953,0.0
1521803956414959907,5.91368250306,0.00131466623561,0.0
1521803956417725086,5.93368264,0.001319149164,0.0
1521803956454562902,5.95368268421,0.0013236321556,0.0
1521803956454664945,5.97368268168,0.00132811527814,0.0
1521803956494023084,6.00868100932,0.00133596075084,0.0
1521803956494112014,6.02868098982,0.00134044434503,0.0
1521803956534622907,6.04868096887,0.00134492821467,0.0
1521803956534949064,6.05368254073,0.00134604954392,0.0
1521803956574191093,6.09368246042,0.00135501775746,0.0
1521803956574326992,6.10868090825,0.00135838068664,0.0
1521803956614228010,6.13368238471,0.00136398681121,0.0
1521803956614346027,6.14868087277,0.00136735009016,0.0
1521803956654797077,6.17368231413,0.00137295657379,0.0
1521803956655019044,6.19368228063,0.00137744161028,0.0
1521803956697242021,6.2136822482,0.00138192691676,0.0
1521803956719598054,6.2336822164,0.0013864125351,0.0
1521803956759118080,6.25368218583,0.0013908984426,0.0
1521803956759473085,6.27368215606,0.00139538457701,0.0
1521803956798186063,6.29368212699,0.00139987095788,0.0
1521803956798270940,6.31368209851,0.00140435757376,0.0
1521803956798310995,6.33368207053,0.00140884439936,0.0
1521803956838690042,6.35368204295,0.00141333145042,0.0
1521803956844664096,6.39368198871,0.00142230636394,0.0
1521803956881794929,6.4136819619,0.00142679418136,0.0
1521803956881860017,6.4286806994,0.00143015996102,0.0
1521803956937208890,6.45368190859,0.00143577080897,0.0
1521803956937913894,6.47368188201,0.00144025960726,0.0
1521803956978008985,6.49368185543,0.00144474874064,0.0
1521803956978113889,6.51368182882,0.00144923813812,0.0
1521803957018381118,6.53368180217,0.00145372781845,0.0
1521803957018604993,6.55368177549,0.00145821788363,0.0
1521803957057895898,6.57368174878,0.00146270829663,0.0
1521803957058336973,6.59368172205,0.00146719892983,0.0
1521803957097970962,6.61368169533,0.00147168977751,0.0
1521803957098062992,6.63368166866,0.00147618092366,0.0
1521803957142836093,6.6686805558,0.00148404103342,0.0
1521803957143100976,6.6736816156,0.00148516428156,0.0
1521803957182126045,6.70868053018,0.00149302571868,0.0
1521803957222372055,6.71368156326,0.00149414918773,0.0
1521803957262212038,6.73368153752,0.00149864228893,0.0
1521803957262357950,6.77368148717,0.00150762930437,0.0
1521803957262423992,6.79368146271,0.00151212311583,0.0
1521803957302088975,6.81368143879,0.00151661718409,0.0
1521803957302207946,6.8336814155,0.00152111151645,0.0
1521803957313429117,6.85368139288,0.00152560602145,0.0
1521803957356796026,6.87368137099,0.00153010082611,0.0
1521803957394769906,6.89368134988,0.0015345958541,0.0
1521803957394856929,6.91368132959,0.0015390909945,0.0
1521803957435086011,6.93368131016,0.00154358631756,0.0
1521803957435148954,6.95368129163,0.00154808181192,0.0
1521803957478562116,6.973681274,0.0015525774798,0.0
1521803957478673934,6.9936812573,0.00155707337441,0.0
1521803957520081996,7.01368124152,0.00156156950048,0.0
1521803957520195960,7.03368122667,0.00156606581619,0.0
1521803957557981967,7.06868276612,0.00157393495226,0.0
1521803957558085918,7.0736837388,0.00157505930295,0.0
1521803957558121919,7.09368269964,0.00157955566077,0.0
1521803957597923040,7.12868114259,0.00158742475302,0.0
1521803957605690002,7.14868101875,0.00159192164658,0.0
1521803957641978025,7.16868095497,0.00159641870441,0.0
1521803957642066955,7.18868092161,0.00160091587105,0.0
1521803957682432889,7.20868090364,0.00160541310667,0.0
1521803957702091932,7.23368163848,0.00161103507001,0.0
1521803957745877981,7.25368162297,0.00161553266057,0.0
1521803957745964050,7.27368160959,0.00162003039027,0.0
1521803957746038913,7.29368159746,0.00162452828598,0.0
1521803957785986900,7.31368158597,0.00162902638991,0.0
1521803957791192054,7.33368157483,0.00163352467316,0.0
1521803957830336093,7.35368156383,0.00163802318179,0.0
1521803957872844934,7.37368155284,0.00164252200258,0.0
1521803957873899936,7.39368154176,0.00164702114284,0.0
1521803957874320983,7.41368153052,0.00165152054464,0.0
1521803957910326957,7.43368151904,0.00165602016116,0.0
1521803957910518884,7.45368150726,0.00166052000343,0.0
1521803957949928045,7.48268810719,0.00166704655681,0.0
1521803957955970048,7.49368199241,0.00166952049912,0.0
1521803957993872880,7.51368555647,0.0016740220073,0.0
1521803957993941068,7.53368249252,0.00167852247895,0.0
1521803958039130926,7.55368269167,0.00168302392539,0.0
1521803958039630889,7.57368278296,0.00168752567339,0.0
1521803958078048944,7.59368281368,0.00169202771489,0.0
1521803958118124961,7.62868222012,0.00169990675871,0.0
1521803958118204116,7.64868220323,0.00170440946439,0.0
1521803958158324003,7.66868218244,0.001708912504,0.0
1521803958158518075,7.67368274415,0.00171003845101,0.0
1521803958198936939,7.71368268361,0.00171904559542,0.0
1521803958199196100,7.73368265274,0.00172354965089,0.0
1521803958238100051,7.75368262193,0.00172805402993,0.0
1521803958238241910,7.77368259137,0.00173255865032,0.0
1521803958277776956,7.79368256118,0.00173706358285,0.0
1521803958277852058,7.81368253146,0.0017415688502,0.0
1521803958322015047,7.83368250228,0.00174607434888,0.0
1521803958353261947,7.85368247371,0.00175058000951,0.0
1521803958389946937,7.87368244581,0.00175508586985,0.0
1521803958390047073,7.89368241865,0.00175959201429,0.0
1521803958390100955,7.91368239228,0.0017640984279,0.0
1521803958390151977,7.93368236674,0.00176860504382,0.0
1521803958448654890,7.95368234209,0.00177311188437,0.0
1521803958449805021,7.97368231835,0.00177761885674,0.0
1521803958493854999,7.99368229556,0.00178212593592,0.0
1521803958533982038,8.01368227373,0.00178663311576,0.0
1521803958534094095,8.04868179127,0.00179452078369,0.0
1521803958575263023,8.05368223299,0.00179564774346,0.0
1521803958575448036,8.09368219613,0.00180466278842,0.0
1521803958614231109,8.1136821791,0.00180917045892,0.0
1521803958614367008,8.14868173241,0.00181705908542,0.0
1521803958654226064,8.16868172303,0.00182156711747,0.0
1521803958654407024,8.18868171435,0.00182607530634,0.0
1521803958693893909,8.19368211947,0.00182720245765,0.0
1521803958693995952,8.2286816988,0.00183509184652,0.0
1521803958738915920,8.24868169179,0.00183960039985,0.0
1521803958791292905,8.27368207061,0.00184523670372,0.0
1521803958829979896,8.29368205948,0.0018497460445,0.0
1521803958830058097,8.31368204867,0.00185425571935,0.0
1521803958830112934,8.33368203809,0.00185876572615,0.0
1521803958830166101,8.35368202765,0.00186327597926,0.0
1521803958830215930,8.37368201725,0.00186778647019,0.0
1521803958870470046,8.39368200682,0.00187229724519,0.0
1521803958870762109,8.4166846747,0.00187748553491,0.0
1521803958887352943,8.43368207923,0.00188131960457,0.0
1521803958909045934,8.45368216413,0.00188583116763,0.0
1521803958955173015,8.47368220516,0.00189034303712,0.0
1521803958994054079,8.49368221904,0.0018948552369,0.0
1521803958994172096,8.5136822182,0.00189936762253,0.0
1521803959035389900,8.55368219703,0.00190839287594,0.0
1521803959036039113,8.57368218218,0.00191290583428,0.0
1521803959082078933,8.59368216602,0.00191741910746,0.0
1521803959119210958,8.61368214902,0.00192193266564,0.0
1521803959119366884,8.63368213141,0.00192644653864,0.0
1521803959158200979,8.65368211333,0.00193096072054,0.0
1521803959158288002,8.67368209486,0.00193547528803,0.0
1521803959158354997,8.69368207605,0.001939990063,0.0
1521803959210380077,8.71368205698,0.00194450510082,0.0
1521803959213006019,8.75368201826,0.00195353596753,0.0
1521803959258224010,8.77368199874,0.0019580516536,0.0
1521803959299433946,8.78868170457,0.00196143844229,0.0
1521803959299738883,8.8136819597,0.00196708356925,0.0
1521803959299885988,8.83368194033,0.00197159991244,0.0
1521803959338409900,8.85368192115,0.00197611650636,0.0
1521803959369493007,8.87368190224,0.00198063338205,0.0
1521803959406398057,8.89368188367,0.00198515047207,0.0
1521803959406513929,8.9136818655,0.00198966770366,0.0
1521803959445969104,8.95368183062,0.00199870265219,0.0
1521803959446147918,8.97368181404,0.00200322043103,0.0
1521803959486239910,8.99368179808,0.00200773841172,0.0
1521803959486388921,9.0136817828,0.00201225655866,0.0
1521803959526103019,9.03368176823,0.00201677481154,0.0
1521803959526230096,9.05368175438,0.00202129322405,0.0
1521803959566608905,9.07368174129,0.00202581178827,0.0
1521803959566682100,9.09368172895,0.00203033054139,0.0
1521803959606060028,9.11368171736,0.00203484940817,0.0
1521803959606192111,9.13368170652,0.00203936835219,0.0
1521803959646020889,9.15368169639,0.00204388753565,0.0
1521803959646120071,9.17368168695,0.00204840680886,0.0
1521803959686973094,9.20868145825,0.00205631572088,0.0
1521803959687208890,9.22868145318,0.00206083531386,0.0
1521803959725931882,9.24868144859,0.00206535511849,0.0
1521803959726016998,9.26868144441,0.00206987507559,0.0
1521803959791949987,9.29368164221,0.00207552538986,0.0
1521803959793138980,9.31368163615,0.00208004580315,0.0
1521803959829889059,9.33368163007,0.00208456636173,0.0
1521803959829973936,9.36168354276,0.00209089569989,0.0
1521803959830018043,9.37368251946,0.0020936078565,0.0
1521803959870465040,9.39368179877,0.00209812851782,0.0
1521803959895714044,9.41368187222,0.00210264967346,0.0
1521803959938908100,9.43368190765,0.00210717108384,0.0
1521803959939316987,9.45368192066,0.00211169274702,0.0
1521803959980026960,9.47368192176,0.00211621462749,0.0
1521803959980113983,9.49368191666,0.00212073671008,0.0
1521803959980149984,9.50868173327,0.00212412838376,0.0
1521803960018177032,9.55368188661,0.00213430465904,0.0
1521803960060074090,9.5736818744,0.00213882796862,0.0
1521803960099967956,9.59368186152,0.00214335159961,0.0
1521803960100709915,9.61368184807,0.00214787549171,0.0
1521803960142040014,9.63368183407,0.00215239967856,0.0
1521803960142121076,9.65368181957,0.00215692421659,0.0
1521803960142174005,9.67368180457,0.0021614489707,0.0
1521803960181943893,9.69368178911,0.00216597397249,0.0
1521803960203742027,9.71368177323,0.00217049931119,0.0
1521803960241945981,9.73368175696,0.00217502485871,0.0
1521803960242034912,9.75368174036,0.00217955066124,0.0
1521803960299634933,9.77368172348,0.00218407671243,0.0
1521803960299902915,9.80868154665,0.00219199773714,0.0
1521803960339178085,9.83368167177,0.00219765602077,0.0
1521803960339520931,9.85368165441,0.00220218278237,0.0
1521803960339700937,9.87368163711,0.00220670980028,0.0
1521803960378052949,9.89368161994,0.00221123706647,0.0
1521803960405294895,9.91368160298,0.0022157644374,0.0
1521803960442121028,9.94868143991,0.00222368770962,0.0
1521803960442241907,9.9686814256,0.00222821552498,0.0
1521803960487329959,9.99368153862,0.00223387560183,0.0
1521803960487660884,10.0136815237,0.00223840377039,0.0
1521803960526027917,10.0336815094,0.00224293211068,0.0
1521803960526098966,10.0536814957,0.00224746056754,0.0
1521803960568330049,10.0736814826,0.00225198901029,0.0
1521803960568969011,10.0936814703,0.00225651751773,0.0
1521803960610383987,10.1136814586,0.00226104618198,0.0
1521803960610498905,10.1336814477,0.00226557505399,0.0
1521803960649969100,10.1536814374,0.00227010404502,0.0
1521803960650046110,10.1736814278,0.00227463314134,0.0
1521803960690001010,10.1936814189,0.00227916238118,0.0
1521803960690084934,10.2136814107,0.00228369182387,0.0
1521803960730129957,10.2336814031,0.00228822137201,0.0
1521803960730238914,10.253681396,0.00229275107218,0.0
1521803960771601915,10.2736813894,0.00229728094011,0.0
1521803960772058010,10.3086812723,0.00230520843944,0.0
1521803960810379028,10.3286812681,0.00230973864301,0.0
1521803960810482025,10.3486812642,0.00231426905116,0.0
1521803960851274013,10.3686812606,0.00231879958444,0.0
1521803960854856014,10.3886812569,0.00232333030766,0.0
1521803960890193939,10.4136813522,0.00232899393283,0.0
1521803960890487909,10.4336813472,0.00233352497626,0.0
1521803960930160045,10.453681342,0.00233805609558,0.0
1521803960930291891,10.4686812415,0.00234145448911,0.0
1521803960969829082,10.4936813309,0.0023471189167,0.0
1521803960969904899,10.5136813249,0.00235165070842,0.0
1521803961010126113,10.5336813184,0.00235618280461,0.0
1521803961040220975,10.5486812215,0.00235958204769,0.0
1521803961078047990,10.5736813041,0.00236524809112,0.0
1521803961078212022,10.5936812961,0.00236978133282,0.0
1521803961078284025,10.6136812875,0.0023743148578,0.0
1521803961118201017,10.6336812784,0.00237884873381,0.0
1521803961118299007,10.6536812686,0.00238338293559,0.0
1521803961134219884,10.6736812582,0.00238791739744,0.0
1521803961163234949,10.6936812473,0.00239245220223,0.0
1521803961202810049,10.7136812357,0.00239698740781,0.0
1521803961203116893,10.7336812237,0.00240152291765,0.0
1521803961258297920,10.753681211,0.00240605877419,0.0
1521803961266602039,10.7936811845,0.00241513159163,0.0
1521803961310046911,10.8136811706,0.0024196685905,0.0
1521803961346214056,10.8336811565,0.00242420591852,0.0
1521803961346322059,10.8686810564,0.0024321468304,0.0
1521803961386313915,10.8886810428,0.00243668485816,0.0
1521803961386492013,10.8936811129,0.00243781940671,0.0
1521803961386590957,10.9286810154,0.00244576147183,0.0
1521803961425889968,10.9486810019,0.00245030018293,0.0
1521803961426007986,10.9536810692,0.00245143492642,0.0
1521803961441886901,10.9886809754,0.00245937831867,0.0
1521803961498313903,11.0086809626,0.00246391774607,0.0
1521803961541522026,11.0336810144,0.00246959247011,0.0
1521803961541920900,11.0536810017,0.00247413245024,0.0
1521803961542028903,11.0736809895,0.00247867251593,0.0
1521803961581284999,11.0966814659,0.00248389380812,0.0
1521803961581803083,11.113680984,0.00248775284078,0.0
1521803961586982965,11.1336809911,0.00249229307951,0.0
1521803961605061054,11.1536809909,0.00249683340983,0.0
1521803961641949892,11.1736809865,0.00250137389633,0.0
1521803961681886911,11.1936809801,0.00250591458208,0.0
1521803961722470998,11.213680973,0.00251045553092,0.0
1521803961762180089,11.2336809659,0.00251499664232,0.0
1521803961762326955,11.2536809591,0.00251953789715,0.0
1521803961762398004,11.2736809526,0.00252407937259,0.0
1521803961802879095,11.3086808859,0.00253202742655,0.0
1521803961812418937,11.3286808813,0.00253656938997,0.0
1521803961851125955,11.348680877,0.00254111143135,0.0
1521803961851501941,11.368680873,0.00254565367114,0.0
1521803961851649999,11.3886808693,0.00255019613882,0.0
1521803961900800943,11.4136809178,0.00255587456277,0.0
1521803961901742935,11.4286808622,0.00255928176861,0.0
1521803961938702106,11.4486808586,0.00256382488615,0.0
1521803961938937902,11.473680905,0.00256950406568,0.0
1521803961978188037,11.4936809004,0.00257404760919,0.0
1521803961978285074,11.5136808956,0.00257859138894,0.0
1521803962018750905,11.5336808905,0.00258313552744,0.0
1521803962022203922,11.553680885,0.00258767983859,0.0
1521803962062055110,11.5736808791,0.0025922243954,0.0
1521803962102221965,11.5936808726,0.00259676924235,0.0
1521803962102387905,11.6136808656,0.00260131434511,0.0
1521803962102483987,11.6336808581,0.0026058597924,0.0
1521803962151721000,11.6536808499,0.00261040557525,0.0
1521803962152518987,11.6886807895,0.00261836139421,0.0
1521803962189850091,11.6936808317,0.00261949803417,0.0
1521803962189970970,11.7286807703,0.00262745486828,0.0
1521803962229862928,11.7486807597,0.00263200203878,0.0
1521803962256314039,11.7536807999,0.00263313886917,0.0
1521803962293920040,11.788680737,0.00264109701217,0.0
1521803962294044971,11.8086807249,0.00264564500755,0.0
1521803962334532022,11.8286807123,0.00265019322912,0.0
1521803962334676027,11.8486806993,0.00265474170379,0.0
1521803962374110937,11.8736807223,0.00266042774312,0.0
1521803962374224901,11.8936807082,0.00266497678427,0.0
1521803962418930053,11.9336806795,0.00267407559127,0.0
1521803962441906929,11.9536806651,0.00267862526624,0.0
1521803962483176946,11.9686806172,0.00268203761912,0.0
1521803962483472108,11.9886806034,0.0026865877254,0.0
1521803962483614921,12.0136806227,0.0026922757042,0.0
1521803962483726024,12.033680609,0.00269682621364,0.0
1521803962523351907,12.0536805957,0.0027013769689,0.0
1521803962523477077,12.0686805511,0.00270479013548,0.0
1521803962560133934,12.0936805703,0.00271047892858,0.0
1521803962564768075,12.1136805584,0.00271503015941,0.0
1521803962602161884,12.133680547,0.00271958150456,0.0
1521803962602305889,12.1566807844,0.00272481575279,0.0
1521803962648334980,12.1736806908,0.00272868460451,0.0
1521803962651058912,12.1936805361,0.00273323626246,0.0
1521803962690448045,12.2136805389,0.00273778813315,0.0
1521803962690826892,12.2336805368,0.0027423401891,0.0
1521803962730031967,12.2536805321,0.00274689253057,0.0
1521803962795562028,12.2736805263,0.00275144505147,0.0
1521803962836850881,12.2936805202,0.00275599769198,0.0
1521803962837167978,12.3286804804,0.00276396519395,0.0
1521803962837315082,12.3336805086,0.00276510343684,0.0
1521803962837398052,12.3736804984,0.0027742095002,0.0
1521803962877038955,12.3936804937,0.00277876283075,0.0
1521803962877259969,12.4136804893,0.00278331623812,0.0
1521803962898881912,12.433680485,0.00278786980736,0.0
1521803962924882888,12.453680481,0.00279242368956,0.0
1521803962962014913,12.4736804769,0.00279697789269,0.0
1521803962962131977,12.4936804727,0.00280153239442,0.0
1521803963012563943,12.5136804684,0.00280608709708,0.0
1521803963013068914,12.5536804592,0.00281519695073,0.0
1521803963050604104,12.5686804297,0.00281861334581,0.0
1521803963090045928,12.5936804486,0.00282430771349,0.0
1521803963090120077,12.6136804426,0.00282886340276,0.0
1521803963130826950,12.6336804362,0.00283341925902,0.0
1521803963131083965,12.6536804292,0.00283797531812,0.0
1521803963171389102,12.6886803917,0.00284594905518,0.0
1521803963171824932,12.7086803833,0.0028505058978,0.0
1521803963210076093,12.7136804046,0.00285164516581,0.0
1521803963210202932,12.7486803647,0.00285962036199,0.0
1521803963250694990,12.7686803544,0.0028641780095,0.0
1521803963260977983,12.7886803436,0.00286873589728,0.0
1521803963298127889,12.8086803322,0.00287329406125,0.0
1521803963339030027,12.8286803202,0.00287785236464,0.0
1521803963339313030,12.8536803261,0.00288355057439,0.0
1521803963339387893,12.8736803128,0.00288810941251,0.0
1521803963382781982,12.8936802992,0.00289266862351,0.0
1521803963382991075,12.9136802852,0.00289722817414,0.0
1521803963388478040,12.9336802711,0.00290178803022,0.0
1521803963463119029,12.9536802568,0.00290634820723,0.0
1521803963503134012,12.9736802424,0.0029109086606,0.0
1521803963503237009,12.993680228,0.0029154692728,0.0
1521803963503309011,13.0136802137,0.00292003007182,0.0
1521803963503357887,13.0336801995,0.0029245910396,0.0
1521803963542066097,13.0536801855,0.00292915224122,0.0
1521803963560008049,13.0736801719,0.00293371358257,0.0
1521803963598162889,13.0936801586,0.00293827511607,0.0
1521803963598315000,13.1136801457,0.00294283689285,0.0
1521803963638093948,13.1336801333,0.00294739875488,0.0
1521803963638186931,13.1536801214,0.00295196073402,0.0
1521803963677921056,13.1886800849,0.00295994454083,0.0
1521803963678009986,13.2086800749,0.00296450699459,0.0
1521803963718869924,13.2286800655,0.00296906961914,0.0
1521803963719213008,13.2486800567,0.00297363227225,0.0
1521803963757945060,13.2686800486,0.00297819503537,0.0
1521803963772025108,13.2886800411,0.00298275801876,0.0
1521803963810400962,13.3086800342,0.00298732107571,0.0
1521803963810503959,13.3136800483,0.00298846184383,0.0
1521803963850518941,13.3486800221,0.00299644734596,0.0
1521803963850931882,13.3686800168,0.00300101069764,0.0
1521803963890063047,13.3936800257,0.00300671495639,0.0
1521803963890196084,13.4136800212,0.00301127853161,0.0
1521803963929933071,13.4336800169,0.00301584229151,0.0
1521803963930042028,13.4536800129,0.00302040631327,0.0
1521803963969953060,13.473680009,0.00302497063408,0.0
1521803963970057964,13.4936800057,0.00302953513535,0.0
1521803963970110893,13.5136800019,0.00303409985139,0.0
1521803964010334968,13.5336799981,0.00303866482094,0.0
1521803964039616107,13.5536799941,0.00304322998671,0.0
1521803964078058958,13.5886799731,0.00305121944404,0.0
1521803964078150033,13.6086799685,0.003055785163,0.0
1521803964118501901,13.6286799635,0.00306035116761,0.0
1521803964118644952,13.6486799581,0.00306491748995,0.0
1521803964158050060,13.6686799521,0.00306948414258,0.0
1521803964173795938,13.6736799633,0.00307062586773,0.0
1521803964209975957,13.7136799491,0.0030797602829,0.0
1521803964210149049,13.733679941,0.00308432799874,0.0
1521803964250885009,13.7696800955,0.0030925503949,0.0
1521803964251126050,13.7886799365,0.00309689043477,0.0
1521803964292479038,13.8136799396,0.00310260152969,0.0
1521803964293117046,13.833679931,0.00310717071972,0.0
1521803964331059932,13.8536799203,0.00311174018569,0.0
1521803964371095895,13.8736799083,0.0031163100159,0.0
1521803964371609926,13.8936798955,0.00312088019432,0.0
1521803964409969091,13.9136798821,0.00312545067554,0.0
1521803964410080909,13.9336798682,0.00313002143897,0.0
1521803964451272964,13.953679854,0.00313459243204,0.0
1521803964451821088,13.9736798396,0.0031391635924,0.0
1521803964491511106,13.993679825,0.00314373498289,0.0
1521803964492078065,14.0136798104,0.00314830660364,0.0
1521803964530082941,14.0336797957,0.00315287839967,0.0
1521803964530190944,14.0536797811,0.00315745050337,0.0
1521803964571337938,14.0736797667,0.00316202289588,0.0
1521803964571953058,14.0936797526,0.00316659548523,0.0
1521803964610204935,14.1136797387,0.00317116830137,0.0
1521803964612894058,14.1486797061,0.00317917134743,0.0
1521803964652364015,14.1686796935,0.00318374475366,0.0
1521803964652718067,14.1936796876,0.00318946163579,0.0
1521803964690172910,14.2136796761,0.00319403531536,0.0
1521803964690304994,14.2336796653,0.00319860908161,0.0
1521803964730886936,14.2536796551,0.00320318290915,0.0
1521803964731312036,14.2736796455,0.0032077568395,0.0
1521803964772285938,14.2936796365,0.00321233092476,0.0
1521803964809849977,14.3186796966,0.0032180487668,0.0
1521803964809947967,14.3336796235,0.00322147963067,0.0
1521803964851188898,14.353679619,0.00322605431485,0.0
1521803964858913898,14.373679614,0.00323062911945,0.0
1521803964899300098,14.3936796087,0.00323520404245,0.0
1521803964900026082,14.4136796035,0.00323977913562,0.0
1521803964939924955,14.4336795985,0.00324435438501,0.0
1521803964940664052,14.4686795828,0.0032523612565,0.0
1521803964978204965,14.4736795894,0.00325350513983,0.0
1521803964978440999,14.5086795745,0.00326151255839,0.0
1521803965017921924,14.5286795705,0.00326608834954,0.0
1521803965029511928,14.5486795665,0.00327066428821,0.0
1521803965066104888,14.5686795625,0.00327524052135,0.0
1521803965066204071,14.5886795583,0.0032798169866,0.0
1521803965066258907,14.608679554,0.00328439355597,0.0
1521803965106686115,14.6286130264,0.00328895512799,0.0
1521803965106821060,14.6476097211,0.0032924030037,0.0
1521803965114810943,14.6524370581,0.00329202550424,0.0
1521803965160022974,14.6868547604,0.00321753981141,0.0
1521803965199065923,14.7023338732,0.00307477615979,0.0
1521803965237900972,14.7165372351,0.00283004342079,0.0
1521803965237998008,14.7390516879,0.0021462802523,0.0
1521803965278047084,14.7423337993,0.00201501240728,0.0
1521803965278146982,14.7559376887,0.00142248389114,0.0
1521803965319127082,14.7826320848,4.08952598979e-06,0.0
1521803965319653987,14.7993279447,-0.000967889846367,0.0
1521803965358176946,14.817196144,-0.00202509273657,0.0
1521803965358294963,14.8362469336,-0.00315470859638,0.0
1521803965398962020,14.8558387535,-0.0043250741743,0.0
1521803965399303913,14.8805144373,-0.00580894792523,0.0
1521803965438098907,14.9004329084,-0.00700852618993,0.0
1521803965491677045,14.9154047873,-0.00791097958047,0.0
1521803965531271934,14.9403266117,-0.00941484940366,0.0
1521803965531507968,14.9602848264,-0.0106194324122,0.0
1521803965531591892,14.9802154479,-0.0118227960831,0.0
1521803965531706094,14.9991814764,-0.0129778403806,0.0
1521803965570103883,15.017335564,-0.01410121715,0.0
1521803965570257902,15.0340754012,-0.0151804278832,0.0
1521803965598611116,15.0497322133,-0.0162620141825,0.0
1521803965601718902,15.0641036346,-0.0173736975717,0.0
1521803965637924909,15.0772280474,-0.0185169573991,0.0
1521803965678287982,15.0891886713,-0.0196901077291,0.0
1521803965678458929,15.1078610949,-0.021731710786,0.0
1521803965719902992,15.1194372314,-0.0231062576639,0.0
1521803965720639944,15.1222633535,-0.0234639754546,0.0
1521803965757953882,15.1350589409,-0.0250779900765,0.0
1521803965758083105,15.1489775646,-0.0268907940626,0.0
1521803965799613952,15.1802851368,-0.0310453126729,0.0
1521803965800157070,15.197707162,-0.0333695897861,0.0
1521803965839323997,15.2163142952,-0.0358556697505,0.0
1521803965860811948,15.2358802789,-0.0384771356261,0.0
1521803965901123046,15.2551509769,-0.0410842269546,0.0
1521803965901694059,15.2734061359,-0.0435836835473,0.0
1521803965901952028,15.2905898712,-0.0459728562488,0.0
1521803965944665908,15.3213402344,-0.0504752887254,0.0
1521803965944804906,15.3349924911,-0.0526529085092,0.0
1521803965983428001,15.3474269691,-0.0547704406867,0.0
1521803965983860969,15.3556536667,-0.0562709175737,0.0
1521803966023397922,15.3685941612,-0.0587279377338,0.0
1521803966028373956,15.3775324,-0.0605342440308,0.0
1521803966065864086,15.3851844252,-0.0621727464686,0.0
1521803966065965890,15.3916102726,-0.0636257327034,0.0
1521803966105777025,15.3968870208,-0.064889473842,0.0
1521803966110022068,15.400894885,-0.065906353179,0.0
1521803966147047996,15.4039189967,-0.0667132286136,0.0
1521803966186033010,15.4056784344,-0.0672381402411,0.0
1521803966234847068,15.4062192383,-0.0674597681579,0.0
1521803966275650024,15.4064164211,-0.0675559956178,0.0
1521803966276106119,15.4071515423,-0.0677494600149,0.0
1521803966276258945,15.4087856283,-0.0681696234948,0.0
1521803966276403903,15.4114362894,-0.0688927075159,0.0
1521803966314930915,15.4151833161,-0.0699669195035,0.0
1521803966315330982,15.4200559956,-0.0714028317507,0.0
1521803966322640895,15.4273814973,-0.0736176060745,0.0
1521803966373960971,15.4273814973,-0.0736176060745,0.0
1521803966411402940,15.4508999151,-0.0807641496756,0.0
1521803966411608934,15.4604866665,-0.0837463893416,0.0
1521803966450136899,15.4714522962,-0.0872285534798,0.0
1521803966479031085,15.4790729355,-0.0896949489974,0.0
1521803966519071102,15.4857058012,-0.0918864559275,0.0
1521803966519413948,15.491069404,-0.0937274471566,0.0
1521803966519527912,15.4955029324,-0.09529888082,0.0
1521803966558307886,15.4987127869,-0.0965045306437,0.0
1521803966573148012,15.5007418282,-0.0973262986156,0.0
1521803966610595941,15.50167977,-0.0977669312437,0.0
1521803966610855102,15.5017675772,-0.0978787477758,0.0
1521803966651806116,15.5019553325,-0.0979724233224,0.0
1521803966651999950,15.5019224287,-0.0979714588097,0.0
1521803966690001010,15.5020402888,-0.0980071609776,0.0
1521803966690109968,15.502057899,-0.098005296606,0.0
1521803966733896017,15.502075446,-0.0979993043294,0.0
1521803966733994960,15.5021008612,-0.0979945236311,0.0
1521803966774379014,15.5020668545,-0.0979663431256,0.0
1521803966774511098,15.5021040147,-0.0979638447522,0.0
1521803966814006090,15.502064363,-0.0979319451063,0.0
1521803966814127922,15.5029745375,-0.0982884552288,0.0
1521803966854136943,15.5047685284,-0.0990556969724,0.0
1521803966854222059,15.5076749517,-0.10035205345,0.0
1521803966894639968,15.511626033,-0.102170442178,0.0
1521803966894850969,15.5166390723,-0.104522428085,0.0
1521803966933969974,15.5227211182,-0.107407190742,0.0
1521803966934075117,15.5362659383,-0.113868309328,0.0
1521803966975380897,15.5452957868,-0.118218676069,0.0
1521803966975815057,15.5554000414,-0.123102693374,0.0
1521803967013991117,15.5665790466,-0.128520463515,0.0
1521803967014059066,15.5788329848,-0.134472011952,0.0
1521803967055382966,15.5921619576,-0.140957324971,0.0
1521803967064450979,15.6065660249,-0.147976369613,0.0
1521803967104888916,15.622045226,-0.155529103669,0.0
1521803967105775117,15.6385995891,-0.163615480753,0.0
1521803967143171072,15.6426173777,-0.165600710427,0.0
1521803967143462896,15.6737596424,-0.180871077438,0.0
1521803967183022022,15.6915735324,-0.189658700631,0.0
1521803967183254957,15.709445818,-0.198485842773,0.0
1521803967223047971,15.7318390377,-0.209551826093,0.0
1521803967223618984,15.7497625381,-0.218411894841,0.0
1521803967261913061,15.767689514,-0.227274794841,0.0
1521803967278951883,15.799042917,-0.242778059057,0.0
1521803967319205999,15.8169727889,-0.251642936447,0.0
1521803967319957017,15.8214778866,-0.253868737906,0.0
1521803967357846975,15.8528337127,-0.269372908599,0.0
1521803967357949018,15.8707644218,-0.278237783765,0.0
1521803967398264884,15.8931996097,-0.289327964535,0.0
1521803967398595094,15.9111301704,-0.2981924288,0.0
1521803967438556909,15.9290607552,-0.307056740998,0.0
1521803967438683986,15.9469913611,-0.315920902573,0.0
1521803967482523918,15.9649219867,-0.324784916265,0.0
1521803967482644081,15.9828526313,-0.333648785382,0.0
1521803967522063016,16.0007832945,-0.342512513379,0.0
1521803967522162914,16.0187139759,-0.351376103828,0.0
1521803967561887979,16.0366446753,-0.360239560286,0.0
1521803967561996936,16.0545298499,-0.369082144115,0.0
1521803967602700948,16.0714464381,-0.377484022807,0.0
1521803967610316991,16.0874233094,-0.385450364386,0.0
1521803967651333093,16.1023926615,-0.39297190281,0.0
1521803967651648998,16.1162758009,-0.400052791235,0.0
1521803967703815937,16.1308263026,-0.407536837898,0.0
1521803967728317022,16.1463248916,-0.415585938709,0.0
1521803967766555070,16.1627428787,-0.424191277439,0.0
1521803967766793012,16.1933372846,-0.44039571958,0.0
1521803967766879081,16.2108577321,-0.449747231958,0.0
1521803967766948938,16.2282259252,-0.45903627154,0.0
1521803967808398962,16.2325866836,-0.461367026793,0.0
1521803967808650016,16.2641343701,-0.478375673045,0.0
1521803967846832036,16.2786080884,-0.486243072296,0.0
1521803967886882066,16.2919279137,-0.493575706607,0.0
1521803967886996984,16.3045000103,-0.500616058096,0.0
1521803967926067113,16.3178625889,-0.508182762069,0.0
1521803967926179885,16.3321323996,-0.516352888984,0.0
1521803967966020107,16.3473473365,-0.525138856772,0.0
1521803967966121912,16.3635331956,-0.534557945936,0.0
1521803968009938001,16.3764680117,-0.542095735718,0.0
1521803968010031938,16.3977098033,-0.554560041928,0.0
1521803968010071992,16.4149022893,-0.56465996202,0.0
1521803968049830913,16.4321196021,-0.574783244512,0.0
1521803968087302923,16.4621307274,-0.592445007117,0.0
1521803968126513957,16.4664268286,-0.594972018885,0.0
1521803968126619100,16.4936155093,-0.611097633106,0.0
1521803968166965961,16.5117380697,-0.621904907797,0.0
1521803968167207956,16.5248845157,-0.629848783323,0.0
1521803968167325019,16.5381217884,-0.637927119681,0.0
1521803968239985942,16.5542377937,-0.647903485826,0.0
1521803968240278005,16.5668425713,-0.65578407146,0.0
1521803968278130054,16.5825933322,-0.665740137106,0.0
1521803968278265953,16.5951991116,-0.673730135143,0.0
1521803968278326034,16.6159407027,-0.686984099042,0.0
1521803968319359064,16.6327345224,-0.697727396995,0.0
1521803968320015907,16.6495533755,-0.708495650539,0.0
1521803968375272989,16.6663841929,-0.719275756446,0.0
1521803968375655889,16.6832206545,-0.730061390091,0.0
1521803968414088010,16.7000601926,-0.740849783103,0.0
1521803968414201974,16.7165393749,-0.751423653524,0.0
1521803968414258003,16.7320457889,-0.76141470984,0.0
1521803968453972101,16.7426459967,-0.768296947568,0.0
1521803968454093933,16.7600209583,-0.779598598991,0.0
1521803968470005035,16.7725736264,-0.787875967531,0.0
1521803968494935989,16.7840141218,-0.795557616114,0.0
1521803968535200119,16.7944266312,-0.802711534154,0.0
1521803968573864936,16.8036928707,-0.809222996922,0.0
1521803968573944091,16.8120791228,-0.815225838426,0.0
1521803968573986053,16.8193815421,-0.820578279508,0.0
1521803968619941949,16.8256149393,-0.825263311914,0.0
1521803968620701074,16.830864706,-0.829311137245,0.0
1521803968660486936,16.8350560138,-0.832626973348,0.0
1521803968697911024,16.8384211911,-0.835351654736,0.0
1521803968698008060,16.8407591477,-0.837324509457,0.0
1521803968698044061,16.8420853292,-0.838523302163,0.0
1521803968758836030,16.8425179885,-0.839003539479,0.0
1521803968759730100,16.8425862288,-0.839134894898,0.0
1521803968797959089,16.8427645685,-0.839306969943,0.0
1521803968798064947,16.8429095345,-0.839415929007,0.0
1521803968844260931,16.8437673288,-0.840089636152,0.0
1521803968844854116,16.8453901619,-0.841441910152,0.0
1521803968882273912,16.8478456886,-0.843552649185,0.0
1521803968882584095,16.8511565836,-0.8464704782,0.0
1521803968922297954,16.8553077352,-0.850183168196,0.0
1521803968922499895,16.8591312989,-0.85371596045,0.0
1521803968967220067,16.8600519131,-0.85457315934,0.0
1521803968967322111,16.8653235759,-0.859626227271,0.0
1521803969006134033,16.866769131,-0.861088513943,0.0
1521803969006303071,16.8691629667,-0.863364060108,0.0
1521803969046272993,16.8678537033,-0.862321577129,0.0
1521803969046412944,16.8678882197,-0.862399093232,0.0
1521803969086206912,16.8679465882,-0.862462066523,0.0
1521803969086349964,16.8679117332,-0.862426435555,0.0
1521803969126036882,16.8679856452,-0.862479116686,0.0
1521803969126151084,16.8679989797,-0.862477161095,0.0
1521803969166605949,16.8680726814,-0.862529859978,0.0
1521803969166871070,16.8687174285,-0.863137147934,0.0
1521803969206705093,16.8701290288,-0.864540468825,0.0
1521803969206870079,16.8723156318,-0.866791104972,0.0
1521803969250648975,16.8752945744,-0.869936489833,0.0
1521803969251194953,16.8836305981,-0.878920178691,0.0
1521803969291941881,16.8889903035,-0.884755853311,0.0
1521803969292319059,16.8951463745,-0.891488277961,0.0
1521803969330276012,16.9020991508,-0.899117537076,0.0
1521803969330419063,16.9098483002,-0.907643095547,0.0
1521803969371016979,16.9183948374,-0.917065770757,0.0
1521803969373792886,16.9277321636,-0.927378730438,0.0
1521803969409893035,16.9366743027,-0.937373672088,0.0
1521803969451293945,16.9448457997,-0.946608260194,0.0
1521803969451914072,16.9522173739,-0.95502499615,0.0
1521803969489919900,16.9589190953,-0.962747343613,0.0
1521803969490025997,16.9647833959,-0.969606746042,0.0
1521803969490067958,16.9697627537,-0.975568833325,0.0
1521803969530452013,16.9739402733,-0.980701986297,0.0
1521803969541191101,16.9772570315,-0.984890219953,0.0
1521803969578368902,16.9798292528,-0.988229544985,0.0
1521803969578560113,16.9816232151,-0.990662635396,0.0
1521803969618009090,16.9825680251,-0.992065718755,0.0
1521803969639482975,16.9829083707,-0.992680054206,0.0
1521803969678217887,16.9829776762,-0.992882595841,0.0
1521803969678364992,16.9830279614,-0.992993669956,0.0
1521803969719527959,16.9836903183,-0.993815768029,0.0
1521803969720033884,16.9850012251,-0.995490287927,0.0
1521803969720261096,16.9869779915,-0.998091635399,0.0
1521803969758090972,16.9896302296,-1.00167027167,0.0
1521803969759027004,16.9929608776,-1.00623161251,0.0
1521803969802855014,16.996970894,-1.01177429454,0.0
1521803969841850042,17.0058439515,-1.02409893929,0.0
1521803969841938972,17.0117297683,-1.03234636764,0.0
1521803969842186927,17.018299885,-1.04157948901,0.0
1521803969887738943,17.0198414962,-1.04378958167,0.0
1521803969900125980,17.0272700861,-1.0542580146,0.0
1521803969938137054,17.0353833891,-1.06571256908,0.0
1521803969938458919,17.0514270271,-1.08837246572,0.0
1521803969938599109,17.0536643994,-1.09157998831,0.0
1521803969984589099,17.0638322126,-1.10599278756,0.0
1521803969984822988,17.0832987844,-1.13361028225,0.0
1521803970027169942,17.0860315473,-1.13752798926,0.0
1521803970066060066,17.108835646,-1.17014549335,0.0
1521803970066175937,17.1202505377,-1.18651012886,0.0
1521803970106323957,17.1316785882,-1.2029004419,0.0
1521803970106421947,17.1431151413,-1.21930706691,0.0
1521803970145950078,17.1545520695,-1.23571638702,0.0
1521803970146059989,17.1745476342,-1.26441044268,0.0
1521803970186017036,17.1859844329,-1.28082048057,0.0
1521803970186125040,17.1974214613,-1.29723062426,0.0
1521803970225878000,17.2088586706,-1.31364074451,0.0
1521803970225986003,17.2202960352,-1.33005078018,0.0
1521803970266218900,17.2317335405,-1.34646070255,0.0
1521803970266393899,17.2431711772,-1.3628704989,0.0
1521803970306018114,17.2546089393,-1.3792801643,0.0
1521803970306168079,17.2660468218,-1.39568969775,0.0
1521803970345828056,17.2774848207,-1.41209910022,0.0
1521803970393527030,17.2889229325,-1.42850837353,0.0
1521803970429986953,17.3032375098,-1.44904112883,0.0
1521803970430092096,17.3146756416,-1.46544986964,0.0
1521803970430131912,17.3261138817,-1.48185849533,0.0
1521803970470175027,17.3375522272,-1.49826700866,0.0
1521803970470312118,17.3489906754,-1.51467541223,0.0
1521803970470493078,17.3604292236,-1.53108370859,0.0
1521803970489480018,17.3718678691,-1.54749190013,0.0
1521803970525954008,17.3833066095,-1.56389998926,0.0
1521803970566127061,17.394745442,-1.58030797834,0.0
1521803970566277980,17.4061843643,-1.59671586967,0.0
1521803970605950117,17.4176233738,-1.61312366544,0.0
1521803970611459016,17.4395776685,-1.64469911787,0.0
1521803970651321887,17.449436752,-1.65898369381,0.0
1521803970651817083,17.458783016,-1.67258218085,0.0
1521803970690045118,17.4654864594,-1.68238360206,0.0
1521803970694807052,17.4773428651,-1.69980739887,0.0
1521803970735671043,17.4873646607,-1.71475014793,0.0
1521803970736203908,17.4979506847,-1.73071497641,0.0
1521803970774858951,17.5087701877,-1.74712317285,0.0
1521803970788970947,17.5261629223,-1.77379016249,0.0
1521803970825998067,17.5352325439,-1.78782321975,0.0
1521803970826108932,17.5436490316,-1.80100037844,0.0
1521803970866214036,17.5532921734,-1.81638023113,0.0
1521803970879769086,17.5582750176,-1.82453947177,0.0
1521803970920542001,17.5661076577,-1.83763467137,0.0
1521803970920895099,17.5713787905,-1.84671152564,0.0
1521803970959500074,17.5760551734,-1.85494951366,0.0
1521803970959703922,17.5800211732,-1.86212797057,0.0
1521803970998573064,17.5833042104,-1.86824973913,0.0
1521803970998836040,17.5867263184,-1.87462847534,0.0
1521803971039155006,17.5905742657,-1.88178659097,0.0
1521803971042606115,17.5949142624,-1.88992317527,0.0
1521803971082293033,17.599767704,-1.8991075474,0.0
1521803971082504987,17.6051547526,-1.9093448434,0.0
1521803971121984004,17.6160540169,-1.93008906082,0.0
1521803971122077941,17.622934946,-1.94324173874,0.0
1521803971163263082,17.6303632253,-1.95745930863,0.0
1521803971164146900,17.6383395357,-1.97274322293,0.0
1521803971202903032,17.6468641943,-1.98909420196,0.0
1521803971203422069,17.6558401297,-2.00634340606,0.0
1521803971242197036,17.6671517735,-2.02820078634,0.0
1521803971280380964,17.6763010783,-2.04590698119,0.0
1521803971318898916,17.6854587582,-2.06364902054,0.0
1521803971358074903,17.6946207258,-2.08140890451,0.0
1521803971358163118,17.7037849099,-2.09917765344,0.0
1521803971358212947,17.7129502615,-2.11695078755,0.0
1521803971400047063,17.7267978219,-2.14379127049,0.0
1521803971401082992,17.7312883853,-2.15251529141,0.0
1521803971438580036,17.7404595134,-2.17029966056,0.0
1521803971439162969,17.7496287911,-2.18808126024,0.0
1521803971478480100,17.7587968736,-2.20586062179,0.0
1521803971478593111,17.7679643467,-2.22363866833,0.0
1521803971478660106,17.777131549,-2.24141599764,0.0
1521803971524089097,17.7931645114,-2.27250919125,0.0
1521803971524925947,17.7954657577,-2.27696965374,0.0
1521803971562053918,17.8046328968,-2.29474623804,0.0
1521803971562175035,17.8206664303,-2.32583931448,0.0
1521803971608230113,17.8298338685,-2.34361588512,0.0
1521803971608778953,17.8390013759,-2.36139240164,0.0
1521803971645953893,17.8481689519,-2.37916886708,0.0
1521803971646060943,17.8573365949,-2.39694528319,0.0
1521803971686976909,17.8665043032,-2.41472165111,0.0
1521803971707880973,17.8756720751,-2.4324979716,0.0
1521803971747486114,17.8871401267,-2.45473271157,0.0
1521803971747704029,17.8963079235,-2.47250875141,0.0
1521803971747831106,17.9031757534,-2.48582665421,0.0
1521803971787159919,17.9146436926,-2.50806070046,0.0
1521803971788456916,17.9238116606,-2.52583660918,0.0
1521803971826265096,17.9306799585,-2.53915496533,0.0
1521803971866374969,17.9421477842,-2.56138835165,0.0
1521803971866555929,17.9513159107,-2.57916413864,0.0
1521803971906956911,17.9642223417,-2.60418040038,0.0
1521803971908107042,17.9691320776,-2.61376743622,0.0
1521803971946129083,17.9772090281,-2.6295555227,0.0
1521803971946259021,17.984733252,-2.64438042527,0.0
1521803971986125946,17.9917370582,-2.65829010411,0.0
1521803971986255884,17.998223449,-2.67129193189,0.0
1521803972026150941,18.0050181624,-2.68506805341,0.0
1521803972026281118,18.0121838949,-2.69988655818,0.0
1521803972065963983,18.0197416804,-2.71575973544,0.0
1521803972077922105,18.0277584791,-2.73268601729,0.0
1521803972113924026,18.0361738232,-2.75053842462,0.0
1521803972114032983,18.0443008618,-2.76789122905,0.0
1521803972155025959,18.05204078,-2.78450270158,0.0
1521803972166141986,18.0591509392,-2.79990210378,0.0
1521803972206429958,18.0701770915,-2.82425672912,0.0
1521803972206609964,18.0757138367,-2.83687163133,0.0
1521803972250261068,18.0806320421,-2.84848702524,0.0
1521803972251092910,18.0849750982,-2.85899785488,0.0
1521803972286818027,18.0920614012,-2.87694088262,0.0
1521803972288105010,18.0929267144,-2.87916148945,0.0
1521803972326961040,18.0955205355,-2.88614672166,0.0
1521803972368432998,18.0976786865,-2.89216653889,0.0
1521803972368649959,18.1024893361,-2.90558004566,0.0
1521803972368738889,18.1053912043,-2.91376737398,0.0
1521803972406841039,18.1079237067,-2.92093029822,0.0
1521803972407049894,18.1114610931,-2.93108923001,0.0
1521803972420536994,18.1152287753,-2.94200386454,0.0
1521803972491287946,18.1195715544,-2.95486009772,0.0
1521803972530163049,18.1226741613,-2.96418254727,0.0
1521803972530288934,18.1253335577,-2.97234410413,0.0
1521803972571234941,18.1276260939,-2.97956343738,0.0
1521803972571365118,18.129462493,-2.98560586314,0.0
1521803972571453094,18.1308661525,-2.99047450564,0.0
1521803972609966993,18.1319075353,-2.99429927197,0.0
1521803972610093116,18.1326188631,-2.99708536539,0.0
1521803972610150098,18.1335985109,-3.00059398517,0.0
1521803972676942110,18.1360923315,-3.00947469883,0.0
1521803972677103996,18.1378583358,-3.01594334964,0.0
1521803972717752933,18.1399005552,-3.02353700925,0.0
1521803972754204034,18.1427516176,-3.03431149277,0.0
1521803972754348039,18.145449543,-3.04449329922,0.0
1521803972754405975,18.1484416449,-3.05583610731,0.0
1521803972793965101,18.1517281699,-3.06834113746,0.0
1521803972794064044,18.1553092728,-3.08200902208,0.0
1521803972810153007,18.1591850541,-3.09684007138,0.0
1521803972825053930,18.1633555881,-3.11283443254,0.0
1521803972867388010,18.1678209359,-3.12999217096,0.0
1521803972905937910,18.1725811515,-3.14831331114,0.0
1521803972906008958,18.1775266083,-3.16742947217,0.0
1521803972946424007,18.1824703109,-3.18667862281,0.0
1521803972964405059,18.1874136286,-3.20599418972,0.0
1521803973002789974,18.192356907,-3.22534287407,0.0
1521803973003144025,18.1973002731,-3.24470804746,0.0
1521803973003285884,18.2059462751,-3.27859776504,0.0
1521803973041868925,18.2108896266,-3.29797551017,0.0
1521803973096262931,18.2158333491,-3.31735512668,0.0
1521803973134169101,18.2207773167,-3.33673562909,0.0
1521803973134299993,18.2220191116,-3.34159917629,0.0
1521803973134370088,18.2269632609,-3.36098005387,0.0
1521803973173829078,18.2319075247,-3.38036096306,0.0
1521803973173933982,18.2417964112,-3.41912277148,0.0
