%time,field.x,field.y,field.z
1521803950194958925,5.29319403341e-08,8.54321548726e-18,0.0
1521803950251338958,0.00526031258364,-0.00658227852311,0.0
1521803950253853082,0.00526036551336,-0.00658227852258,0.0
1521803950278959989,0.00526041844286,-0.00658227852201,0.0
1521803950306204080,0.00526044490759,-0.0065822785217,0.0
1521803950334079980,0.00526048460453,-0.00658227852125,0.0
1521803950354172945,0.00526051106917,-0.00658227852093,0.0
1521803950377568006,0.0052605375338,-0.0065822785206,0.0
1521803950408771991,0.0052605375336,-0.00658227852067,0.0
1521803950429081916,0.00526056399815,-0.00658227852035,0.0
1521803950458026885,0.00526063015903,-0.00658227851963,0.0
1521803950491099119,0.00525857858549,-0.00658478125667,0.0
1521803950504620075,0.0052593863518,-0.00658478139831,0.0
1521803950544492959,0.00938409282798,-0.00658474194642,0.0
1521803950569812059,0.0178055327222,-0.00659015533094,0.0
1521803950596776962,0.0558879492205,-0.00658970805094,0.0
1521803950621758937,0.0922897397134,-0.00651159320522,0.0
1521803950635679960,0.12195720638,-0.00651143474528,0.0
1521803950661334037,0.0932419635138,0.00358238285682,0.0
1521803950686094045,0.0981657217383,0.00358296699873,0.0
1521803950713562011,0.137268477877,0.00358809937316,0.0
1521803950745181083,0.177492602271,0.00359314623899,0.0
1521803950764245986,0.192637446754,0.00359501830023,0.0
1521803950790164947,0.20764125359,0.00629380476853,0.0
1521803950815120935,0.248237382205,0.00628864700151,0.0
1521803950836191892,0.258415601502,0.00628736075294,0.0
1521803950866888046,0.268523454011,0.00628604366841,0.0
1521803950897789955,0.309105829841,0.00628083619284,0.0
1521803950913326025,0.329395421772,0.00627823261381,0.0
1521803950941564083,0.335564594782,0.0034580651512,0.0
1521803950964982032,0.37615581001,0.00346265996778,0.0
1521803950989728927,0.396437781412,0.00346496662087,0.0
1521803951012988090,0.416714276483,0.00346727460817,0.0
1521803951035397052,0.426880641319,0.00346844412624,0.0
1521803951066695928,0.420350360295,0.00202501322863,0.0
1521803951094304084,0.460796897048,0.0020668273064,0.0
1521803951112684965,0.470929443943,0.00207731415295,0.0
1521803951142395019,0.526542643253,0.00213482572507,0.0
1521803951164581060,0.546785906793,0.00215576491154,0.0
1521803951186145067,0.556934231819,0.00216627272231,0.0
1521803951227596044,0.642883624687,0.00147141301752,0.0
1521803951241360902,0.653029512422,0.00147271453576,0.0
1521803951267069101,0.663113345254,0.00147398554625,0.0
1521803951295392990,0.75881524527,-0.000150142626089,0.0
1521803951320357084,0.779050375985,-0.000149717714236,0.0
1521803951343270063,0.819503327697,-0.000148852591717,0.0
1521803951367177009,0.839723718966,-0.000148417709557,0.0
1521803951392999887,0.825296311943,-0.00268168822267,0.0
1521803951415009021,0.860718105917,-0.00268252976548,0.0
1521803951439925909,0.870835750591,-0.00268275935406,0.0
1521803951469631910,0.885967335635,-0.00268311079048,0.0
1521803951492466926,0.896091981842,-0.0026833356348,0.0
1521803951521131038,0.946543275781,-0.00268449531449,0.0
1521803951546663045,1.00711421994,0.000954989548391,0.0
1521803951569138050,1.02732340979,0.000955766644842,0.0
1521803951596415042,1.06771793821,0.00095725999968,0.0
1521803951618863105,1.08790832499,0.000957996642938,0.0
1521803951640364885,1.09802418115,0.000958374128372,0.0
1521803951682265043,1.10633583516,-0.00142852406697,0.0
1521803951693527936,1.12651880919,-0.0014284884839,0.0
1521803951718916893,1.16687373084,-0.00142840683202,0.0
1521803951740586042,1.17698113555,-0.00142837901101,0.0
1521803951769407987,1.22235253845,-0.00142827969644,0.0
1521803951794684886,1.24248727291,-0.00142823866214,0.0
1521803951819807052,1.26262061995,-0.00142819652905,0.0
1521803951846456050,1.28275302139,-0.0014281535168,0.0
1521803951872201919,1.30288402583,-0.00142811004069,0.0
1521803951891387939,1.31296545742,-0.00142808262418,0.0
1521803951929213047,1.36835778478,-0.00142796700579,0.0
1521803951944020986,1.38850519757,-0.00142792302388,0.0
1521803951969285964,1.42187553478,-0.00142782874655,0.0
1521803951994731903,1.4288437447,-0.001427826806,0.0
1521803952021214008,1.44898506219,-0.0014277830976,0.0
1521803952050098896,1.48926463853,-0.00142769344796,0.0
1521803952070072889,1.52452038654,-0.00142760400043,0.0
1521803952095151901,1.52954144788,-0.00142759781061,0.0
1521803952122667074,1.5698502133,-0.00142748886178,0.0
1521803952147852897,1.58997858312,-0.00142744362661,0.0
1521803952171168088,1.60006078564,-0.00142741470165,0.0
1521803952207278013,1.65033937513,-0.00142731321479,0.0
1521803952221363067,1.66041842281,-0.00142728467233,0.0
1521803952248951911,1.67050882908,-0.0014272521539,0.0
1521803952272350072,1.68061059394,-0.00142721565938,0.0
1521803952311044931,1.75083754717,-0.00142709436377,0.0
1521803952326122999,1.76589911549,-0.0014270638997,0.0
1521803952347013950,1.7910386601,-0.00142700371636,0.0
1521803952375264883,1.81114695624,-0.00142695794762,0.0
1521803952402364969,1.83125430451,-0.00142691242276,0.0
1521803952429303884,1.87146538887,-0.00142682181,0.0
1521803952446825027,1.88153385493,-0.00142679357221,0.0
1521803952480325937,1.91166327073,-0.00142673374003,0.0
1521803952506228923,1.95186182612,-0.00142664319761,0.0
1521803952528413057,1.97195960105,-0.00142659772854,0.0
1521803952549931049,2.00713899522,-0.00142650964815,0.0
1521803952575880050,2.02721372329,-0.00142646561955,0.0
1521803952602303028,2.0372663757,-0.0014264382656,0.0
1521803952623071908,2.04732775696,-0.00142640781968,0.0
1521803952659418106,2.09248426084,-0.00142631690119,0.0
1521803952675973892,2.11257121727,-0.00142627053645,0.0
1521803952708422899,2.15274339825,-0.00142617760516,0.0
1521803952723659038,2.16280031547,-0.00142614929196,0.0
1521803952755579948,2.19290549848,-0.00142608592015,0.0
1521803952776391029,2.21298724766,-0.0014260388984,0.0
1521803952807415962,2.23306838595,-0.0014259915513,0.0
1521803952830705881,2.25318560209,-0.0014259403683,0.0
1521803952857616901,2.29336089968,-0.00142584543556,0.0
1521803952877875089,2.30341842973,-0.0014258163262,0.0
1521803952909549951,2.34854743418,-0.00142571292119,0.0
1521803952935205936,2.36860531822,-0.00142566505314,0.0
1521803952959368944,2.41376641682,-0.00142555087041,0.0
1521803952981292009,2.43383663531,-0.00142550080681,0.0
1521803953002959012,2.44388365643,-0.00142547142041,0.0
1521803953032788038,2.47397002792,-0.00142540171838,0.0
1521803953056524991,2.51410427506,-0.00142530057372,0.0
1521803953077714920,2.52414940039,-0.00142527093816,0.0
1521803953107353925,2.55423089456,-0.001425199696,0.0
1521803953130935907,2.57429478327,-0.00142514841157,0.0
1521803953156651020,2.58433818566,-0.00142511864254,0.0
1521803953182390928,2.6294684057,-0.00142500231013,0.0
1521803953214122056,2.65452665762,-0.0014249403741,0.0
1521803953229214906,2.66456191742,-0.00142491142966,0.0
1521803953258616924,2.70967011558,-0.00142479430276,0.0
1521803953290646076,2.7497618028,-0.00142468930418,0.0
1521803953307696104,2.75979368899,-0.00142465967438,0.0
1521803953335680007,2.78984814754,-0.00142458451105,0.0
1521803953355351924,2.79987914194,-0.00142455483009,0.0
1521803953386383056,2.83496456507,-0.0014244638681,0.0
1521803953407105922,2.85501673937,-0.00142441031654,0.0
1521803953437792062,2.87506888922,-0.00142435652774,0.0
1521803953458337068,2.89512066529,-0.00142430260547,0.0
1521803953484265089,2.93522251951,-0.00142419444962,0.0
1521803953508099079,2.9552724943,-0.00142414003841,0.0
1521803953530591964,2.96530629648,-0.0014241096378,0.0
1521803953565656900,3.0154144349,-0.00142397705888,0.0
1521803953583105087,3.03546164057,-0.0014239218407,0.0
1521803953609966039,3.04549371629,-0.00142389117063,0.0
1521803953639659881,3.07555107745,-0.00142381192789,0.0
1521803953665973901,3.09559618875,-0.00142375610526,0.0
1521803953686749935,3.1357054043,-0.00142363689611,0.0
1521803953709286928,3.15574742106,-0.00142358061391,0.0
1521803953735053062,3.17578948745,-0.00142352384163,0.0
1521803953759937047,3.19583145846,-0.00142346649516,0.0
1521803953793677091,3.23591436958,-0.00142335060485,0.0
1521803953812139987,3.25595512595,-0.00142329204029,0.0
1521803953834948062,3.27599537151,-0.00142323326985,0.0
1521803953861603021,3.31106772636,-0.0014231264349,0.0
1521803953890569925,3.33611259303,-0.00142305295493,0.0
1521803953908011913,3.34613784439,-0.0014230204853,0.0
1521803953933998107,3.35616655274,-0.00142298668839,0.0
1521803953964684963,3.39625152534,-0.0014228683554,0.0
1521803953991194963,3.43631614184,-0.0014227492261,0.0
1521803954011336088,3.45635115744,-0.00142268829937,0.0
1521803954034223079,3.46637581047,-0.00142265523371,0.0
1521803954063497066,3.51144318811,-0.00142251826186,0.0
1521803954091725111,3.53648575074,-0.00142244013296,0.0
1521803954111787080,3.55651836369,-0.00142237810477,0.0
1521803954139667034,3.59661996804,-0.00142225105821,0.0
1521803954162415027,3.61667106506,-0.00142218785768,0.0
1521803954186563014,3.63669781009,-0.00142212646825,0.0
1521803954212603092,3.65672822479,-0.00142206402254,0.0
1521803954236433982,3.67675889061,-0.00142200082875,0.0
1521803954259871959,3.68678044084,-0.00142196707128,0.0
1521803954298687934,3.73684652822,-0.00142181075763,0.0
1521803954309871912,3.74686678472,-0.00142177676816,0.0
1521803954341907024,3.75687428495,-0.00142174716509,0.0
1521803954366069078,3.79693003917,-0.00142161771403,0.0
1521803954386574983,3.80694729418,-0.00142158393158,0.0
1521803954422230958,3.85199642375,-0.00142143924719,0.0
1521803954436537981,3.86201212094,-0.00142140520966,0.0
1521803954466916084,3.89203692059,-0.0014213103206,0.0
1521803954494374990,3.93207875779,-0.00142117976654,0.0
1521803954510570049,3.94209333823,-0.00142114549241,0.0
1521803954540451049,3.97712952804,-0.00142103150124,0.0
1521803954561997890,3.98714576574,-0.00142099680054,0.0
1521803954594264030,4.01717704905,-0.00142089972343,0.0
1521803954610693931,4.02719362108,-0.00142086491268,0.0
1521803954646245002,4.07724707057,-0.00142070036247,0.0
1521803954661670923,4.08726320067,-0.00142066521477,0.0
1521803954689625978,4.09728135035,-0.00142062927199,0.0
1521803954726965904,4.12756034806,-0.00818859171366,0.0
1521803954739156007,4.14758602792,-0.00818022493763,0.0
1521803954771722078,4.18263214485,-0.00816558279117,0.0
1521803954790301084,4.19264541741,-0.0081613992883,0.0
1521803954822880983,4.21145165172,0.00439021310795,0.0
1521803954836714029,4.22146407778,0.00439251012467,0.0
1521803954877492904,4.27653253119,0.00440444358407,0.0
1521803954894200086,4.3165784411,0.00441299487691,0.0
1521803954914359092,4.32659201545,0.00441514023087,0.0
1521803954939357042,4.34413737232,-0.021661443413,0.0
1521803954977423906,4.37664201766,-0.00566682340069,0.0
1521803954994726896,4.41668711543,-0.00566960830731,0.0
1521803955013953924,4.42670007563,-0.00567029093765,0.0
1521803955053627967,4.44810811665,-0.00399412364658,0.0
1521803955070952892,4.48814941974,-0.00399385708712,0.0
1521803955089314937,4.49816146443,-0.00399378980906,0.0
1521803955113625049,4.50817496832,-0.00399372128005,0.0
1521803955141072034,4.50816876487,-0.00399372760605,0.0
1521803955167876005,4.54820764728,-0.00399346894286,0.0
1521803955190804958,4.56705435224,0.000962599720891,0.0
1521803955228781938,4.64212627004,0.000966468934945,0.0
1521803955243789911,4.66214153249,0.00096742709004,0.0
1521803955268765926,4.68716310526,0.000968625800574,0.0
1521803955298573970,4.722190814,0.000970292634154,0.0
1521803955316337108,4.71500911807,0.00839693524263,0.0
1521803955351809024,4.76004924589,0.00840151197824,0.0
1521803955374532938,4.80008330128,0.00840537265395,0.0
1521803955390642881,4.8100931693,0.00840634411357,0.0
1521803955426681995,4.8401153104,0.00840919556831,0.0
1521803955441880941,4.85012495817,0.00841016317238,0.0
1521803955471569061,4.81257995264,0.00766676489642,0.0
1521803955496656894,4.85261179092,0.0076672333897,0.0
1521803955518574953,4.86262086838,0.00766736015045,0.0
1521803955556231021,5.01832603381,0.00351628840981,0.0
1521803955565867900,5.02833365483,0.00351589528023,0.0
1521803955596487045,5.0383379074,0.00351550253905,0.0
1521803955618006944,5.06335527147,0.00351453379379,0.0
1521803955650474071,5.10338322566,0.00351298744095,0.0
1521803955690725088,5.11339152274,0.00351260716679,0.0
1521803955729899883,5.10041651975,0.00104124763179,0.0
1521803955730000019,5.12042965716,0.00104740627677,0.0
1521803955769984006,5.13043723851,0.00105049074167,0.0
1521803955775083065,5.20048350522,0.00107208936352,0.0
1521803955818097114,5.21049110382,0.00107518000339,0.0
1521803955858033895,5.24050783004,0.00108443377247,0.0
1521803955858125925,5.28053222064,0.00109678135892,0.0
1521803955897974967,5.29053943755,0.00109987245894,0.0
1521803955898127079,5.30054376963,0.00110295421155,0.0
1521803955938003063,5.31055089233,0.00110604534993,0.0
1521803955947302103,5.33556319116,0.00111376070656,0.0
1521803955986031055,5.34556943883,0.00111685171528,0.0
1521803956026021003,5.41559856617,0.00113845070853,0.0
1521803956067346096,5.45561628921,0.00115079999829,0.0
1521803956067727088,5.4756249731,0.00115697505619,0.0
1521803956106057882,5.48563015807,0.00116006573705,0.0
1521803956106209993,5.48562954089,0.00116006143874,0.0
1521803956146601915,5.56066479391,0.0011832275273,0.0
1521803956146739006,5.57067045222,0.00118631943587,0.0
1521803956186857938,5.62269639426,0.00120237890495,0.0
1521803956199475049,5.64070446417,0.00120793619141,0.0
1521803956239130973,5.65071058917,0.0012110284479,0.0
1521803956277815103,5.68072241804,0.00122028809287,0.0
1521803956319061994,5.72074030242,0.00123264218275,0.0
1521803956319457054,5.73074571346,0.00123573420438,0.0
1521803956357939004,5.74074875722,0.00123881847145,0.0
1521803956358045101,5.75075409147,0.00124191048133,0.0
1521803956399113893,5.7807688626,0.00125117291937,0.0
1521803956400507926,5.80077716348,0.00125734942092,0.0
1521803956438836097,5.82078546351,0.00126352662916,0.0
1521803956478037118,5.86080178568,0.00127588182285,0.0
1521803956478142023,5.87080672002,0.00127897378371,0.0
1521803956518891096,5.91582338167,0.0012928735848,0.0
1521803956528518915,5.95583561314,0.00130522747031,0.0
1521803956565887928,5.96583943656,0.00130831893796,0.0
1521803956606240987,6.00085277871,0.00131913330621,0.0
1521803956606398105,6.01085724241,0.00132222588976,0.0
1521803956646223068,6.05586942272,0.00133612203487,0.0
1521803956653934001,6.0808780042,0.00134384734927,0.0
1521803956690186023,6.10088475875,0.00135002662884,0.0
1521803956730155944,6.1208914685,0.00135620595495,0.0
1521803956730474948,6.13089558021,0.00135929844819,0.0
1521803956770142078,6.18091076804,0.00137474374812,0.0
1521803956773920059,6.19091475747,0.00137783644005,0.0
1521803956813882112,6.22092311719,0.00138710284974,0.0
1521803956854105949,6.23092700616,0.00139019564579,0.0
1521803956895011901,6.26093510253,0.00139946253985,0.0
1521803956895297050,6.27093889095,0.00140255546081,0.0
1521803956934149026,6.32095377901,0.00141800796488,0.0
1521803956934267997,6.33595671382,0.0014226417391,0.0
1521803956974200963,6.36096384612,0.00143037001082,0.0
1521803956975060939,6.37096726981,0.00143346353193,0.0
1521803957013925075,6.4209801568,0.00144891632562,0.0
1521803957054033994,6.46099093668,0.00146128234921,0.0
1521803957054218053,6.4709942529,0.00146437639397,0.0
1521803957093971967,6.48099604111,0.00146746532522,0.0
1521803957106288909,6.54101138421,0.00148601675378,0.0
1521803957146878957,6.55101453173,0.00148911116294,0.0
1521803957186903953,6.58102041619,0.00149838503696,0.0
1521803957187239885,6.59102315628,0.00150147917609,0.0
1521803957226912975,6.61602813669,0.00150921004251,0.0
1521803957230314016,6.62102906944,0.00151075486555,0.0
1521803957270543098,6.63103169844,0.00151384930102,0.0
1521803957309901952,6.70104857654,0.00153550380732,0.0
1521803957310028076,6.71105141312,0.00153859919303,0.0
1521803957350661993,6.76106152482,0.00155406314881,0.0
1521803957355671882,6.77106424608,0.00155715868587,0.0
1521803957395320892,6.78106567932,0.00156024980037,0.0
1521803957434410095,6.82107406094,0.00157262443148,0.0
1521803957434473991,6.83107667835,0.00157572009834,0.0
1521803957478786945,6.86108210412,0.00158499917289,0.0
1521803957478861093,6.87108465406,0.00158809493027,0.0
1521803957520256042,6.90108992014,0.00159737444623,0.0
1521803957539757013,6.94109773585,0.00160975112653,0.0
1521803957577713966,6.95110015618,0.00161284712161,0.0
1521803957617978096,7.00110948933,0.00162831727329,0.0
1521803957618107080,7.03611614632,0.00163914997507,0.0
1521803957658200979,7.05611902771,0.00164533862794,0.0
1521803957659606933,7.09612471184,0.00165771662375,0.0
1521803957699764966,7.10612650453,0.00166081260369,0.0
1521803957742237091,7.11612737966,0.00166390545091,0.0
1521803957742388963,7.1411314909,0.001671643079,0.0
1521803957783169984,7.18113807912,0.00168402268365,0.0
1521803957783477067,7.19114011821,0.00168711912298,0.0
1521803957821881055,7.22114443456,0.00169640225011,0.0
1521803957840989112,7.2611507712,0.00170878295367,0.0
1521803957881880998,7.27115273392,0.00171187972225,0.0
1521803957922460079,7.30115682074,0.0017211642372,0.0
1521803957922593116,7.34116284066,0.00173354696639,0.0
1521803957962254047,7.35116470356,0.00173664414184,0.0
1521803957962344884,7.39017240139,0.00174871974898,0.0
1521803958002521038,7.40017509693,0.00175181815256,0.0
1521803958022531986,7.44117953705,0.00176450951712,0.0
1521803958061849117,7.45118144704,0.00176760742803,0.0
1521803958102736949,7.48118490499,0.00177689555659,0.0
1521803958102854013,7.50118759726,0.00178308925614,0.0
1521803958142915010,7.51118928364,0.00178618747884,0.0
1521803958143647909,7.55619384257,0.00180012310914,0.0
1521803958181958913,7.56619519905,0.00180322141113,0.0
1521803958223217964,7.58119633146,0.00180786528683,0.0
1521803958223406076,7.64120420339,0.00182645377378,0.0
1521803958262161970,7.65120571326,0.00182955289278,0.0
1521803958265199899,7.68120888864,0.00183884574445,0.0
1521803958303184986,7.72121356086,0.00185123902508,0.0
1521803958341943979,7.73121500661,0.00185433861733,0.0
1521803958342082023,7.7412157868,0.00185743593447,0.0
1521803958382086038,7.76121802776,0.00186363313501,0.0
1521803958383083105,7.7712194367,0.00186673287303,0.0
1521803958422550916,7.84122669693,0.00188842406094,0.0
1521803958461916923,7.85122803416,0.00189152422568,0.0
1521803958503966093,7.88123083933,0.00190082074632,0.0
1521803958504673957,7.89123214221,0.00190392100263,0.0
1521803958542325973,7.90123284186,0.00190701915914,0.0
1521803958542530059,7.95623835273,0.00192406672829,0.0
1521803958582710981,7.97908566698,-0.00659257274211,0.0
1521803958594629049,8.02409102089,-0.00659923046891,0.0
1521803958633934974,8.03409225242,-0.00660070869624,0.0
1521803958674108028,8.07909678552,-0.00660735086191,0.0
1521803958674273014,8.14017493778,-0.00709160738284,0.0
1521803958713928937,8.1501760042,-0.00709057245542,0.0
1521803958716093063,8.18017884676,-0.00708745887654,0.0
1521803958755507946,8.2001805171,-0.00708538256,0.0
1521803958794110059,8.2101814719,-0.0070843455205,0.0
1521803958794215917,8.22018254587,-0.00708330958733,0.0
1521803958834151983,8.19901738772,-0.00269837248011,0.0
1521803958857397079,8.29902547731,-0.00263378606779,0.0
1521803958893984079,8.30902647883,-0.00262734235284,0.0
1521803958934514999,8.32497906004,0.00401598593578,0.0
1521803958934766054,8.36198216303,0.00400173452309,0.0
1521803958973954916,8.3719831043,0.0039978850777,0.0
1521803958974073886,8.38198377384,0.00399400488766,0.0
1521803959014439105,8.39198470052,0.00399014882676,0.0
1521803959023124933,8.42198693056,0.0039785314556,0.0
1521803959062459945,8.45287214683,-0.00198785067941,0.0
1521803959102780103,8.46287288707,-0.00198186205699,0.0
1521803959103121042,8.47287353304,-0.00197585617449,0.0
1521803959141856908,8.48287431225,-0.00196985637684,0.0
1521803959146703958,8.51287635153,-0.00195184283337,0.0
1521803959186009883,8.62314753659,0.00199975169336,0.0
1521803959226197957,8.63314849594,0.00200137458715,0.0
1521803959226330995,8.64314905891,0.00200297473034,0.0
1521803959266746997,8.68315243275,0.00200943800362,0.0
1521803959268601894,8.70315381409,0.00201265473653,0.0
1521803959305917978,8.69092749743,0.000880329865508,0.0
1521803959345875978,8.75093100742,0.000881626854146,0.0
1521803959345990896,8.77093229027,0.000882069903788,0.0
1521803959387029886,8.78093301426,0.000882295492262,0.0
1521803959393341064,8.79093353365,0.000882512483115,0.0
1521803959429877996,8.83100740003,-0.00058781225537,0.0
1521803959470932960,8.8410081109,-0.000587794635847,0.0
1521803959510019063,8.89101123787,-0.000587690453678,0.0
1521803959510157108,8.93101356909,-0.000587598731045,0.0
1521803959551048040,8.95229934776,0.042771430762,0.0
1521803959551382064,8.99524636487,0.00339807189581,0.0
1521803959589831113,9.00524715092,0.00339849223447,0.0
1521803959596404075,9.03524880555,0.00339968591767,0.0
1521803959633963108,9.07525109239,0.00340128250835,0.0
1521803959673686027,9.0852517484,0.00340168683838,0.0
1521803959673739910,9.1313670064,0.00413841544477,0.0
1521803959713928937,9.18637024495,0.00413930184283,0.0
1521803959714914083,9.19637079269,0.00413946374282,0.0
1521803959754390954,9.22637192746,0.00413992332807,0.0
1521803959793786048,9.23637243639,0.0041400844349,0.0
1521803959793848991,9.24637301639,0.00414024986402,0.0
1521803959834914922,9.20410333922,-0.00219313748941,0.0
1521803959850213050,9.26410553309,-0.00219733075316,0.0
1521803959890013933,9.27410613484,-0.00219801850226,0.0
1521803959930197000,9.28410641477,-0.00219869710732,0.0
1521803959930289983,9.30410729666,-0.00220006122516,0.0
1521803959970830917,9.34410902658,-0.00220278523983,0.0
1521803959971147060,9.35410948977,-0.00220346558917,0.0
1521803960009871959,9.39911119516,-0.00220652716272,0.0
1521803960019414901,9.40911158758,-0.00220720699164,0.0
1521803960058026075,9.44411298409,-0.00220958630709,0.0
1521803960102168083,9.46411374571,-0.00221094587612,0.0
1521803960102510929,9.47411416716,-0.0022116251558,0.0
1521803960141906976,9.50411525012,-0.00221366395924,0.0
1521803960149904966,9.56411747735,-0.00221773877855,0.0
1521803960185899972,9.57411787487,-0.00221841741873,0.0
1521803960226175069,9.5841181891,-0.0022190966066,0.0
1521803960226275920,9.60411889771,-0.00222045410017,0.0
1521803960265855073,9.6141192844,-0.00222113249017,0.0
1521803960279639959,9.64412027528,-0.00222316848686,0.0
1521803960322315931,9.65412065138,-0.00222384662659,0.0
1521803960359556913,9.69912207376,-0.00222689892581,0.0
1521803960360228061,9.76412410952,-0.00223130591825,0.0
1521803960399545907,9.77412445219,-0.00223198342692,0.0
1521803960400485992,9.78412472428,-0.00223266142189,0.0
1521803960439034938,9.80412533828,-0.00223401682584,0.0
1521803960477983951,9.85912684758,-0.00223774301324,0.0
1521803960478122949,9.86912711715,-0.00223842019662,0.0
1521803960518256902,9.90412808379,-0.00224079095706,0.0
1521803960519732952,9.91412838994,-0.00224146793657,0.0
1521803960558671951,9.9441291954,-0.00224349974997,0.0
1521803960598975896,9.9841303008,-0.00224620833088,0.0
1521803960599611997,9.99413060131,-0.0022468852001,0.0
1521803960638206958,10.0241313714,-0.00224891653018,0.0
1521803960647140026,10.0341316651,-0.00224959325179,0.0
1521803960687402009,10.064132415,-0.00225162418139,0.0
1521803960730151891,10.1041334455,-0.00225433130326,0.0
1521803960730268955,10.1141337254,-0.00225500776575,0.0
1521803960771409988,10.1441344422,-0.00225703785244,0.0
1521803960778831958,10.1991357526,-0.00226075807905,0.0
1521803960819072008,10.2091359844,-0.00226143422299,0.0
1521803960858532905,10.239136507,-0.00226346338374,0.0
1521803960858740091,10.2491367167,-0.00226413939792,0.0
1521803960898287057,10.2791372384,-0.00226616798667,0.0
1521803960906770944,10.324138192,-0.00226920982898,0.0
1521803960946089982,10.334138427,-0.00226988556404,0.0
1521803960986973047,10.3591388735,-0.00227157551652,0.0
1521803960987575054,10.4041398046,-0.00227461579588,0.0
1521803961025836944,10.4141400307,-0.00227529101067,0.0
1521803961028672933,10.424140213,-0.00227596651655,0.0
1521803961067598104,10.439140451,-0.0022769794688,0.0
1521803961106209993,10.4491406486,-0.00227765440108,0.0
1521803961106363058,10.4841413247,-0.00228001677375,0.0
1521803961146239042,10.5441424828,-0.00228406417408,0.0
1521803961151285886,10.5541426916,-0.00228473827991,0.0
1521803961191076040,10.5841432231,-0.00228676086548,0.0
1521803961233297109,10.5941434262,-0.00228743459085,0.0
1521803961270047903,10.6241439404,-0.00228945602262,0.0
1521803961270169019,10.6341441376,-0.00229012943888,0.0
1521803961310626983,10.6841450291,-0.00229349629992,0.0
1521803961310688018,10.6941452213,-0.00229416922562,0.0
1521803961350845098,10.704145359,-0.00229484247699,0.0
1521803961361918926,10.7591462298,-0.00229854291537,0.0
1521803961397923946,10.7691463857,-0.00229921537589,0.0
1521803961438963890,10.8191470574,-0.00230257771908,0.0
1521803961439327001,10.8291472009,-0.00230324978851,0.0
1521803961477793931,10.8791478528,-0.00230661018451,0.0
1521803961477890968,10.8891479903,-0.00230728190874,0.0
1521803961518978118,10.8991480852,-0.00230795386389,0.0
1521803961526982069,10.9091482168,-0.00230862547411,0.0
1521803961566061973,10.9641489821,-0.00231231970963,0.0
1521803961606583118,10.9741491357,-0.00231299113307,0.0
1521803961646038055,11.0241499432,-0.00231634898709,0.0
1521803961646151065,11.0441502171,-0.00231769201429,0.0
1521803961687305927,11.0641504873,-0.00231903484289,0.0
1521803961687791109,11.0741506357,-0.00231970607241,0.0
1521803961726115942,11.0841507504,-0.00232037751751,0.0
1521803961736494064,11.1041510127,-0.00232171998546,0.0
1521803961775139093,11.114151157,-0.00232239099477,0.0
1521803961813853025,11.1641517802,-0.00232574617794,0.0
1521803961813950061,11.1991521949,-0.0023280939661,0.0
1521803961854331016,11.2191523936,-0.00232943525088,0.0
1521803961873908042,11.2791529734,-0.00233345819737,0.0
1521803961915132999,11.289153078,-0.00233412841831,0.0
1521803961915574073,11.3191533781,-0.00233613924682,0.0
1521803961954138994,11.3291534855,-0.00233680929315,0.0
1521803961965785026,11.3641538249,-0.00233915459523,0.0
1521803962002068042,11.4041542606,-0.00234183430826,0.0
1521803962046119928,11.4141543789,-0.00234250389892,0.0
1521803962046276092,11.4441546866,-0.0023445128012,0.0
1521803962086822032,11.4541548032,-0.00234518219669,0.0
1521803962089838027,11.4641548942,-0.00234585174705,0.0
1521803962126200914,11.5241555062,-0.00234986703433,0.0
1521803962167228937,11.5341556161,-0.0023505358366,0.0
1521803962167654037,11.5791560182,-0.00235354523358,0.0
1521803962206964015,11.5891561098,-0.00235421360101,0.0
1521803962219652891,11.6191563598,-0.00235621876751,0.0
1521803962257775068,11.639156506,-0.00235755503224,0.0
1521803962297911882,11.644156554,-0.00235788903423,0.0
1521803962298022985,11.6541566407,-0.00235855691218,0.0
1521803962338448047,11.6991569586,-0.0023615619678,0.0
1521803962343426942,11.7391572249,-0.00236423179538,0.0
1521803962383368015,11.7491572978,-0.00236489898577,0.0
1521803962423027992,11.784157573,-0.0023672339466,0.0
1521803962423487901,11.7941576582,-0.00236790080038,0.0
1521803962462176084,11.8241578954,-0.00236990139963,0.0
1521803962470410108,11.8441580462,-0.00237123485733,0.0
1521803962506974935,11.924158568,-0.00237656633305,0.0
1521803962546231031,11.9341586457,-0.00237723234052,0.0
1521803962546430110,11.95915879,-0.00237889749057,0.0
1521803962586915016,11.9841589608,-0.0023805623811,0.0
1521803962592323064,12.0041590992,-0.00238189420485,0.0
1521803962630125045,12.0471594723,-0.00238475722149,0.0
1521803962670684099,12.0571595772,-0.00238542286383,0.0
1521803962710091114,12.1323322568,-0.00953473319321,0.0
1521803962710249900,12.142332396,-0.00953029093428,0.0
1521803962751732110,12.1723326232,-0.00951695060308,0.0
1521803962752407073,12.1923327884,-0.00950805786255,0.0
1521803962790733098,12.2023328909,-0.00950361291662,0.0
1521803962795252084,12.212333009,-0.0094991691739,0.0
1521803962835076093,12.1902534616,0.00531670302649,0.0
1521803962874978065,12.2502524434,0.00533019574818,0.0
1521803962875395059,12.26025246,0.00533231785759,0.0
1521803962913984060,12.3302528075,0.00534698134579,0.0
1521803962926526069,12.3328029537,0.00113747427006,0.0
1521803962965862989,12.3528028512,0.0011520310244,0.0
1521803963005811929,12.3928029233,0.00118120838824,0.0
1521803963005899906,12.4028029459,0.00118850792005,0.0
1521803963046499967,12.4528031456,0.0012250141043,0.0
1521803963046708106,12.4051141154,-0.0236312709962,0.0
1521803963086034059,12.4139788471,-0.00138405693715,0.0
1521803963092190027,12.4239782892,-0.001381532003,0.0
1521803963130718946,12.4589778248,-0.00137263053327,0.0
1521803963174004077,12.4989777043,-0.00136243662678,0.0
1521803963210010051,12.5764776783,0.00202360195189,0.0
1521803963210165977,12.6314834879,0.00200653595322,0.0
1521803963250839948,12.6714840166,0.00199396324656,0.0
1521803963251265048,12.6814841074,0.0019908195952,0.0
1521803963290101051,12.7114842258,0.00198137448498,0.0
1521803963291675090,12.7214842697,0.00197822885585,0.0
1521803963330401897,12.731484301,0.00197507888159,0.0
1521803963370050907,12.8118372395,0.00860248216292,0.0
1521803963409909009,12.8218373235,0.00860301616963,0.0
1521803963410005092,12.8489271157,0.00576072872327,0.0
1521803963450149059,12.8589270448,0.00576075418281,0.0
1521803963450347900,12.8689269687,0.0057607834351,0.0
1521803963490329980,12.8689270927,0.00576078116606,0.0
1521803963492764949,12.878927075,0.00576081301471,0.0
1521803963534262895,13.0276414089,-0.00232008830798,0.0
1521803963571154117,13.0376417457,-0.00232086343598,0.0
1521803963610022068,13.0676419581,-0.00232312330383,0.0
1521803963610165119,13.0776421123,-0.00232387934588,0.0
1521803963650932073,13.1076422418,-0.00232613139595,0.0
1521803963651269912,13.1476424934,-0.00232913419083,0.0
1521803963690716981,13.1576425963,-0.00232988503017,0.0
1521803963706047058,13.1191600894,0.000597300162088,0.0
1521803963743077993,13.129159941,0.000597542428896,0.0
1521803963782583951,13.1391599948,0.000597777549194,0.0
1521803963782949924,13.1591599542,0.000598253676048,0.0
1521803963822107076,13.2041599672,0.000599322319211,0.0
1521803963822228908,13.2141599544,0.000599560902058,0.0
1521803963861929893,13.2591599794,0.000600630260656,0.0
1521803963874284029,13.284159984,0.000601225371331,0.0
1521803963914913892,13.3041600071,0.000601700822605,0.0
1521803963955266952,13.3241600339,0.000602176334273,0.0
1521803963955363035,13.3341600188,0.00060241563553,0.0
1521803963993977069,13.3641601069,0.000603127142323,0.0
1521803963999912977,13.4041601691,0.000604079212926,0.0
1521803964037899017,13.414160156,0.000604318857466,0.0
1521803964078064918,13.4441602437,0.000605031481306,0.0
1521803964078176021,13.4541602311,0.000605271266845,0.0
1521803964118782043,13.4991603056,0.000606342707273,0.0
1521803964128019094,13.5591603684,0.000607774306249,0.0
1521803964166445970,13.5691603545,0.000608014406624,0.0
1521803964208030939,13.5791603232,0.000608255460787,0.0
1521803964208677053,13.6041604109,0.000608850692016,0.0
1521803964246926069,13.6241604365,0.00060932928659,0.0
1521803964247036933,13.634160423,0.000609570083723,0.0
1521803964287245988,13.6791605084,0.000610647963742,0.0
1521803964305887937,13.7241605626,0.000611727210393,0.0
1521803964350718021,13.7341605489,0.000611968548447,0.0
1521803964389941930,13.7441605945,0.000612206903371,0.0
1521803964390057086,13.7641606199,0.000612687136151,0.0
1521803964434315919,13.8241606814,0.000614130263756,0.0
1521803964434719085,13.8341606673,0.000614372270335,0.0
1521803964474737882,13.8641607284,0.000615093145235,0.0
1521803964477624893,13.8841607471,0.000615574993426,0.0
1521803964515619039,13.9041607646,0.00061605719588,0.0
1521803964554260015,13.9241607814,0.000616539503582,0.0
1521803964554441928,13.9341607673,0.000616781935082,0.0
1521803964594069004,13.9441608049,0.000617021790449,0.0
1521803964613395929,14.0041608583,0.000618470674239,0.0
1521803964650722980,14.0141608449,0.000618713510884,0.0
1521803964690171957,14.084160895,0.000620406279693,0.0
1521803964690306901,14.104160911,0.0006208903708,0.0
1521803964730895996,14.1141608982,0.000621133512621,0.0
1521803964731075048,14.1241609346,0.000621374256373,0.0
1521803964770728111,14.1641609746,0.000622342625594,0.0
1521803964777225971,14.1741609639,0.000622585845061,0.0
1521803964814765930,14.2091610159,0.000623433839833,0.0
1521803964854355096,14.2191610044,0.00062367769286,0.0
1521803964894259929,14.2441610775,0.000624280805247,0.0
1521803964894370079,14.2841611215,0.000625250818511,0.0
1521803964934986114,14.2941611135,0.000625494389978,0.0
1521803964935848951,14.3241611721,0.000626221114493,0.0
1521803964978076934,14.3641611995,0.000627192804189,0.0
1521803964978243112,14.3741611955,0.000627436271115,0.0
1521803965017874002,14.4191612389,0.000628528794593,0.0
1521803965031744956,14.4291612317,0.000628772523001,0.0
1521803965070971012,14.4591612811,0.000629500299387,0.0
1521803965109885931,14.4991613125,0.000630473060233,0.0
1521803965109993934,14.5091613057,0.000630717120208,0.0
1521803965150001049,14.5386809813,0.000629807929614,0.0
1521803965158540010,14.5434620165,0.000615564454289,0.0
1521803965199110031,14.5811321518,0.000571978319079,0.0
1521803965238101959,14.5980672381,0.00049011928411,0.0
1521803965238260984,14.6065927361,0.000392807621182,0.0
1521803965277986049,14.6392249613,-0.000269236298338,0.0
1521803965279541969,14.6462112919,-0.000536466516589,0.0
1521803965318977117,14.6557988387,-0.000958298017343,0.0
1521803965358155012,14.696079759,-0.0031106167668,0.0
1521803965358310937,14.7037776709,-0.00361521663354,0.0
1521803965398849010,14.7306859464,-0.00534583125557,0.0
1521803965405812978,14.7394868755,-0.00593488834012,0.0
1521803965441988945,14.773308332,-0.00816709335276,0.0
1521803965483638048,14.7928561975,-0.00946956869154,0.0
1521803965521935939,14.8025953824,-0.0101219773482,0.0
1521803965522084951,14.8077458148,-0.0104626851453,0.0
1521803965561923980,14.8175964274,-0.0111225178258,0.0
1521803965574105024,14.8919084082,-0.0161052935171,0.0
1521803965610862970,14.9289585793,-0.018665919861,0.0
1521803965650193929,14.9618953837,-0.0211987051525,0.0
1521803965650418043,14.9699414215,-0.0219002852389,0.0
1521803965690284967,14.9764283612,-0.0225314238237,0.0
1521803965705976963,15.0115279091,-0.026233731782,0.0
1521803965745836019,15.0174217625,-0.0269418356382,0.0
1521803965789865970,15.0257552445,-0.0279977888749,0.0
1521803965789968013,15.0501048221,-0.0311770355732,0.0
1521803965790008068,15.0562899542,-0.032027841603,0.0
1521803965829972982,15.0937796019,-0.0371031824293,0.0
1521803965840147972,15.1015253404,-0.03818586405,0.0
1521803965877882957,15.1293102856,-0.0419788552751,0.0
1521803965918337106,15.1382185034,-0.0432241984022,0.0
1521803965958246946,15.1846553229,-0.0497404928709,0.0
1521803965958439111,15.1937135267,-0.0510395654737,0.0
1521803966000114917,15.2331879341,-0.0570508424731,0.0
1521803966001065969,15.2560059012,-0.0609987605066,0.0
1521803966037940025,15.2624511558,-0.0621708340938,0.0
1521803966046102046,15.2807178265,-0.0657844645816,0.0
1521803966085963964,15.285945907,-0.0668517372844,0.0
1521803966125905990,15.2974049345,-0.0694331964767,0.0
1521803966126034021,15.3094457679,-0.072361612471,0.0
1521803966165887117,15.3122349704,-0.0730431013094,0.0
1521803966166064023,15.3135959921,-0.0734582702469,0.0
1521803966206111907,15.3166310986,-0.0743164595678,0.0
1521803966250010013,15.3182387831,-0.0747412018472,0.0
1521803966250149011,15.3183595421,-0.0748577742859,0.0
1521803966289748907,15.3193612132,-0.0751317472242,0.0
1521803966300647020,15.3232805182,-0.0762544797724,0.0
1521803966337856054,15.3239655647,-0.0764683579594,0.0
1521803966377876996,15.3351317428,-0.0796845208186,0.0
1521803966377974987,15.3372769072,-0.080372356019,0.0
1521803966419112920,15.3378561071,-0.0805145228218,0.0
1521803966424381017,15.3606760021,-0.0874661992215,0.0
1521803966462003946,15.3649282292,-0.0888289134173,0.0
1521803966503662109,15.3715991913,-0.0909570193018,0.0
1521803966503894090,15.3798407905,-0.0936442684132,0.0
1521803966543267965,15.3839783199,-0.0949926345913,0.0
1521803966553241014,15.3992776986,-0.100316009446,0.0
1521803966589844942,15.4037248059,-0.101977615812,0.0
1521803966630435943,15.4070441668,-0.1032732765,0.0
1521803966630680084,15.4104074257,-0.104752083071,0.0
1521803966671441078,15.4110675521,-0.105013576866,0.0
1521803966676609992,15.4111549824,-0.105141248762,0.0
1521803966715373992,15.4111609616,-0.105140542836,0.0
1521803966754261016,15.4110653068,-0.105096949728,0.0
1521803966754476070,15.410920036,-0.105001444618,0.0
1521803966794949054,15.4107668208,-0.104927456005,0.0
1521803966803617954,15.4105968373,-0.104814743131,0.0
1521803966842015027,15.4105922926,-0.104730838218,0.0
1521803966881887912,15.4105560691,-0.104710280902,0.0
1521803966882018089,15.4131489187,-0.105765209919,0.0
1521803966921865940,15.4137642158,-0.10607225737,0.0
1521803966921994924,15.419518889,-0.108659124788,0.0
1521803966966584920,15.4343445381,-0.11567750681,0.0
1521803966970329046,15.4374804433,-0.117256982805,0.0
1521803967007929086,15.4515565091,-0.124027985111,0.0
1521803967046214103,15.472733481,-0.134415935561,0.0
1521803967046392917,15.4781749559,-0.137156802679,0.0
1521803967085870027,15.4983993925,-0.147081773716,0.0
1521803967092726945,15.5049412083,-0.150376890177,0.0
1521803967129939079,15.5284198393,-0.161955684281,0.0
1521803967170208930,15.536060612,-0.165804356612,0.0
1521803967209923028,15.5612651541,-0.17833601152,0.0
1521803967210073947,15.5963932424,-0.19595627801,0.0
1521803967249809026,15.6052496202,-0.200417065769,0.0
1521803967252376079,15.6365501725,-0.216178367542,0.0
1521803967289944887,15.6544784319,-0.225214169524,0.0
1521803967330002069,15.6859167674,-0.24106507842,0.0
1521803967372191905,15.7083127377,-0.252358574771,0.0
1521803967372507095,15.7173272329,-0.256898874951,0.0
1521803967410056114,15.7576826073,-0.277249798148,0.0
1521803967410335063,15.7666990983,-0.281791068341,0.0
1521803967450143098,15.7980804711,-0.297614351825,0.0
1521803967456640958,15.8339884801,-0.315716473152,0.0
1521803967493863105,15.8430138931,-0.320262188359,0.0
1521803967534771919,15.8698800571,-0.333809472855,0.0
1521803967535137891,15.8789032641,-0.338354055861,0.0
1521803967576318025,15.9057654584,-0.351898437876,0.0
1521803967591645002,15.9416435608,-0.369984478021,0.0
1521803967630825042,15.9506546944,-0.374523109561,0.0
1521803967670028924,15.9759278955,-0.387359519161,0.0
1521803967670167922,16.0070173177,-0.403332692567,0.0
1521803967710087060,16.0146960006,-0.407333424453,0.0
1521803967710238933,16.0217126891,-0.411059390077,0.0
1521803967751934051,16.0367260091,-0.418996406595,0.0
1521803967757124900,16.0442107494,-0.423003689412,0.0
1521803967794045925,16.1154496732,-0.461452328795,0.0
1521803967833964109,16.1240886539,-0.466174959592,0.0
1521803967873931884,16.1533741702,-0.482286268863,0.0
1521803967874018907,16.168774178,-0.490810047677,0.0
1521803967915412902,16.1766075253,-0.495139337044,0.0
1521803967915749073,16.1966246727,-0.506523437732,0.0
1521803967953917026,16.2236723011,-0.522239402763,0.0
1521803967956517934,16.230465211,-0.526262036206,0.0
1521803967994709968,16.2531495815,-0.539649488493,0.0
1521803968034739971,16.2857715102,-0.559066190448,0.0
1521803968073899984,16.2939353024,-0.563962399902,0.0
1521803968073975086,16.3196128092,-0.579308071666,0.0
1521803968114907979,16.328098263,-0.584397127725,0.0
1521803968115873098,16.3536876998,-0.599743413808,0.0
1521803968154336929,16.3824045444,-0.617074601976,0.0
1521803968195141077,16.3904843733,-0.62193194329,0.0
1521803968234617948,16.4292718439,-0.645755448626,0.0
1521803968234745979,16.4361935379,-0.650102641778,0.0
1521803968273896932,16.4431005257,-0.654479903975,0.0
1521803968274002075,16.4571185677,-0.663420248855,0.0
1521803968314388036,16.5039298937,-0.693630861503,0.0
1521803968314557075,16.5119026963,-0.698837491897,0.0
1521803968358144998,16.5369662369,-0.715147804623,0.0
1521803968359220027,16.5452449984,-0.720553950502,0.0
1521803968398766994,16.5704068876,-0.736972903767,0.0
1521803968439165115,16.5787917516,-0.742448116247,0.0
1521803968478029966,16.6199271659,-0.769373537632,0.0
1521803968478159904,16.6496537817,-0.789031356751,0.0
1521803968518528938,16.6632955303,-0.798168579165,0.0
1521803968518613100,16.6759235428,-0.806740383849,0.0
1521803968558551073,16.6823477141,-0.811144023876,0.0
1521803968565383911,16.6873539456,-0.814727572599,0.0
1521803968606169939,16.7156523222,-0.835234006157,0.0
1521803968646070957,16.7199857479,-0.838440562195,0.0
1521803968646226882,16.7292018809,-0.845665556857,0.0
1521803968686904907,16.7324944583,-0.848198258388,0.0
1521803968690908908,16.7343670949,-0.849805391176,0.0
1521803968729962110,16.7444290904,-0.858255932698,0.0
1521803968769951105,16.7457272778,-0.859339295306,0.0
1521803968770056962,16.7464470274,-0.860241189272,0.0
1521803968810650110,16.746875566,-0.860613192584,0.0
1521803968818171024,16.7471990967,-0.860992173266,0.0
1521803968859010934,16.7471990289,-0.860992758647,0.0
1521803968898000955,16.7486690905,-0.862134350261,0.0
1521803968898142099,16.7527105414,-0.865578789199,0.0
1521803968938956975,16.7537399791,-0.866564597032,0.0
1521803968949251890,16.7595310136,-0.871795536913,0.0
1521803968987514972,16.7666934582,-0.878751870949,0.0
1521803969030216932,16.7680984919,-0.880113648186,0.0
1521803969030443906,16.7713688071,-0.883472965427,0.0
1521803969070178031,16.7723268817,-0.884439393664,0.0
1521803969071216106,16.7716804853,-0.884116311295,0.0
1521803969110809087,16.7718461501,-0.884359320411,0.0
1521803969150122880,16.7718229727,-0.884335680629,0.0
1521803969150276899,16.7717645523,-0.884238696948,0.0
1521803969191135883,16.7719010451,-0.884272208862,0.0
1521803969192744016,16.7718980597,-0.884265091499,0.0
1521803969229896068,16.7739421537,-0.886246089143,0.0
1521803969270886898,16.7744050597,-0.886778053576,0.0
1521803969309833049,16.781322132,-0.894095838965,0.0
1521803969309951066,16.7908040365,-0.904573224023,0.0
1521803969349822998,16.7931303576,-0.90727210218,0.0
1521803969349931955,16.8034564535,-0.918786552596,0.0
1521803969389940977,16.8065878034,-0.92241956059,0.0
1521803969393661022,16.8110032298,-0.927318936562,0.0
1521803969434464931,16.827763682,-0.946434938752,0.0
1521803969474484920,16.8319226318,-0.951262278351,0.0
1521803969514132022,16.8438906622,-0.965288580339,0.0
1521803969514309883,16.8577058545,-0.981868725945,0.0
1521803969554929971,16.8610946321,-0.985932555349,0.0
1521803969555313110,16.8683343198,-0.995176808098,0.0
1521803969594060897,16.8709474282,-0.998429421846,0.0
1521803969598416090,16.8757022542,-1.0049141602,0.0
1521803969638418912,16.8800714347,-1.01111531245,0.0
1521803969681982040,16.8810982224,-1.01249576757,0.0
1521803969682250976,16.8816124572,-1.01365017912,0.0
1521803969722057104,16.8819831748,-1.01416836797,0.0
1521803969729902982,16.8822523347,-1.01464793672,0.0
1521803969771003961,16.882414366,-1.01487755823,0.0
1521803969809891939,16.8861259003,-1.01974566798,0.0
1521803969809976100,16.8916272152,-1.027378276,0.0
1521803969850016117,16.8983243508,-1.03682038145,0.0
1521803969850146055,16.9034915748,-1.04421256786,0.0
1521803969891144990,16.9109185244,-1.05493992317,0.0
1521803969895925998,16.9137665713,-1.05919229805,0.0
1521803969935909032,16.9243935725,-1.07462474574,0.0
1521803969973889112,16.9405419277,-1.09817158251,0.0
1521803969974015951,16.9447314135,-1.10442678159,0.0
1521803970013993978,16.9669176154,-1.13696619296,0.0
1521803970023884057,16.9719764907,-1.14451937296,0.0
1521803970062794923,16.9723150725,-1.14493978999,0.0
1521803970102096080,17.0020700792,-1.18920946332,0.0
1521803970102253913,17.0075846131,-1.19744308054,0.0
1521803970142837047,17.0243644547,-1.22248260015,0.0
1521803970152720928,17.0551396508,-1.26848485302,0.0
1521803970190460920,17.0607718762,-1.27689417262,0.0
1521803970229998111,17.0774718011,-1.30187596987,0.0
1521803970230151891,17.0831013239,-1.31028124324,0.0
1521803970271879911,17.099816055,-1.33528151793,0.0
1521803970281872034,17.1221757356,-1.36870792481,0.0
1521803970319020986,17.1278026973,-1.37710935684,0.0
1521803970358756065,17.1445228689,-1.40211333261,0.0
1521803970358916044,17.1557011798,-1.41882228912,0.0
1521803970397902011,17.1613257344,-1.42722011478,0.0
1521803970406348943,17.1668707468,-1.43551764902,0.0
1521803970446064949,17.1724945056,-1.44391428235,0.0
1521803970490080118,17.2032364027,-1.48986503043,0.0
1521803970531289100,17.2368043793,-1.54003203438,0.0
1521803970531723022,17.2479929848,-1.55675248167,0.0
1521803970531881093,17.2536213677,-1.5651560128,0.0
1521803970571393966,17.2591732604,-1.57346007455,0.0
1521803970583019018,17.28154255,-1.60688708643,0.0
1521803970624115943,17.2871684409,-1.61528689559,0.0
1521803970662260055,17.3147122373,-1.65652185236,0.0
1521803970662446975,17.3346489351,-1.68659972519,0.0
1521803970702330112,17.3396300603,-1.6941076445,0.0
1521803970710429906,17.3530357668,-1.71463249785,0.0
1521803970751029968,17.357657606,-1.7217757266,0.0
1521803970789876937,17.3723239269,-1.74458720666,0.0
1521803970790008068,17.3824893634,-1.76049691881,0.0
1521803970830202102,17.3997733365,-1.78782385652,0.0
1521803970839413881,17.4178383759,-1.81668452627,0.0
1521803970878067016,17.4222974213,-1.82383523591,0.0
1521803970919411897,17.4333369624,-1.84222924622,0.0
1521803970919926881,17.4371002235,-1.8485423115,0.0
1521803970957954883,17.447631391,-1.86704680049,0.0
1521803970958102941,17.4506675878,-1.87242071856,0.0
1521803970998230934,17.4572717965,-1.88481254795,0.0
1521803971011370897,17.4647328676,-1.89917679547,0.0
1521803971050599098,17.466560128,-1.90271276439,0.0
1521803971089951038,17.4721769067,-1.91363229207,0.0
1521803971090065002,17.4740112213,-1.91729413174,0.0
1521803971130393028,17.4811170743,-1.93109929889,0.0
1521803971141395092,17.4966002104,-1.96137172279,0.0
1521803971178467035,17.4995832328,-1.96735964015,0.0
1521803971218131065,17.5107528005,-1.98925023291,0.0
1521803971218241930,17.526871267,-2.02112336506,0.0
1521803971258481025,17.5309369853,-2.02928428962,0.0
1521803971263518095,17.5375391943,-2.0423914421,0.0
1521803971302094936,17.5463109105,-2.05991553628,0.0
1521803971342097043,17.5506613781,-2.06864803828,0.0
1521803971342261075,17.5551762141,-2.07766787468,0.0
1521803971382344961,17.5819430217,-2.13138205212,0.0
1521803971389599084,17.586430167,-2.14038886075,0.0
1521803971425977945,17.59984684,-2.16734232206,0.0
1521803971467509031,17.604343504,-2.17636817946,0.0
1521803971505846023,17.617739772,-2.20328625301,0.0
1521803971546416997,17.6445980329,-2.25723894869,0.0
1521803971546596050,17.6490954567,-2.26626637305,0.0
1521803971586604118,17.6624888899,-2.29318032036,0.0
1521803971586865901,17.6669803989,-2.30219587102,0.0
1521803971625935077,17.6871170223,-2.34264718336,0.0
1521803971626064062,17.7049986151,-2.3785646732,0.0
1521803971666070938,17.7094874959,-2.38757494132,0.0
1521803971667543888,17.7228780287,-2.41447467892,0.0
1521803971706401109,17.727365935,-2.42348298034,0.0
1521803971746258974,17.7407566917,-2.45038182681,0.0
1521803971746414899,17.7452438137,-2.45938854419,0.0
1521803971787611961,17.7675873437,-2.50426524261,0.0
1521803971793915987,17.7877274801,-2.54470876036,0.0
1521803971834888935,17.7922172912,-2.5537208648,0.0
1521803971876138925,17.7944230565,-2.55815695712,0.0
1521803971876286983,17.7989089192,-2.56716113358,0.0
1521803971914088010,17.8145529997,-2.5985785953,0.0
1521803971923378944,17.832189622,-2.63405019593,0.0
1521803971963087081,17.8365869859,-2.64289393215,0.0
1521803972001925945,17.848281131,-2.66674836211,0.0
1521803972002007961,17.862465587,-2.69609193096,0.0
1521803972041866064,17.8659451285,-2.70336126732,0.0
1521803972046153068,17.8758560506,-2.72453245745,0.0
1521803972083369016,17.8791425396,-2.73175344936,0.0
1521803972122159004,17.8901092885,-2.75572147555,0.0
1521803972122267007,17.8936559292,-2.76360735055,0.0
1521803972162166118,17.9055944636,-2.78992842334,0.0
1521803972167471885,17.9132563969,-2.80697556733,0.0
1521803972206170082,17.9205678426,-2.82339753441,0.0
1521803972246386051,17.9382229908,-2.86397841612,0.0
1521803972246588945,17.9411698945,-2.87096063611,0.0
1521803972286933898,17.9480297804,-2.88807446027,0.0
1521803972298182964,17.9570706705,-2.91131425889,0.0
1521803972337999105,17.9588464827,-2.91601726297,0.0
1521803972377820968,17.9601061017,-2.91964556897,0.0
1521803972419399976,17.9703029484,-2.94884994648,0.0
1521803972419720888,17.9715014116,-2.95249137114,0.0
1521803972459192991,17.9756666126,-2.96461108193,0.0
1521803972459619998,17.9790393307,-2.97466301138,0.0
1521803972500143051,17.9806293814,-2.97956788797,0.0
1521803972501374006,17.9831776167,-2.98734362306,0.0
1521803972538917064,17.9848008562,-2.99237607054,0.0
1521803972577992916,17.9891517904,-3.00620885532,0.0
1521803972578116893,17.9906020195,-3.01082216541,0.0
1521803972619065999,17.9954345497,-3.02772073452,0.0
1521803972627286911,17.9986697462,-3.04048153161,0.0
1521803972668883085,17.9991369506,-3.04232482865,0.0
1521803972707962989,17.9995877066,-3.0441342022,0.0
1521803972708288908,18.0022636554,-3.05415027569,0.0
1521803972745840072,18.0039744043,-3.06079003584,0.0
1521803972745933055,18.0047082583,-3.06391445814,0.0
1521803972786638021,18.0109771901,-3.08887735733,0.0
1521803972804852008,18.0167127783,-3.11217370368,0.0
1521803972841835021,18.0199893924,-3.12558281857,0.0
1521803972883816003,18.0235401533,-3.14017527576,0.0
1521803972883902072,18.0273655284,-3.15595360664,0.0
1521803972922358989,18.0291794233,-3.16369064773,0.0
1521803972935564041,18.0358431499,-3.19113357896,0.0
1521803972974330902,18.0379250423,-3.20001362439,0.0
1521803973014936923,18.0448326154,-3.22899431157,0.0
1521803973015221118,18.047060595,-3.23849625671,0.0
1521803973055146932,18.0619378035,-3.30183178592,0.0
1521803973055394887,18.0665089884,-3.32134724158,0.0
1521803973093894958,18.0688059952,-3.33114280013,0.0
1521803973100306987,18.0710804319,-3.34086826212,0.0
1521803973142698049,18.0733790495,-3.35067059832,0.0
1521803973181830883,18.0813753974,-3.38482870746,0.0
1521803973181926012,18.0836770175,-3.39464369095,0.0
1521803973222129106,18.1042922222,-3.48269030724,0.0
1521803973223227024,18.1065941458,-3.49250630743,0.0
1521803973262171983,18.1088690866,-3.50223330787,0.0
1521803973302901029,18.1180264615,-3.5413322778,0.0
1521803973303095102,18.120327635,-3.55114493592,0.0
1521803973346169948,18.1317808741,-3.60004999934,0.0
1521803973354614019,18.1340825283,-3.60986515715,0.0
1521803973390827894,18.1405931922,-3.63793021702,0.0
1521803973430398941,18.142797126,-3.64740299055,0.0
1521803973430635929,18.1449920072,-3.65689228814,0.0
1521803973471061944,18.1533607304,-3.69480420091,0.0
1521803973481261014,18.1599065938,-3.72524402713,0.0
1521803973517791986,18.1617924813,-3.73422914195,0.0
1521803973558331012,18.1677286697,-3.76239118628,0.0
1521803973558572053,18.1696621769,-3.77165822479,0.0
1521803973597978115,18.1713991171,-3.78022091636,0.0
1521803973606920957,18.1748459159,-3.79727419672,0.0
1521803973646056890,18.1853081023,-3.85479185434,0.0
1521803973687283039,18.1863316152,-3.86114063626,0.0
1521803973725961923,18.1894159876,-3.88361405838,0.0
1521803973726124048,18.1900517205,-3.88836569668,0.0
1521803973766484022,18.1916756694,-3.90154354264,0.0
1521803973766808986,18.1931992155,-3.9139254699,0.0
1521803973806049108,18.1937368799,-3.91879408716,0.0
1521803973807358026,18.1969120714,-3.94520168977,0.0
1521803973845964908,18.198897309,-3.96226910203,0.0
1521803973887033939,18.1996368082,-3.96907001776,0.0
1521803973887506008,18.2025816924,-3.99400960258,0.0
1521803973926153898,18.2034504531,-4.00199924792,0.0
1521803973934969902,18.2067391296,-4.03032117566,0.0
1521803973974036931,18.2077305831,-4.03943879441,0.0
1521803974020960092,18.2132173459,-4.08879378792,0.0
1521803974021301031,18.2142880898,-4.09863713066,0.0
1521803974057986021,18.2197135153,-4.14843181333,0.0
1521803974058084964,18.2218789736,-4.16836778631,0.0
1521803974104517936,18.2229666397,-4.1783655534,0.0
1521803974109523057,18.2240438425,-4.18830629529,0.0
1521803974147603988,18.2299976959,-4.24316706777,0.0
1521803974187680006,18.231085489,-4.25316544576,0.0
1521803974188335895,18.2343245665,-4.28302564713,0.0
1521803974226075887,18.2386535659,-4.32289715155,0.0
1521803974230896949,18.2397410511,-4.33289212219,0.0
1521803974271092891,18.2429819316,-4.36275712867,0.0
1521803974309964895,18.2494766225,-4.42255741607,0.0
1521803974310085058,18.2505637445,-4.43254874042,0.0
1521803974350147008,18.2543227464,-4.46728310459,0.0
1521803974357703924,18.2554003053,-4.4772251733,0.0
1521803974394020080,18.2582992063,-4.50497759849,0.0
1521803974434329032,18.2592859584,-4.51435047866,0.0
1521803974474025964,18.2617822036,-4.53999583253,0.0
1521803974474140882,18.2634855269,-4.5579052778,0.0
1521803974514836072,18.2642760577,-4.56683701372,0.0
1521803974515990972,18.2686086327,-4.61519330544,0.0
1521803974554996967,18.2694536302,-4.62486140192,0.0
1521803974593980073,18.2718069056,-4.65266788635,0.0
1521803974594121932,18.2732325128,-4.67021077236,0.0
1521803974635050058,18.2739303035,-4.67912777922,0.0
1521803974650331020,18.2762279643,-4.71665136867,0.0
1521803974689790010,18.2766134135,-4.72414214532,0.0
1521803974729974031,18.2776948451,-4.74681380386,0.0
1521803974730103015,18.2791044298,-4.78016601937,0.0
1521803974770716905,18.2794124388,-4.78860725197,0.0
1521803974773847103,18.2806194824,-4.81756980601,0.0
1521803974813023090,18.2819121794,-4.85139374901,0.0
1521803974854585886,18.2821085395,-4.85646407465,0.0
1521803974854799985,18.2824688439,-4.86631235577,0.0
1521803974894098043,18.2843065914,-4.91615756779,0.0
1521803974894229888,18.2850383827,-4.93616661304,0.0
1521803974934993028,18.2857693556,-4.95618880045,0.0
1521803974938572883,18.286470085,-4.97589224086,0.0
1521803974977761030,18.2868320068,-4.98580315379,0.0
1521803975017811059,18.2881768313,-5.03027124291,0.0
1521803975017885923,18.2889043802,-5.06414217342,0.0
1521803975057966947,18.2891348819,-5.08186736119,0.0
1521803975065143108,18.2893177851,-5.1004469045,0.0
1521803975102757930,18.2895571917,-5.13916923858,0.0
1521803975141793012,18.2895962576,-5.14889175937,0.0
1521803975183722972,18.2896759309,-5.17760665983,0.0
1521803975184365987,18.2896953681,-5.18717824763,0.0
1521803975221981048,18.2894521155,-5.22438977756,0.0
1521803975222073078,18.2890052125,-5.25639388818,0.0
1521803975261997938,18.2887926694,-5.26445061309,0.0
1521803975265945911,18.288488151,-5.27739791382,0.0
1521803975307030916,18.2879826869,-5.29526082755,0.0
1521803975346689939,18.2869306184,-5.32686205181,0.0
1521803975346826076,18.2866103258,-5.33585026528,0.0
1521803975387589931,18.2855725209,-5.36043348513,0.0
1521803975389396905,18.2852304289,-5.36872128136,0.0
1521803975429013967,18.2830294283,-5.40749052166,0.0
1521803975467431068,18.2810933408,-5.43052090889,0.0
1521803975506212949,18.2805825575,-5.43618744379,0.0
1521803975506375074,18.2800590153,-5.44169623273,0.0
1521803975545928001,18.2777571542,-5.46599900435,0.0
1521803975546010017,18.2771138794,-5.47211361529,0.0
1521803975587260007,18.2764196297,-5.47965621935,0.0
1521803975594216108,18.2749794252,-5.49433459676,0.0
1521803975634826898,18.2699516059,-5.54517935736,0.0
1521803975673909902,18.2690156945,-5.55405124986,0.0
1521803975714863061,18.2660344856,-5.58353210057,0.0
1521803975715131044,18.2619590584,-5.62250313925,0.0
1521803975754466056,18.25987693,-5.64234250044,0.0
1521803975754695892,18.2588316068,-5.65225400797,0.0
1521803975794903039,18.2556826727,-5.68213895406,0.0
1521803975795120000,18.2546310598,-5.6921102882,0.0
1521803975834645986,18.251493275,-5.72158916107,0.0
1521803975876215934,18.2454999591,-5.77532809733,0.0
1521803975876331090,18.2444855557,-5.78395088449,0.0
1521803975914788961,18.2415490401,-5.80622564625,0.0
1521803975923537969,18.2404829429,-5.8139574276,0.0
1521803975962130069,18.2376930839,-5.83403763935,0.0
1521803976007251977,18.2327235523,-5.86714409787,0.0
1521803976007455110,18.2314321691,-5.87535010163,0.0
1521803976046266078,18.2276675135,-5.8981773438,0.0
1521803976052107095,18.2218791827,-5.93268519523,0.0
1521803976089895963,18.2204998853,-5.94041676911,0.0
1521803976131205081,18.2159557332,-5.96642089496,0.0
1521803976131804943,18.2093061918,-6.00353754396,0.0
1521803976170397043,18.20759507,-6.01286579044,0.0
1521803976175333023,18.2058092109,-6.02282862879,0.0
1521803976217226982,18.2022623674,-6.04229407202,0.0
1521803976255249023,18.1914799527,-6.10118986192,0.0
1521803976255346059,18.189673493,-6.11104178352,0.0
1521803976293975114,18.1842521543,-6.14059018502,0.0
1521803976296426057,18.1824420339,-6.1504623028,0.0
1521803976333879947,18.1770653333,-6.17962091111,0.0
1521803976374125003,18.1752783923,-6.18935752736,0.0
1521803976414318084,18.1703052973,-6.21542847568,0.0
1521803976414540052,18.1670618237,-6.23223541918,0.0
1521803976458277940,18.1653945035,-6.24072359602,0.0
1521803976458451032,18.1603072002,-6.26613787616,0.0
1521803976498749971,18.158538465,-6.27459410365,0.0
1521803976509049892,18.1488390605,-6.32120894358,0.0
1521803976546160936,18.1367108469,-6.37822360037,0.0
1521803976588131904,18.1347015993,-6.38762343491,0.0
1521803976588820934,18.1286210063,-6.41591253825,0.0
1521803976630131006,18.1265675621,-6.4253888755,0.0
1521803976630254983,18.1202777597,-6.45456817852,0.0
1521803976670289993,18.111845534,-6.49357289127,0.0
1521803976674400091,18.1097313996,-6.50334296569,0.0
1521803976718081951,18.1033781422,-6.53270291648,0.0
1521803976761879920,18.1012576218,-6.54250305395,0.0
1521803976761991977,18.094902845,-6.57185273571,0.0
1521803976801971912,18.0927815491,-6.58165671062,0.0
1521803976808047056,18.0791708573,-6.64431658056,0.0
1521803976845995903,18.0771182541,-6.65380425335,0.0
1521803976886703014,18.0701430661,-6.68581251011,0.0
1521803976886980056,18.0666408085,-6.7014725618,0.0
1521803976926013946,18.0648442561,-6.70977828334,0.0
1521803976931579113,18.060364025,-6.72973167293,0.0
1521803976970093011,18.0588375903,-6.73678857984,0.0
1521803977014080047,18.0576127431,-6.74209791935,0.0
1521803977014239072,18.0550957006,-6.75339203832,0.0
1521803977054908990,18.048691597,-6.78213721319,0.0
1521803977055191993,18.0477811487,-6.78634737163,0.0
1521803977094083070,18.0444481131,-6.80047336985,0.0
1521803977106062889,18.0439848968,-6.80233287123,0.0
1521803977145935058,18.0436172657,-6.80384228703,0.0
1521803977187767982,18.0435084561,-6.80434565545,0.0
1521803977188236951,18.0434731927,-6.80436427452,0.0
1521803977227071046,18.0435143803,-6.80419571453,0.0
1521803977227716922,18.0435492407,-6.80403446498,0.0
1521803977265983104,18.0435572958,-6.80403349082,0.0
1521803977307594060,18.0436093066,-6.80383607147,0.0
1521803977350748062,18.0437837553,-6.80316995548,0.0
1521803977350914955,18.0438316364,-6.80294839408,0.0
1521803977389776945,18.0438930019,-6.80275672844,0.0
1521803977389847993,18.0440064116,-6.80231998349,0.0
1521803977430079936,18.0440524377,-6.8021070106,0.0
1521803977430288076,18.0440569557,-6.80212834185,0.0
1521803977471349000,18.0441099155,-6.80192438117,0.0
1521803977511130094,18.0441547542,-6.80171690282,0.0
1521803977549952030,18.0442610236,-6.80134169448,0.0
1521803977550036907,18.0443040938,-6.80114239906,0.0
1521803977589766979,18.0444330632,-6.80065168785,0.0
1521803977589848041,18.0445704955,-6.80007815603,0.0
1521803977630094051,18.0446139229,-6.79987727609,0.0
1521803977638348102,18.0446509868,-6.79977370054,0.0
1521803977678863048,18.0446903155,-6.79959172573,0.0
1521803977719721078,18.0446661612,-6.79973443878,0.0
1521803977720133066,18.044728125,-6.79947732639,0.0
1521803977759550094,18.0447656492,-6.79930371576,0.0
1521803977770386934,18.0448967803,-6.79880485166,0.0
1521803977809914112,18.0449813882,-6.79846328751,0.0
1521803977810012102,18.0450228717,-6.79829527299,0.0
1521803977849982976,18.0450575792,-6.79813467375,0.0
1521803977855978965,18.0450596337,-6.79814841467,0.0
