%time;field.header.seq;field.header.stamp;field.header.frame_id;field.pose.pose.position.x;field.pose.pose.position.y;field.pose.pose.position.z;field.pose.pose.orientation.x;field.pose.pose.orientation.y;field.pose.pose.orientation.z;field.pose.pose.orientation.w;field.pose.covariance0;field.pose.covariance1;field.pose.covariance2;field.pose.covariance3;field.pose.covariance4;field.pose.covariance5;field.pose.covariance6;field.pose.covariance7;field.pose.covariance8;field.pose.covariance9;field.pose.covariance10;field.pose.covariance11;field.pose.covariance12;field.pose.covariance13;field.pose.covariance14;field.pose.covariance15;field.pose.covariance16;field.pose.covariance17;field.pose.covariance18;field.pose.covariance19;field.pose.covariance20;field.pose.covariance21;field.pose.covariance22;field.pose.covariance23;field.pose.covariance24;field.pose.covariance25;field.pose.covariance26;field.pose.covariance27;field.pose.covariance28;field.pose.covariance29;field.pose.covariance30;field.pose.covariance31;field.pose.covariance32;field.pose.covariance33;field.pose.covariance34;field.pose.covariance35
248955000000;31;248955000000;map;6.582938324;-0.0498628488809;0.0;0.0;0.0;-0.00135508535316;0.999999081871;0.847131549984;-0.0239944602048;0.00851070160467;0.0;0.0;0.0;0.0;0.0;0.0103920299648;0.0;0.0;0.0;0.0;0.0;0.0;0.0;0.0;0.0;0.0;0.0;0.0;0.0;0.0;0.0;0.0;0.0;0.0;0.0;0.0;0.0;0.0;0.0;0.0;0.0;0.0;0.0
249357000000;32;249357000000;map;6.80706280778;-0.0507973505469;0.0;0.0;0.0;-0.00123122355863;0.999999242044;0.540348025031;-0.0167060639552;0.00585883892143;0.0;0.0;0.0;0.0;0.0;0.00682897811653;0.0;0.0;0.0;0.0;0.0;0.0;0.0;0.0;0.0;0.0;0.0;0.0;0.0;0.0;0.0;0.0;0.0;0.0;0.0;0.0;0.0;0.0;0.0;0.0;0.0;0.0;0.0
249740000000;33;249740000000;map;7.01552117151;-0.0487104376926;0.0;0.0;0.0;-0.001104688281;0.999999389832;0.425022034909;-0.0179187263562;0.00674821993883;0.0;0.0;0.0;0.0;0.0;0.0081889494934;0.0;0.0;0.0;0.0;0.0;0.0;0.0;0.0;0.0;0.0;0.0;0.0;0.0;0.0;0.0;0.0;0.0;0.0;0.0;0.0;0.0;0.0;0.0;0.0;0.0;0.0;0.0
250159000000;34;250159000000;map;7.2373990595;-0.0483460522768;0.0;0.0;0.0;-0.000779717507407;0.99999969602;0.406749164763;-0.0135326726124;0.00560124441268;0.0;0.0;0.0;0.0;0.0;0.00650190674377;0.0;0.0;0.0;0.0;0.0;0.0;0.0;0.0;0.0;0.0;0.0;0.0;0.0;0.0;0.0;0.0;0.0;0.0;0.0;0.0;0.0;0.0;0.0;0.0;0.0;0.0;0.0
250573000000;35;250573000000;map;7.44321143616;-0.0485617619855;0.0;0.0;0.0;-0.00075805332388;0.999999712678;0.317242426082;-0.000544822035813;0.00164466914626;0.0;0.0;0.0;0.0;0.0;0.000610917348119;0.0;0.0;0.0;0.0;0.0;0.0;0.0;0.0;0.0;0.0;0.0;0.0;0.0;0.0;0.0;0.0;0.0;0.0;0.0;0.0;0.0;0.0;0.0;0.0;0.0;0.0;0.0
250964000000;36;250964000000;map;7.66179837777;-0.0500060105753;0.0;0.0;0.0;-0.00115076276248;0.999999337872;0.229214095851;0.00113619699549;0.00160776768994;0.0;0.0;0.0;0.0;0.0;0.000654724204926;0.0;0.0;0.0;0.0;0.0;0.0;0.0;0.0;0.0;0.0;0.0;0.0;0.0;0.0;0.0;0.0;0.0;0.0;0.0;0.0;0.0;0.0;0.0;0.0;0.0;0.0;0.0
251458000000;37;251458000000;map;7.87286694748;-0.0490129360404;0.0;0.0;0.0;-0.000102950955461;0.999999994701;0.269878116661;0.0022173502955;0.00171828001111;0.0;0.0;0.0;0.0;0.0;0.00060702606961;0.0;0.0;0.0;0.0;0.0;0.0;0.0;0.0;0.0;0.0;0.0;0.0;0.0;0.0;0.0;0.0;0.0;0.0;0.0;0.0;0.0;0.0;0.0;0.0;0.0;0.0;0.0
251866000000;38;251866000000;map;8.08014589971;-0.0483708072733;0.0;0.0;0.0;-0.000351900274681;0.999999938083;0.142342751312;0.00145944143442;0.00169213974646;0.0;0.0;0.0;0.0;0.0;0.000612928107148;0.0;0.0;0.0;0.0;0.0;0.0;0.0;0.0;0.0;0.0;0.0;0.0;0.0;0.0;0.0;0.0;0.0;0.0;0.0;0.0;0.0;0.0;0.0;0.0;0.0;0.0;0.0
252252000000;39;252252000000;map;8.28829936146;-0.0485037645261;0.0;0.0;0.0;-0.000583494617435;0.999999829767;0.126876615226;0.00135526096249;0.00172238842021;0.0;0.0;0.0;0.0;0.0;0.000614948043521;0.0;0.0;0.0;0.0;0.0;0.0;0.0;0.0;0.0;0.0;0.0;0.0;0.0;0.0;0.0;0.0;0.0;0.0;0.0;0.0;0.0;0.0;0.0;0.0;0.0;0.0;0.0
252556000000;40;252556000000;map;8.49409068235;-0.0488055291346;0.0;0.0;0.0;-6.3053089168e-05;0.999999998012;0.170680986222;0.00249219524463;0.00187095947521;0.0;0.0;0.0;0.0;0.0;0.000686815657601;0.0;0.0;0.0;0.0;0.0;0.0;0.0;0.0;0.0;0.0;0.0;0.0;0.0;0.0;0.0;0.0;0.0;0.0;0.0;0.0;0.0;0.0;0.0;0.0;0.0;0.0;0.0
252957000000;41;252957000000;map;8.700073293;-0.0487645114203;0.0;0.0;0.0;0.000222600068375;0.999999975225;0.218247885743;0.00259457783103;0.00183173822427;0.0;0.0;0.0;0.0;0.0;0.000575983868458;0.0;0.0;0.0;0.0;0.0;0.0;0.0;0.0;0.0;0.0;0.0;0.0;0.0;0.0;0.0;0.0;0.0;0.0;0.0;0.0;0.0;0.0;0.0;0.0;0.0;0.0;0.0
253351000000;42;253351000000;map;8.90466671952;-0.0500523357033;0.0;0.0;0.0;0.000836545808833;0.999999650095;0.0870840515944;0.000508873501236;0.0016455130623;0.0;0.0;0.0;0.0;0.0;0.000568293968427;0.0;0.0;0.0;0.0;0.0;0.0;0.0;0.0;0.0;0.0;0.0;0.0;0.0;0.0;0.0;0.0;0.0;0.0;0.0;0.0;0.0;0.0;0.0;0.0;0.0;0.0;0.0
253737000000;43;253737000000;map;9.10959114658;-0.0503316012005;0.0;0.0;0.0;0.00153442837441;0.999998822764;0.151130351114;0.00110018934063;0.00169137269972;0.0;0.0;0.0;0.0;0.0;0.000516400114699;0.0;0.0;0.0;0.0;0.0;0.0;0.0;0.0;0.0;0.0;0.0;0.0;0.0;0.0;0.0;0.0;0.0;0.0;0.0;0.0;0.0;0.0;0.0;0.0;0.0;0.0;0.0
254140000000;44;254140000000;map;9.31232721808;-0.0509859239104;0.0;0.0;0.0;0.000722337609525;0.999999739114;0.117348090334;0.000921620316846;0.00173182839579;0.0;0.0;0.0;0.0;0.0;0.000549930885625;0.0;0.0;0.0;0.0;0.0;0.0;0.0;0.0;0.0;0.0;0.0;0.0;0.0;0.0;0.0;0.0;0.0;0.0;0.0;0.0;0.0;0.0;0.0;0.0;0.0;0.0;0.0
254644000000;45;254644000000;map;9.52172387533;-0.0532568630508;0.0;0.0;0.0;0.000675645472079;0.999999771752;0.179730487579;0.00151333036032;0.00170863137773;0.0;0.0;0.0;0.0;0.0;0.000461681452799;0.0;0.0;0.0;0.0;0.0;0.0;0.0;0.0;0.0;0.0;0.0;0.0;0.0;0.0;0.0;0.0;0.0;0.0;0.0;0.0;0.0;0.0;0.0;0.0;0.0;0.0;0.0
255038000000;46;255038000000;map;9.72746398966;-0.0542335927632;0.0;0.0;0.0;-0.000380757306538;0.999999927512;0.101603320246;0.000717419965336;0.00155597768508;0.0;0.0;0.0;0.0;0.0;0.000455409928884;0.0;0.0;0.0;0.0;0.0;0.0;0.0;0.0;0.0;0.0;0.0;0.0;0.0;0.0;0.0;0.0;0.0;0.0;0.0;0.0;0.0;0.0;0.0;0.0;0.0;0.0;0.0
255435000000;47;255435000000;map;9.94533562025;-0.0570253472907;0.0;0.0;0.0;-0.000132678131678;0.999999991198;0.00419779499509;-0.000227123304367;0.00162383313386;0.0;0.0;0.0;0.0;0.0;0.000499928346802;0.0;0.0;0.0;0.0;0.0;0.0;0.0;0.0;0.0;0.0;0.0;0.0;0.0;0.0;0.0;0.0;0.0;0.0;0.0;0.0;0.0;0.0;0.0;0.0;0.0;0.0;0.0
255840000000;48;255840000000;map;10.1499700587;-0.0574737564227;0.0;0.0;0.0;-0.000143808562687;0.99999998966;0.00408426411119;-0.000224348197794;0.00169486818468;0.0;0.0;0.0;0.0;0.0;0.000515733687201;0.0;0.0;0.0;0.0;0.0;0.0;0.0;0.0;0.0;0.0;0.0;0.0;0.0;0.0;0.0;0.0;0.0;0.0;0.0;0.0;0.0;0.0;0.0;0.0;0.0;0.0;0.0
256228000000;49;256228000000;map;10.3565754268;-0.0579968142283;0.0;0.0;0.0;0.00019206859305;0.999999981555;0.00400096054899;-0.000275634312151;0.00166010135817;0.0;0.0;0.0;0.0;0.0;0.000644198195837;0.0;0.0;0.0;0.0;0.0;0.0;0.0;0.0;0.0;0.0;0.0;0.0;0.0;0.0;0.0;0.0;0.0;0.0;0.0;0.0;0.0;0.0;0.0;0.0;0.0;0.0;0.0
256629000000;50;256629000000;map;10.5580800645;-0.0563846521911;0.0;0.0;0.0;-0.000149485061615;0.999999988827;0.00389502788791;-0.000349560398834;0.00164947802075;0.0;0.0;0.0;0.0;0.0;0.000599066380611;0.0;0.0;0.0;0.0;0.0;0.0;0.0;0.0;0.0;0.0;0.0;0.0;0.0;0.0;0.0;0.0;0.0;0.0;0.0;0.0;0.0;0.0;0.0;0.0;0.0;0.0;0.0
257035000000;51;257035000000;map;10.7607878162;-0.0531683501026;0.0;0.0;0.0;-0.000391772945211;0.999999923257;0.00451086595122;-0.000166260670488;0.00168241311112;0.0;0.0;0.0;0.0;0.0;0.000540678816305;0.0;0.0;0.0;0.0;0.0;0.0;0.0;0.0;0.0;0.0;0.0;0.0;0.0;0.0;0.0;0.0;0.0;0.0;0.0;0.0;0.0;0.0;0.0;0.0;0.0;0.0;0.0
257428000000;52;257428000000;map;10.961332381;-0.0537615150001;0.0;0.0;0.0;-0.000315950369649;0.999999950088;0.00457693881407;-0.000151850524627;0.00173921498332;0.0;0.0;0.0;0.0;0.0;0.000613757716096;0.0;0.0;0.0;0.0;0.0;0.0;0.0;0.0;0.0;0.0;0.0;0.0;0.0;0.0;0.0;0.0;0.0;0.0;0.0;0.0;0.0;0.0;0.0;0.0;0.0;0.0;0.0
257836000000;53;257836000000;map;11.1682338897;-0.0544626790926;0.0;0.0;0.0;-0.000367323231275;0.999999932537;0.00496476858841;-1.42096026464e-05;0.00185420239693;0.0;0.0;0.0;0.0;0.0;0.000579594337449;0.0;0.0;0.0;0.0;0.0;0.0;0.0;0.0;0.0;0.0;0.0;0.0;0.0;0.0;0.0;0.0;0.0;0.0;0.0;0.0;0.0;0.0;0.0;0.0;0.0;0.0;0.0
258233000000;54;258233000000;map;11.3688511825;-0.0561940689425;0.0;0.0;0.0;0.000704575454708;0.999999751787;0.00538091721242;-0.000101955905921;0.00188258970382;0.0;0.0;0.0;0.0;0.0;0.000655785436492;0.0;0.0;0.0;0.0;0.0;0.0;0.0;0.0;0.0;0.0;0.0;0.0;0.0;0.0;0.0;0.0;0.0;0.0;0.0;0.0;0.0;0.0;0.0;0.0;0.0;0.0;0.0
258629000000;55;258629000000;map;11.5745505939;-0.0534265354799;0.0;0.0;0.0;0.000914926750875;0.999999581454;0.00591092038499;2.54490787071e-05;0.00185743399902;0.0;0.0;0.0;0.0;0.0;0.000636431200642;0.0;0.0;0.0;0.0;0.0;0.0;0.0;0.0;0.0;0.0;0.0;0.0;0.0;0.0;0.0;0.0;0.0;0.0;0.0;0.0;0.0;0.0;0.0;0.0;0.0;0.0;0.0
259033000000;56;259033000000;map;11.7782687331;-0.0559006897951;0.0;0.0;0.0;0.000829577945828;0.9999996559;0.00611729495083;0.000273339511967;0.00171114825454;0.0;0.0;0.0;0.0;0.0;0.000714989077223;0.0;0.0;0.0;0.0;0.0;0.0;0.0;0.0;0.0;0.0;0.0;0.0;0.0;0.0;0.0;0.0;0.0;0.0;0.0;0.0;0.0;0.0;0.0;0.0;0.0;0.0;0.0
259535000000;57;259535000000;map;11.9893904775;-0.0556251517064;0.0;0.0;0.0;0.00177996331004;0.999998415864;0.00492758869038;0.000365833189874;0.00168724917491;0.0;0.0;0.0;0.0;0.0;0.000632521183581;0.0;0.0;0.0;0.0;0.0;0.0;0.0;0.0;0.0;0.0;0.0;0.0;0.0;0.0;0.0;0.0;0.0;0.0;0.0;0.0;0.0;0.0;0.0;0.0;0.0;0.0;0.0
259937000000;58;259937000000;map;12.200173983;-0.0536099348164;0.0;0.0;0.0;0.0027139134395;0.99999631733;0.00595814875325;0.000406810974692;0.00166338611363;0.0;0.0;0.0;0.0;0.0;0.000686230369022;0.0;0.0;0.0;0.0;0.0;0.0;0.0;0.0;0.0;0.0;0.0;0.0;0.0;0.0;0.0;0.0;0.0;0.0;0.0;0.0;0.0;0.0;0.0;0.0;0.0;0.0;0.0
260331000000;59;260331000000;map;12.4008307163;-0.0519192872737;0.0;0.0;0.0;0.00255648138885;0.999996732196;0.00625517971881;0.000443424226932;0.00179696186142;0.0;0.0;0.0;0.0;0.0;0.000638149731433;0.0;0.0;0.0;0.0;0.0;0.0;0.0;0.0;0.0;0.0;0.0;0.0;0.0;0.0;0.0;0.0;0.0;0.0;0.0;0.0;0.0;0.0;0.0;0.0;0.0;0.0;0.0
260732614841;60;260732614841;map;12.6098220476;-0.0542686461484;0.0;0.0;0.0;0.00288846098985;0.999995828388;0.0065737747756;0.00049094256772;0.00175942777228;0.0;0.0;0.0;0.0;0.0;0.000659789962291;0.0;0.0;0.0;0.0;0.0;0.0;0.0;0.0;0.0;0.0;0.0;0.0;0.0;0.0;0.0;0.0;0.0;0.0;0.0;0.0;0.0;0.0;0.0;0.0;0.0;0.0;0.0
261139000000;61;261139000000;map;12.8217682005;-0.0574086578624;0.0;0.0;0.0;0.00201232876819;0.999997975264;0.00619211039944;0.000586420347767;0.00170410373324;0.0;0.0;0.0;0.0;0.0;0.000597115621922;0.0;0.0;0.0;0.0;0.0;0.0;0.0;0.0;0.0;0.0;0.0;0.0;0.0;0.0;0.0;0.0;0.0;0.0;0.0;0.0;0.0;0.0;0.0;0.0;0.0;0.0;0.0
261533000000;62;261533000000;map;13.0363018715;-0.0571916642017;0.0;0.0;0.0;0.00237514689526;0.999997179335;0.0056866546476;0.000369591389149;0.00168302865375;0.0;0.0;0.0;0.0;0.0;0.000636349853661;0.0;0.0;0.0;0.0;0.0;0.0;0.0;0.0;0.0;0.0;0.0;0.0;0.0;0.0;0.0;0.0;0.0;0.0;0.0;0.0;0.0;0.0;0.0;0.0;0.0;0.0;0.0
261943000000;63;261943000000;map;13.2465366301;-0.0551093604959;0.0;0.0;0.0;0.0028423675256;0.999995960465;0.00474543745133;0.000413132091039;0.00177931101044;0.0;0.0;0.0;0.0;0.0;0.000704619095386;0.0;0.0;0.0;0.0;0.0;0.0;0.0;0.0;0.0;0.0;0.0;0.0;0.0;0.0;0.0;0.0;0.0;0.0;0.0;0.0;0.0;0.0;0.0;0.0;0.0;0.0;0.0
262337000000;64;262337000000;map;13.4510530916;-0.0541921655759;0.0;0.0;0.0;0.00291838900644;0.999995741494;0.004322650332;0.000375462258813;0.00175590735716;0.0;0.0;0.0;0.0;0.0;0.000689889283863;0.0;0.0;0.0;0.0;0.0;0.0;0.0;0.0;0.0;0.0;0.0;0.0;0.0;0.0;0.0;0.0;0.0;0.0;0.0;0.0;0.0;0.0;0.0;0.0;0.0;0.0;0.0
262737000000;65;262737000000;map;13.6569928935;-0.0513332525954;0.0;0.0;0.0;0.00255644878642;0.999996732279;0.00359761868393;0.000110125678321;0.00184266442769;0.0;0.0;0.0;0.0;0.0;0.000688528793976;0.0;0.0;0.0;0.0;0.0;0.0;0.0;0.0;0.0;0.0;0.0;0.0;0.0;0.0;0.0;0.0;0.0;0.0;0.0;0.0;0.0;0.0;0.0;0.0;0.0;0.0;0.0
263226000000;66;263226000000;map;13.8723737048;-0.0496556701863;0.0;0.0;0.0;0.00216085063789;0.99999766536;0.0033342920789;7.09120208507e-05;0.00185310676701;0.0;0.0;0.0;0.0;0.0;0.000652001384508;0.0;0.0;0.0;0.0;0.0;0.0;0.0;0.0;0.0;0.0;0.0;0.0;0.0;0.0;0.0;0.0;0.0;0.0;0.0;0.0;0.0;0.0;0.0;0.0;0.0;0.0;0.0
263627000000;67;263627000000;map;14.0847613555;-0.0503869651707;0.0;0.0;0.0;0.00239375800045;0.999997134957;0.00341039923867;-0.000122896864201;0.00166488002944;0.0;0.0;0.0;0.0;0.0;0.000674699122291;0.0;0.0;0.0;0.0;0.0;0.0;0.0;0.0;0.0;0.0;0.0;0.0;0.0;0.0;0.0;0.0;0.0;0.0;0.0;0.0;0.0;0.0;0.0;0.0;0.0;0.0;0.0
264055000000;68;264055000000;map;14.2964309783;-0.0529813771385;0.0;0.0;0.0;0.00257937416474;0.999996673409;0.00395532981116;-6.73031525716e-05;0.00162641051993;0.0;0.0;0.0;0.0;0.0;0.000685091576743;0.0;0.0;0.0;0.0;0.0;0.0;0.0;0.0;0.0;0.0;0.0;0.0;0.0;0.0;0.0;0.0;0.0;0.0;0.0;0.0;0.0;0.0;0.0;0.0;0.0;0.0;0.0
264449000000;69;264449000000;map;14.5006475582;-0.0502144843482;0.0;0.0;0.0;0.00318982374473;0.999994912499;0.00384568496636;-0.000139374691372;0.00149647586001;0.0;0.0;0.0;0.0;0.0;0.000714115648941;0.0;0.0;0.0;0.0;0.0;0.0;0.0;0.0;0.0;0.0;0.0;0.0;0.0;0.0;0.0;0.0;0.0;0.0;0.0;0.0;0.0;0.0;0.0;0.0;0.0;0.0;0.0
264858000000;70;264858000000;map;14.7033717114;-0.0497295904221;0.0;0.0;0.0;0.00343231106644;0.999994109603;0.00357206982252;-0.000175337460711;0.00152360964994;0.0;0.0;0.0;0.0;0.0;0.000681651193108;0.0;0.0;0.0;0.0;0.0;0.0;0.0;0.0;0.0;0.0;0.0;0.0;0.0;0.0;0.0;0.0;0.0;0.0;0.0;0.0;0.0;0.0;0.0;0.0;0.0;0.0;0.0
265248000000;71;265248000000;map;14.9052282287;-0.0478433810073;0.0;0.0;0.0;0.00435836313965;0.99999050229;0.00374717543576;-0.000242375732167;0.00161532234009;0.0;0.0;0.0;0.0;0.0;0.000591330456519;0.0;0.0;0.0;0.0;0.0;0.0;0.0;0.0;0.0;0.0;0.0;0.0;0.0;0.0;0.0;0.0;0.0;0.0;0.0;0.0;0.0;0.0;0.0;0.0;0.0;0.0;0.0
265661000000;72;265661000000;map;15.1115555315;-0.0517272949246;0.0;0.0;0.0;0.00294394269344;0.999995666591;0.00385226045788;-0.000339817279691;0.00173280371735;0.0;0.0;0.0;0.0;0.0;0.000591889272242;0.0;0.0;0.0;0.0;0.0;0.0;0.0;0.0;0.0;0.0;0.0;0.0;0.0;0.0;0.0;0.0;0.0;0.0;0.0;0.0;0.0;0.0;0.0;0.0;0.0;0.0;0.0
266052000000;73;266052000000;map;15.321987392;-0.0502356654392;0.0;0.0;0.0;0.00249043400673;0.999996898864;0.00393995692212;-0.000387228626333;0.00159598026171;0.0;0.0;0.0;0.0;0.0;0.000603332082133;0.0;0.0;0.0;0.0;0.0;0.0;0.0;0.0;0.0;0.0;0.0;0.0;0.0;0.0;0.0;0.0;0.0;0.0;0.0;0.0;0.0;0.0;0.0;0.0;0.0;0.0;0.0
266453000000;74;266453000000;map;15.530603413;-0.0475864475721;0.0;0.0;0.0;0.00282457994408;0.999996010866;0.00372880950158;-0.000263835497809;0.00164510256447;0.0;0.0;0.0;0.0;0.0;0.000616318226406;0.0;0.0;0.0;0.0;0.0;0.0;0.0;0.0;0.0;0.0;0.0;0.0;0.0;0.0;0.0;0.0;0.0;0.0;0.0;0.0;0.0;0.0;0.0;0.0;0.0;0.0;0.0
266856000000;75;266856000000;map;15.7292824901;-0.0465710782181;0.0;0.0;0.0;0.00272540090333;0.999996286088;0.00396228480685;-0.000209475097101;0.00186051026362;0.0;0.0;0.0;0.0;0.0;0.00060686866382;0.0;0.0;0.0;0.0;0.0;0.0;0.0;0.0;0.0;0.0;0.0;0.0;0.0;0.0;0.0;0.0;0.0;0.0;0.0;0.0;0.0;0.0;0.0;0.0;0.0;0.0;0.0
267253000000;76;267253000000;map;15.9401501662;-0.0464129185334;0.0;0.0;0.0;0.00193860722965;0.999998120899;0.00345170022223;-9.67038340826e-05;0.00216629656378;0.0;0.0;0.0;0.0;0.0;0.000684864193571;0.0;0.0;0.0;0.0;0.0;0.0;0.0;0.0;0.0;0.0;0.0;0.0;0.0;0.0;0.0;0.0;0.0;0.0;0.0;0.0;0.0;0.0;0.0;0.0;0.0;0.0;0.0
267657000000;77;267657000000;map;16.1441089508;-0.0471102006814;0.0;0.0;0.0;0.00221003950761;0.99999755786;0.00296002826872;-0.000178991437161;0.00230493466242;0.0;0.0;0.0;0.0;0.0;0.000648684387115;0.0;0.0;0.0;0.0;0.0;0.0;0.0;0.0;0.0;0.0;0.0;0.0;0.0;0.0;0.0;0.0;0.0;0.0;0.0;0.0;0.0;0.0;0.0;0.0;0.0;0.0;0.0
268055000000;78;268055000000;map;16.3382521963;-0.0468851478053;0.0;0.0;0.0;0.0026377461982;0.999996521141;0.00279368757276;-0.000507692020793;0.00257236756775;0.0;0.0;0.0;0.0;0.0;0.000617092125721;0.0;0.0;0.0;0.0;0.0;0.0;0.0;0.0;0.0;0.0;0.0;0.0;0.0;0.0;0.0;0.0;0.0;0.0;0.0;0.0;0.0;0.0;0.0;0.0;0.0;0.0;0.0
268446000000;79;268446000000;map;16.5427881264;-0.046616148746;0.0;0.0;0.0;0.00284633638286;0.999995949176;0.00275597354755;-0.000333870306298;0.0026596223957;0.0;0.0;0.0;0.0;0.0;0.000600343410692;0.0;0.0;0.0;0.0;0.0;0.0;0.0;0.0;0.0;0.0;0.0;0.0;0.0;0.0;0.0;0.0;0.0;0.0;0.0;0.0;0.0;0.0;0.0;0.0;0.0;0.0;0.0
268856000000;80;268856000000;map;16.7485142507;-0.0406880291389;0.0;0.0;0.0;0.00395625699496;0.999992173985;0.00237018854705;-0.000540323608194;0.00266545428715;0.0;0.0;0.0;0.0;0.0;0.000500372480022;0.0;0.0;0.0;0.0;0.0;0.0;0.0;0.0;0.0;0.0;0.0;0.0;0.0;0.0;0.0;0.0;0.0;0.0;0.0;0.0;0.0;0.0;0.0;0.0;0.0;0.0;0.0
269245000000;81;269245000000;map;16.9523820347;-0.03881449973;0.0;0.0;0.0;0.00419940752048;0.999991182449;0.00244347206399;-0.000623513010426;0.00259455867448;0.0;0.0;0.0;0.0;0.0;0.000544267475131;0.0;0.0;0.0;0.0;0.0;0.0;0.0;0.0;0.0;0.0;0.0;0.0;0.0;0.0;0.0;0.0;0.0;0.0;0.0;0.0;0.0;0.0;0.0;0.0;0.0;0.0;0.0
269754000000;82;269754000000;map;17.1659932745;-0.041085678492;0.0;0.0;0.0;0.00334787974556;0.999994395835;0.0021835197378;-0.000545700750422;0.00253589857059;0.0;0.0;0.0;0.0;0.0;0.000527985001112;0.0;0.0;0.0;0.0;0.0;0.0;0.0;0.0;0.0;0.0;0.0;0.0;0.0;0.0;0.0;0.0;0.0;0.0;0.0;0.0;0.0;0.0;0.0;0.0;0.0;0.0;0.0
270145000000;83;270145000000;map;17.366738286;-0.0465696828233;0.0;0.0;0.0;0.0016872902271;0.999998576525;0.00234648774881;-0.000710806690235;0.00299477688241;0.0;0.0;0.0;0.0;0.0;0.000630487110276;0.0;0.0;0.0;0.0;0.0;0.0;0.0;0.0;0.0;0.0;0.0;0.0;0.0;0.0;0.0;0.0;0.0;0.0;0.0;0.0;0.0;0.0;0.0;0.0;0.0;0.0;0.0
270548000000;84;270548000000;map;17.5677122607;-0.043078516217;0.0;0.0;0.0;0.00193849530316;0.999998121116;0.00230990305209;-0.000818218523232;0.00290587483702;0.0;0.0;0.0;0.0;0.0;0.000684812524061;0.0;0.0;0.0;0.0;0.0;0.0;0.0;0.0;0.0;0.0;0.0;0.0;0.0;0.0;0.0;0.0;0.0;0.0;0.0;0.0;0.0;0.0;0.0;0.0;0.0;0.0;0.0
270855196396;85;270855196396;map;17.7770687016;-0.0473882146337;0.0;0.0;0.0;0.00156770119074;0.999998771156;0.00200154519803;-0.000641133276792;0.00255691119252;0.0;0.0;0.0;0.0;0.0;0.000636316956019;0.0;0.0;0.0;0.0;0.0;0.0;0.0;0.0;0.0;0.0;0.0;0.0;0.0;0.0;0.0;0.0;0.0;0.0;0.0;0.0;0.0;0.0;0.0;0.0;0.0;0.0;0.0
271346000000;86;271346000000;map;17.9788448419;-0.0471243246786;0.0;0.0;0.0;0.00124386340611;0.999999226402;0.00200147383009;-0.000609026156807;0.00277201876969;0.0;0.0;0.0;0.0;0.0;0.000646745330657;0.0;0.0;0.0;0.0;0.0;0.0;0.0;0.0;0.0;0.0;0.0;0.0;0.0;0.0;0.0;0.0;0.0;0.0;0.0;0.0;0.0;0.0;0.0;0.0;0.0;0.0;0.0
271756000000;87;271756000000;map;18.1833069725;-0.0473962049036;0.0;0.0;0.0;0.00122031762667;0.999999255412;0.00161917694004;-0.000609109228275;0.00287475936312;0.0;0.0;0.0;0.0;0.0;0.000704475590842;0.0;0.0;0.0;0.0;0.0;0.0;0.0;0.0;0.0;0.0;0.0;0.0;0.0;0.0;0.0;0.0;0.0;0.0;0.0;0.0;0.0;0.0;0.0;0.0;0.0;0.0;0.0
272147000000;88;272147000000;map;18.3895149992;-0.0518130254377;0.0;0.0;0.0;0.000536503337772;0.999999856082;0.0017449851718;-0.000466203132254;0.00291237040866;0.0;0.0;0.0;0.0;0.0;0.000656073544534;0.0;0.0;0.0;0.0;0.0;0.0;0.0;0.0;0.0;0.0;0.0;0.0;0.0;0.0;0.0;0.0;0.0;0.0;0.0;0.0;0.0;0.0;0.0;0.0;0.0;0.0;0.0
272542000000;89;272542000000;map;18.591589068;-0.0523356492386;0.0;0.0;0.0;0.000604829029808;0.999999817091;0.00166851003974;-0.000230190895491;0.00293479838644;0.0;0.0;0.0;0.0;0.0;0.000576450004508;0.0;0.0;0.0;0.0;0.0;0.0;0.0;0.0;0.0;0.0;0.0;0.0;0.0;0.0;0.0;0.0;0.0;0.0;0.0;0.0;0.0;0.0;0.0;0.0;0.0;0.0;0.0
272952000000;90;272952000000;map;18.7903184972;-0.0515765872896;0.0;0.0;0.0;0.00111854460549;0.999999374429;0.00182794497243;-0.000220694333604;0.00291032128054;0.0;0.0;0.0;0.0;0.0;0.000621952829177;0.0;0.0;0.0;0.0;0.0;0.0;0.0;0.0;0.0;0.0;0.0;0.0;0.0;0.0;0.0;0.0;0.0;0.0;0.0;0.0;0.0;0.0;0.0;0.0;0.0;0.0;0.0
273343000000;91;273343000000;map;18.990980653;-0.0509749105835;0.0;0.0;0.0;0.0010788579665;0.999999418033;0.00195684409113;-0.000197591591411;0.00249832172481;0.0;0.0;0.0;0.0;0.0;0.000670429662034;0.0;0.0;0.0;0.0;0.0;0.0;0.0;0.0;0.0;0.0;0.0;0.0;0.0;0.0;0.0;0.0;0.0;0.0;0.0;0.0;0.0;0.0;0.0;0.0;0.0;0.0;0.0
273759000000;92;273759000000;map;19.1966094745;-0.0525790844327;0.0;0.0;0.0;0.00136690074141;0.999999065791;0.00181785176898;-0.000142024009653;0.00258977582216;0.0;0.0;0.0;0.0;0.0;0.000661262538129;0.0;0.0;0.0;0.0;0.0;0.0;0.0;0.0;0.0;0.0;0.0;0.0;0.0;0.0;0.0;0.0;0.0;0.0;0.0;0.0;0.0;0.0;0.0;0.0;0.0;0.0;0.0
274144000000;93;274144000000;map;19.4053629475;-0.0495534946211;0.0;0.0;0.0;0.00191966533396;0.999998157441;0.00189233835675;-3.33519402694e-05;0.00241044816854;0.0;0.0;0.0;0.0;0.0;0.000589637295694;0.0;0.0;0.0;0.0;0.0;0.0;0.0;0.0;0.0;0.0;0.0;0.0;0.0;0.0;0.0;0.0;0.0;0.0;0.0;0.0;0.0;0.0;0.0;0.0;0.0;0.0;0.0
274554000000;94;274554000000;map;19.6111156251;-0.0530860524407;0.0;0.0;0.0;0.000681037648108;0.999999768094;0.00222453219533;-0.000188106592667;0.0019200136849;0.0;0.0;0.0;0.0;0.0;0.000645884228404;0.0;0.0;0.0;0.0;0.0;0.0;0.0;0.0;0.0;0.0;0.0;0.0;0.0;0.0;0.0;0.0;0.0;0.0;0.0;0.0;0.0;0.0;0.0;0.0;0.0;0.0;0.0
274942000000;95;274942000000;map;19.814388271;-0.0543064910031;0.0;0.0;0.0;0.000923951843647;0.999999573156;0.00236701632946;-0.000189361838753;0.00171598587117;0.0;0.0;0.0;0.0;0.0;0.000732618845346;0.0;0.0;0.0;0.0;0.0;0.0;0.0;0.0;0.0;0.0;0.0;0.0;0.0;0.0;0.0;0.0;0.0;0.0;0.0;0.0;0.0;0.0;0.0;0.0;0.0;0.0;0.0
275446000000;96;275446000000;map;20.0212702416;-0.0539826912629;0.0;0.0;0.0;2.23360848675e-05;0.999999999751;0.00243641076491;-3.08657993437e-05;0.00182483495003;0.0;0.0;0.0;0.0;0.0;0.000712879514792;0.0;0.0;0.0;0.0;0.0;0.0;0.0;0.0;0.0;0.0;0.0;0.0;0.0;0.0;0.0;0.0;0.0;0.0;0.0;0.0;0.0;0.0;0.0;0.0;0.0;0.0;0.0
275851000000;97;275851000000;map;20.2309990427;-0.0601736983296;0.0;0.0;0.0;-0.00137955497855;0.999999048414;0.00222420112823;-6.17699012726e-05;0.001950403465;0.0;0.0;0.0;0.0;0.0;0.000707098578227;0.0;0.0;0.0;0.0;0.0;0.0;0.0;0.0;0.0;0.0;0.0;0.0;0.0;0.0;0.0;0.0;0.0;0.0;0.0;0.0;0.0;0.0;0.0;0.0;0.0;0.0;0.0
276247000000;98;276247000000;map;20.4327420873;-0.0638730306582;0.0;0.0;0.0;-0.000615541174967;0.999999810555;0.00269289651254;5.136260732e-05;0.0017377452094;0.0;0.0;0.0;0.0;0.0;0.000604968344649;0.0;0.0;0.0;0.0;0.0;0.0;0.0;0.0;0.0;0.0;0.0;0.0;0.0;0.0;0.0;0.0;0.0;0.0;0.0;0.0;0.0;0.0;0.0;0.0;0.0;0.0;0.0
276647000000;99;276647000000;map;20.6353472237;-0.0604388071015;0.0;0.0;0.0;-0.000643482740853;0.999999792965;0.00309684172976;-0.000148731279436;0.00129547439616;0.0;0.0;0.0;0.0;0.0;0.000653093153919;0.0;0.0;0.0;0.0;0.0;0.0;0.0;0.0;0.0;0.0;0.0;0.0;0.0;0.0;0.0;0.0;0.0;0.0;0.0;0.0;0.0;0.0;0.0;0.0;0.0;0.0;0.0
277047000000;100;277047000000;map;20.837027168;-0.0614126324429;0.0;0.0;0.0;-0.00123665069627;0.999999235347;0.00284303327692;-1.52711778032e-05;0.00123783157004;0.0;0.0;0.0;0.0;0.0;0.000607541049185;0.0;0.0;0.0;0.0;0.0;0.0;0.0;0.0;0.0;0.0;0.0;0.0;0.0;0.0;0.0;0.0;0.0;0.0;0.0;0.0;0.0;0.0;0.0;0.0;0.0;0.0;0.0
277447000000;101;277447000000;map;21.0423470229;-0.0625847278861;0.0;0.0;0.0;-0.0012402976876;0.999999230831;0.00294563024647;4.26212472808e-05;0.00130883281107;0.0;0.0;0.0;0.0;0.0;0.00059046239507;0.0;0.0;0.0;0.0;0.0;0.0;0.0;0.0;0.0;0.0;0.0;0.0;0.0;0.0;0.0;0.0;0.0;0.0;0.0;0.0;0.0;0.0;0.0;0.0;0.0;0.0;0.0
277850000000;102;277850000000;map;21.2565840273;-0.0724431391661;0.0;0.0;0.0;-0.00143138895914;0.999998975562;0.00233628310644;-0.000221932134378;0.00130411095707;0.0;0.0;0.0;0.0;0.0;0.000545345473822;0.0;0.0;0.0;0.0;0.0;0.0;0.0;0.0;0.0;0.0;0.0;0.0;0.0;0.0;0.0;0.0;0.0;0.0;0.0;0.0;0.0;0.0;0.0;0.0;0.0;0.0;0.0
278238000000;103;278238000000;map;21.457785701;-0.072500405591;0.0;0.0;0.0;-0.00225628167486;0.999997454593;0.00240713720899;-0.000235563132675;0.00130204743027;0.0;0.0;0.0;0.0;0.0;0.000539495336043;0.0;0.0;0.0;0.0;0.0;0.0;0.0;0.0;0.0;0.0;0.0;0.0;0.0;0.0;0.0;0.0;0.0;0.0;0.0;0.0;0.0;0.0;0.0;0.0;0.0;0.0;0.0
278644000000;104;278644000000;map;21.6515747163;-0.0741472663098;0.0;0.0;0.0;-0.00271965952048;0.999996301719;0.00219336346152;-0.000154533627083;0.00134189065278;0.0;0.0;0.0;0.0;0.0;0.000730043378256;0.0;0.0;0.0;0.0;0.0;0.0;0.0;0.0;0.0;0.0;0.0;0.0;0.0;0.0;0.0;0.0;0.0;0.0;0.0;0.0;0.0;0.0;0.0;0.0;0.0;0.0;0.0
279039000000;105;279039000000;map;21.8535825785;-0.0735473374121;0.0;0.0;0.0;-0.000847978484506;0.999999640466;0.00252307968674;-8.95218111461e-05;0.00129123152509;0.0;0.0;0.0;0.0;0.0;0.000776432632931;0.0;0.0;0.0;0.0;0.0;0.0;0.0;0.0;0.0;0.0;0.0;0.0;0.0;0.0;0.0;0.0;0.0;0.0;0.0;0.0;0.0;0.0;0.0;0.0;0.0;0.0;0.0
279438000000;106;279438000000;map;22.0580325224;-0.0743069727405;0.0;0.0;0.0;-0.000897315494721;0.999999597412;0.00281997490453;-0.000127543151941;0.00144552259889;0.0;0.0;0.0;0.0;0.0;0.000922073682139;0.0;0.0;0.0;0.0;0.0;0.0;0.0;0.0;0.0;0.0;0.0;0.0;0.0;0.0;0.0;0.0;0.0;0.0;0.0;0.0;0.0;0.0;0.0;0.0;0.0;0.0;0.0
279848000000;107;279848000000;map;22.2643486178;-0.073742149862;0.0;0.0;0.0;-0.000841854509773;0.99999964564;0.00280992411007;3.13517911534e-05;0.00147538381351;0.0;0.0;0.0;0.0;0.0;0.000825792433911;0.0;0.0;0.0;0.0;0.0;0.0;0.0;0.0;0.0;0.0;0.0;0.0;0.0;0.0;0.0;0.0;0.0;0.0;0.0;0.0;0.0;0.0;0.0;0.0;0.0;0.0;0.0
280244000000;108;280244000000;map;22.4610914155;-0.0727677785424;0.0;0.0;0.0;0.000535261652863;0.999999856747;0.00283042504446;1.72827971179e-05;0.00115699510606;0.0;0.0;0.0;0.0;0.0;0.000577255215705;0.0;0.0;0.0;0.0;0.0;0.0;0.0;0.0;0.0;0.0;0.0;0.0;0.0;0.0;0.0;0.0;0.0;0.0;0.0;0.0;0.0;0.0;0.0;0.0;0.0;0.0;0.0
280750000000;109;280750000000;map;22.6787097221;-0.0689908837114;0.0;0.0;0.0;0.00113433064815;0.999999356647;0.00291883227908;0.000112119871684;0.00131465631403;0.0;0.0;0.0;0.0;0.0;0.0004915128283;0.0;0.0;0.0;0.0;0.0;0.0;0.0;0.0;0.0;0.0;0.0;0.0;0.0;0.0;0.0;0.0;0.0;0.0;0.0;0.0;0.0;0.0;0.0;0.0;0.0;0.0;0.0
281142000000;110;281142000000;map;22.8793280304;-0.0697755553104;0.0;0.0;0.0;0.000675894867895;0.999999771583;0.00285258540805;0.000118019294935;0.00119712384972;0.0;0.0;0.0;0.0;0.0;0.000511822235236;0.0;0.0;0.0;0.0;0.0;0.0;0.0;0.0;0.0;0.0;0.0;0.0;0.0;0.0;0.0;0.0;0.0;0.0;0.0;0.0;0.0;0.0;0.0;0.0;0.0;0.0;0.0
281541000000;111;281541000000;map;23.0789343453;-0.0694893698178;0.0;0.0;0.0;-0.000249149467885;0.999999968962;0.00277841271429;0.000264123838056;0.00108254117292;0.0;0.0;0.0;0.0;0.0;0.000561897217556;0.0;0.0;0.0;0.0;0.0;0.0;0.0;0.0;0.0;0.0;0.0;0.0;0.0;0.0;0.0;0.0;0.0;0.0;0.0;0.0;0.0;0.0;0.0;0.0;0.0;0.0;0.0
281944000000;112;281944000000;map;23.2869697812;-0.0695571020835;0.0;0.0;0.0;-0.000936992310728;0.999999561023;0.00258415824987;0.000325345279892;0.00123766232419;0.0;0.0;0.0;0.0;0.0;0.000632031924396;0.0;0.0;0.0;0.0;0.0;0.0;0.0;0.0;0.0;0.0;0.0;0.0;0.0;0.0;0.0;0.0;0.0;0.0;0.0;0.0;0.0;0.0;0.0;0.0;0.0;0.0;0.0
282336000000;113;282336000000;map;23.4916670525;-0.0740318858949;0.0;0.0;0.0;-0.00201212277088;0.999997975679;0.00266516329862;0.000357655612934;0.00144395920435;0.0;0.0;0.0;0.0;0.0;0.000483417238965;0.0;0.0;0.0;0.0;0.0;0.0;0.0;0.0;0.0;0.0;0.0;0.0;0.0;0.0;0.0;0.0;0.0;0.0;0.0;0.0;0.0;0.0;0.0;0.0;0.0;0.0;0.0
282738000000;114;282738000000;map;23.6965006539;-0.0710914127886;0.0;0.0;0.0;-0.00138238679617;0.999999044503;0.00275406980086;0.000255634792764;0.00136567040882;0.0;0.0;0.0;0.0;0.0;0.000479620427503;0.0;0.0;0.0;0.0;0.0;0.0;0.0;0.0;0.0;0.0;0.0;0.0;0.0;0.0;0.0;0.0;0.0;0.0;0.0;0.0;0.0;0.0;0.0;0.0;0.0;0.0;0.0
283142000000;115;283142000000;map;23.8968769272;-0.0687938763148;0.0;0.0;0.0;-0.00126548436273;0.999999199274;0.00267782201593;0.000365958999513;0.00131984960437;0.0;0.0;0.0;0.0;0.0;0.000569193537883;0.0;0.0;0.0;0.0;0.0;0.0;0.0;0.0;0.0;0.0;0.0;0.0;0.0;0.0;0.0;0.0;0.0;0.0;0.0;0.0;0.0;0.0;0.0;0.0;0.0;0.0;0.0
283537000000;116;283537000000;map;24.0975527869;-0.0664523828548;0.0;0.0;0.0;0.00032882106209;0.999999945938;0.00274239431064;0.000402479596973;0.00135647486677;0.0;0.0;0.0;0.0;0.0;0.00050104211348;0.0;0.0;0.0;0.0;0.0;0.0;0.0;0.0;0.0;0.0;0.0;0.0;0.0;0.0;0.0;0.0;0.0;0.0;0.0;0.0;0.0;0.0;0.0;0.0;0.0;0.0;0.0
283949000000;117;283949000000;map;24.2923284479;-0.0630839939664;0.0;0.0;0.0;0.000897682360749;0.999999597083;0.00296183216506;0.000340713439339;0.0010971182706;0.0;0.0;0.0;0.0;0.0;0.000375699490011;0.0;0.0;0.0;0.0;0.0;0.0;0.0;0.0;0.0;0.0;0.0;0.0;0.0;0.0;0.0;0.0;0.0;0.0;0.0;0.0;0.0;0.0;0.0;0.0;0.0;0.0;0.0
284343000000;118;284343000000;map;24.5014322545;-0.0609829423728;0.0;0.0;0.0;-7.81682682664e-05;0.999999996945;0.00311209661709;0.000281870107161;0.00102229731842;0.0;0.0;0.0;0.0;0.0;0.000447683517753;0.0;0.0;0.0;0.0;0.0;0.0;0.0;0.0;0.0;0.0;0.0;0.0;0.0;0.0;0.0;0.0;0.0;0.0;0.0;0.0;0.0;0.0;0.0;0.0;0.0;0.0;0.0
284750000000;119;284750000000;map;24.7061807788;-0.0584976782028;0.0;0.0;0.0;0.000155427410793;0.999999987921;0.00267762600311;0.000264159962839;0.00100449204865;0.0;0.0;0.0;0.0;0.0;0.000478872859256;0.0;0.0;0.0;0.0;0.0;0.0;0.0;0.0;0.0;0.0;0.0;0.0;0.0;0.0;0.0;0.0;0.0;0.0;0.0;0.0;0.0;0.0;0.0;0.0;0.0;0.0;0.0
285146000000;120;285146000000;map;24.9036899192;-0.0599410243208;0.0;0.0;0.0;-0.000280748005377;0.99999996059;0.00233360419361;0.000408401764601;0.00101585035867;0.0;0.0;0.0;0.0;0.0;0.000434971452574;0.0;0.0;0.0;0.0;0.0;0.0;0.0;0.0;0.0;0.0;0.0;0.0;0.0;0.0;0.0;0.0;0.0;0.0;0.0;0.0;0.0;0.0;0.0;0.0;0.0;0.0;0.0
285547000000;121;285547000000;map;25.1053373204;-0.061590293049;0.0;0.0;0.0;-6.76462609463e-05;0.999999997712;0.00237647440099;0.000352191860155;0.00105088933019;0.0;0.0;0.0;0.0;0.0;0.000484961046151;0.0;0.0;0.0;0.0;0.0;0.0;0.0;0.0;0.0;0.0;0.0;0.0;0.0;0.0;0.0;0.0;0.0;0.0;0.0;0.0;0.0;0.0;0.0;0.0;0.0;0.0;0.0
285944000000;122;285944000000;map;25.3130047354;-0.0631010167842;0.0;0.0;0.0;-0.00160741486272;0.999998708108;0.00207519778724;0.00039913898308;0.00113557161447;0.0;0.0;0.0;0.0;0.0;0.000491998024967;0.0;0.0;0.0;0.0;0.0;0.0;0.0;0.0;0.0;0.0;0.0;0.0;0.0;0.0;0.0;0.0;0.0;0.0;0.0;0.0;0.0;0.0;0.0;0.0;0.0;0.0;0.0
286347000000;123;286347000000;map;25.5238109205;-0.0642068405061;0.0;0.0;0.0;-0.00243304756472;0.999997040135;0.00234024564054;0.000420045850642;0.00116527844509;0.0;0.0;0.0;0.0;0.0;0.000602190831314;0.0;0.0;0.0;0.0;0.0;0.0;0.0;0.0;0.0;0.0;0.0;0.0;0.0;0.0;0.0;0.0;0.0;0.0;0.0;0.0;0.0;0.0;0.0;0.0;0.0;0.0;0.0
286756000000;124;286756000000;map;25.7286105035;-0.0641302754751;0.0;0.0;0.0;-0.00158723457614;0.999998740342;0.00250261202041;0.000429340876649;0.00127963437005;0.0;0.0;0.0;0.0;0.0;0.00053929173637;0.0;0.0;0.0;0.0;0.0;0.0;0.0;0.0;0.0;0.0;0.0;0.0;0.0;0.0;0.0;0.0;0.0;0.0;0.0;0.0;0.0;0.0;0.0;0.0;0.0;0.0;0.0
287149000000;125;287149000000;map;25.9308129137;-0.0658635891536;0.0;0.0;0.0;-0.00198576132609;0.999998028374;0.002524224274;0.000381838184451;0.001328531803;0.0;0.0;0.0;0.0;0.0;0.000468378373048;0.0;0.0;0.0;0.0;0.0;0.0;0.0;0.0;0.0;0.0;0.0;0.0;0.0;0.0;0.0;0.0;0.0;0.0;0.0;0.0;0.0;0.0;0.0;0.0;0.0;0.0;0.0
287546610649;126;287546610649;map;26.134259603;-0.0636868807973;0.0;0.0;0.0;-0.000246986290232;0.999999969499;0.002723659087;0.000480975055591;0.00121594703143;0.0;0.0;0.0;0.0;0.0;0.000457329822481;0.0;0.0;0.0;0.0;0.0;0.0;0.0;0.0;0.0;0.0;0.0;0.0;0.0;0.0;0.0;0.0;0.0;0.0;0.0;0.0;0.0;0.0;0.0;0.0;0.0;0.0;0.0
288043000000;127;288043000000;map;26.3341327161;-0.0668270424028;0.0;0.0;0.0;0.000749334435339;0.999999719249;0.00307521552566;0.000565053580851;0.00125211202843;0.0;0.0;0.0;0.0;0.0;0.000396329059867;0.0;0.0;0.0;0.0;0.0;0.0;0.0;0.0;0.0;0.0;0.0;0.0;0.0;0.0;0.0;0.0;0.0;0.0;0.0;0.0;0.0;0.0;0.0;0.0;0.0;0.0;0.0
288443000000;128;288443000000;map;26.5312938677;-0.064217421443;0.0;0.0;0.0;0.000432438158435;0.999999906499;0.00316489424847;0.000607681291408;0.00109901195755;0.0;0.0;0.0;0.0;0.0;0.000467065142401;0.0;0.0;0.0;0.0;0.0;0.0;0.0;0.0;0.0;0.0;0.0;0.0;0.0;0.0;0.0;0.0;0.0;0.0;0.0;0.0;0.0;0.0;0.0;0.0;0.0;0.0;0.0
288849000000;129;288849000000;map;26.7434337773;-0.0681434101195;0.0;0.0;0.0;-0.00249450871917;0.999996888708;0.00309108867259;0.000528395613801;0.00103521560566;0.0;0.0;0.0;0.0;0.0;0.000454861115498;0.0;0.0;0.0;0.0;0.0;0.0;0.0;0.0;0.0;0.0;0.0;0.0;0.0;0.0;0.0;0.0;0.0;0.0;0.0;0.0;0.0;0.0;0.0;0.0;0.0;0.0;0.0
289243000000;130;289243000000;map;26.944550149;-0.06794954726;0.0;0.0;0.0;-0.00226927877774;0.999997425184;0.00342066400503;0.000602498556479;0.0010039585595;0.0;0.0;0.0;0.0;0.0;0.000488328297539;0.0;0.0;0.0;0.0;0.0;0.0;0.0;0.0;0.0;0.0;0.0;0.0;0.0;0.0;0.0;0.0;0.0;0.0;0.0;0.0;0.0;0.0;0.0;0.0;0.0;0.0;0.0
289653000000;131;289653000000;map;27.1500984657;-0.0640265505684;0.0;0.0;0.0;-0.00124088226221;0.999999230105;0.00357624563014;0.000540488547427;0.000793024953974;0.0;0.0;0.0;0.0;0.0;0.000473215844232;0.0;0.0;0.0;0.0;0.0;0.0;0.0;0.0;0.0;0.0;0.0;0.0;0.0;0.0;0.0;0.0;0.0;0.0;0.0;0.0;0.0;0.0;0.0;0.0;0.0;0.0;0.0
290045000000;132;290045000000;map;27.3720896576;-0.060457865118;0.0;0.0;0.0;-0.00267016606085;0.9999964351;0.0033097196158;0.00053908099482;0.000716157886383;0.0;0.0;0.0;0.0;0.0;0.000519878677462;0.0;0.0;0.0;0.0;0.0;0.0;0.0;0.0;0.0;0.0;0.0;0.0;0.0;0.0;0.0;0.0;0.0;0.0;0.0;0.0;0.0;0.0;0.0;0.0;0.0;0.0;0.0
290443000000;133;290443000000;map;27.5765176048;-0.0587368373263;0.0;0.0;0.0;-0.00270272621756;0.999996347629;0.00301830865067;0.000556465264868;0.000751932590089;0.0;0.0;0.0;0.0;0.0;0.000539358055504;0.0;0.0;0.0;0.0;0.0;0.0;0.0;0.0;0.0;0.0;0.0;0.0;0.0;0.0;0.0;0.0;0.0;0.0;0.0;0.0;0.0;0.0;0.0;0.0;0.0;0.0;0.0
290852000000;134;290852000000;map;27.7863922769;-0.0580855462277;0.0;0.0;0.0;-0.00277697456298;0.999996144199;0.00291521305587;0.000510080609828;0.000969415091538;0.0;0.0;0.0;0.0;0.0;0.000619730320107;0.0;0.0;0.0;0.0;0.0;0.0;0.0;0.0;0.0;0.0;0.0;0.0;0.0;0.0;0.0;0.0;0.0;0.0;0.0;0.0;0.0;0.0;0.0;0.0;0.0;0.0;0.0
291351378446;135;291351378446;map;27.9932662375;-0.0606189185053;0.0;0.0;0.0;-0.00223721346737;0.999997497435;0.00277997958199;0.000532811097576;0.0011128652849;0.0;0.0;0.0;0.0;0.0;0.000565578483999;0.0;0.0;0.0;0.0;0.0;0.0;0.0;0.0;0.0;0.0;0.0;0.0;0.0;0.0;0.0;0.0;0.0;0.0;0.0;0.0;0.0;0.0;0.0;0.0;0.0;0.0;0.0
291753000000;136;291753000000;map;28.1934234423;-0.0598184421074;0.0;0.0;0.0;-0.00284744904421;0.999995946009;0.00264345009123;0.000369347541131;0.00118738196183;0.0;0.0;0.0;0.0;0.0;0.000574501115236;0.0;0.0;0.0;0.0;0.0;0.0;0.0;0.0;0.0;0.0;0.0;0.0;0.0;0.0;0.0;0.0;0.0;0.0;0.0;0.0;0.0;0.0;0.0;0.0;0.0;0.0;0.0
292152000000;137;292152000000;map;28.3959529439;-0.0611418864794;0.0;0.0;0.0;-0.00236258860563;0.999997209084;0.00295299169136;0.000443020217452;0.00114114555283;0.0;0.0;0.0;0.0;0.0;0.000463350351375;0.0;0.0;0.0;0.0;0.0;0.0;0.0;0.0;0.0;0.0;0.0;0.0;0.0;0.0;0.0;0.0;0.0;0.0;0.0;0.0;0.0;0.0;0.0;0.0;0.0;0.0;0.0
292551000000;138;292551000000;map;28.5976020126;-0.0638941066794;0.0;0.0;0.0;-0.00240302769531;0.999997112725;0.00303338397282;0.000531377918014;0.00141785617781;0.0;0.0;0.0;0.0;0.0;0.000524188563765;0.0;0.0;0.0;0.0;0.0;0.0;0.0;0.0;0.0;0.0;0.0;0.0;0.0;0.0;0.0;0.0;0.0;0.0;0.0;0.0;0.0;0.0;0.0;0.0;0.0;0.0;0.0
292953000000;139;292953000000;map;28.7950731314;-0.0658397329943;0.0;0.0;0.0;-0.00188060914995;0.999998231653;0.00295573080302;0.000564515126587;0.00121719771089;0.0;0.0;0.0;0.0;0.0;0.000495548965793;0.0;0.0;0.0;0.0;0.0;0.0;0.0;0.0;0.0;0.0;0.0;0.0;0.0;0.0;0.0;0.0;0.0;0.0;0.0;0.0;0.0;0.0;0.0;0.0;0.0;0.0;0.0
293353000000;140;293353000000;map;29.003819396;-0.0692475584829;0.0;0.0;0.0;-0.00234698987361;0.999997245815;0.00306805985417;0.000465955374021;0.0011989191888;0.0;0.0;0.0;0.0;0.0;0.000505568597717;0.0;0.0;0.0;0.0;0.0;0.0;0.0;0.0;0.0;0.0;0.0;0.0;0.0;0.0;0.0;0.0;0.0;0.0;0.0;0.0;0.0;0.0;0.0;0.0;0.0;0.0;0.0
293759000000;141;293759000000;map;29.2055091829;-0.0685327831763;0.0;0.0;0.0;-0.00142707784864;0.999998981724;0.00351538123209;0.000190806736273;0.000906604376614;0.0;0.0;0.0;0.0;0.0;0.000423975028723;0.0;0.0;0.0;0.0;0.0;0.0;0.0;0.0;0.0;0.0;0.0;0.0;0.0;0.0;0.0;0.0;0.0;0.0;0.0;0.0;0.0;0.0;0.0;0.0;0.0;0.0;0.0
294145000000;142;294145000000;map;29.4140989273;-0.0739718806485;0.0;0.0;0.0;-0.000894086768609;0.999999600304;0.00389205474721;-5.05518791258e-05;0.000910301199529;0.0;0.0;0.0;0.0;0.0;0.000393358236637;0.0;0.0;0.0;0.0;0.0;0.0;0.0;0.0;0.0;0.0;0.0;0.0;0.0;0.0;0.0;0.0;0.0;0.0;0.0;0.0;0.0;0.0;0.0;0.0;0.0;0.0;0.0
294545000000;143;294545000000;map;29.6248033053;-0.0728848144874;0.0;0.0;0.0;-0.00052405389376;0.999999862684;0.00399709528267;0.000138999812305;0.00106146344974;0.0;0.0;0.0;0.0;0.0;0.00045133719365;0.0;0.0;0.0;0.0;0.0;0.0;0.0;0.0;0.0;0.0;0.0;0.0;0.0;0.0;0.0;0.0;0.0;0.0;0.0;0.0;0.0;0.0;0.0;0.0;0.0;0.0;0.0
294947000000;144;294947000000;map;29.8263369277;-0.0718676270724;0.0;0.0;0.0;-0.000837991020331;0.999999648885;0.00378285272802;-5.47569613252e-06;0.000991586555143;0.0;0.0;0.0;0.0;0.0;0.000539611463997;0.0;0.0;0.0;0.0;0.0;0.0;0.0;0.0;0.0;0.0;0.0;0.0;0.0;0.0;0.0;0.0;0.0;0.0;0.0;0.0;0.0;0.0;0.0;0.0;0.0;0.0;0.0
295346000000;145;295346000000;map;30.0348346723;-0.0743996778247;0.0;0.0;0.0;-0.00224550764573;0.999997478845;0.00402498701374;0.000228472937122;0.00130907806088;0.0;0.0;0.0;0.0;0.0;0.000544499946022;0.0;0.0;0.0;0.0;0.0;0.0;0.0;0.0;0.0;0.0;0.0;0.0;0.0;0.0;0.0;0.0;0.0;0.0;0.0;0.0;0.0;0.0;0.0;0.0;0.0;0.0;0.0
295754000000;146;295754000000;map;30.2273822783;-0.0711385263185;0.0;0.0;0.0;-0.00302185824465;0.999995434176;0.0047974641808;0.000290875337112;0.00101236571061;0.0;0.0;0.0;0.0;0.0;0.000491926254364;0.0;0.0;0.0;0.0;0.0;0.0;0.0;0.0;0.0;0.0;0.0;0.0;0.0;0.0;0.0;0.0;0.0;0.0;0.0;0.0;0.0;0.0;0.0;0.0;0.0;0.0;0.0
296247000000;147;296247000000;map;30.426611885;-0.073494325772;0.0;0.0;0.0;-0.00259116733606;0.99999664292;0.00525691012058;0.000288786785314;0.00109382577216;0.0;0.0;0.0;0.0;0.0;0.000582049658443;0.0;0.0;0.0;0.0;0.0;0.0;0.0;0.0;0.0;0.0;0.0;0.0;0.0;0.0;0.0;0.0;0.0;0.0;0.0;0.0;0.0;0.0;0.0;0.0;0.0;0.0;0.0
296648000000;148;296648000000;map;30.6351608162;-0.0692501708476;0.0;0.0;0.0;-0.00205369357702;0.999997891169;0.0052613693457;0.000309177637888;0.00108427822217;0.0;0.0;0.0;0.0;0.0;0.000555389407054;0.0;0.0;0.0;0.0;0.0;0.0;0.0;0.0;0.0;0.0;0.0;0.0;0.0;0.0;0.0;0.0;0.0;0.0;0.0;0.0;0.0;0.0;0.0;0.0;0.0;0.0;0.0
297049000000;149;297049000000;map;30.8409213032;-0.067846978806;0.0;0.0;0.0;-0.00236196417679;0.999997210559;0.00496471167423;0.000443679074479;0.00112089775508;0.0;0.0;0.0;0.0;0.0;0.000577481305208;0.0;0.0;0.0;0.0;0.0;0.0;0.0;0.0;0.0;0.0;0.0;0.0;0.0;0.0;0.0;0.0;0.0;0.0;0.0;0.0;0.0;0.0;0.0;0.0;0.0;0.0;0.0
297452000000;150;297452000000;map;31.0395281545;-0.0703855735631;0.0;0.0;0.0;-0.00299026585434;0.999995529145;0.00472994577865;0.000669308140726;0.00128485437007;0.0;0.0;0.0;0.0;0.0;0.000613489148278;0.0;0.0;0.0;0.0;0.0;0.0;0.0;0.0;0.0;0.0;0.0;0.0;0.0;0.0;0.0;0.0;0.0;0.0;0.0;0.0;0.0;0.0;0.0;0.0;0.0;0.0;0.0
297860000000;151;297860000000;map;31.2310409322;-0.0751216555986;0.0;0.0;0.0;-0.00220278530405;0.999997573866;0.00467137336796;0.000578573074183;0.0010411760106;0.0;0.0;0.0;0.0;0.0;0.000467013120524;0.0;0.0;0.0;0.0;0.0;0.0;0.0;0.0;0.0;0.0;0.0;0.0;0.0;0.0;0.0;0.0;0.0;0.0;0.0;0.0;0.0;0.0;0.0;0.0;0.0;0.0;0.0
298244000000;152;298244000000;map;31.441226684;-0.0742592018804;0.0;0.0;0.0;-0.000491265567006;0.999999879329;0.00477951168386;0.000446597531469;0.00128379565127;0.0;0.0;0.0;0.0;0.0;0.000511440797402;0.0;0.0;0.0;0.0;0.0;0.0;0.0;0.0;0.0;0.0;0.0;0.0;0.0;0.0;0.0;0.0;0.0;0.0;0.0;0.0;0.0;0.0;0.0;0.0;0.0;0.0;0.0
298651000000;153;298651000000;map;31.6350305307;-0.0731072300777;0.0;0.0;0.0;0.000109249998062;0.999999994032;0.00461519418809;0.000538552049948;0.00109494642601;0.0;0.0;0.0;0.0;0.0;0.0003878096906;0.0;0.0;0.0;0.0;0.0;0.0;0.0;0.0;0.0;0.0;0.0;0.0;0.0;0.0;0.0;0.0;0.0;0.0;0.0;0.0;0.0;0.0;0.0;0.0;0.0;0.0;0.0
299048000000;154;299048000000;map;31.8395633319;-0.0713098363562;0.0;0.0;0.0;-0.000863529736149;0.999999627158;0.00517451046858;0.000537947956153;0.00109031267351;0.0;0.0;0.0;0.0;0.0;0.000398908536019;0.0;0.0;0.0;0.0;0.0;0.0;0.0;0.0;0.0;0.0;0.0;0.0;0.0;0.0;0.0;0.0;0.0;0.0;0.0;0.0;0.0;0.0;0.0;0.0;0.0;0.0;0.0
299450000000;155;299450000000;map;32.0464631856;-0.0733997922118;0.0;0.0;0.0;-0.00079810645766;0.999999681513;0.00515845618838;0.000551608090292;0.000986827953535;0.0;0.0;0.0;0.0;0.0;0.00047665431546;0.0;0.0;0.0;0.0;0.0;0.0;0.0;0.0;0.0;0.0;0.0;0.0;0.0;0.0;0.0;0.0;0.0;0.0;0.0;0.0;0.0;0.0;0.0;0.0;0.0;0.0;0.0
299853000000;156;299853000000;map;32.2447848547;-0.0774968655665;0.0;0.0;0.0;-0.00123913734911;0.999999232269;0.00548993518828;0.000790656018698;0.000944107814307;0.0;0.0;0.0;0.0;0.0;0.000444562672628;0.0;0.0;0.0;0.0;0.0;0.0;0.0;0.0;0.0;0.0;0.0;0.0;0.0;0.0;0.0;0.0;0.0;0.0;0.0;0.0;0.0;0.0;0.0;0.0;0.0;0.0;0.0
300250000000;157;300250000000;map;32.4530811895;-0.0771663670795;0.0;0.0;0.0;-0.00123672228981;0.999999235259;0.00541919691977;0.000791003121821;0.00121970343293;0.0;0.0;0.0;0.0;0.0;0.000497725304195;0.0;0.0;0.0;0.0;0.0;0.0;0.0;0.0;0.0;0.0;0.0;0.0;0.0;0.0;0.0;0.0;0.0;0.0;0.0;0.0;0.0;0.0;0.0;0.0;0.0;0.0;0.0
300656000000;158;300656000000;map;32.6485876028;-0.0807510760102;0.0;0.0;0.0;-0.00139759201443;0.999999023368;0.00572226054169;0.00108286108123;0.00135785272549;0.0;0.0;0.0;0.0;0.0;0.000462745420819;0.0;0.0;0.0;0.0;0.0;0.0;0.0;0.0;0.0;0.0;0.0;0.0;0.0;0.0;0.0;0.0;0.0;0.0;0.0;0.0;0.0;0.0;0.0;0.0;0.0;0.0;0.0
301052000000;159;301052000000;map;32.8514249321;-0.0828354897221;0.0;0.0;0.0;-0.000339135267507;0.999999942494;0.00577144553267;0.000925958555963;0.00148420807558;0.0;0.0;0.0;0.0;0.0;0.000542911857265;0.0;0.0;0.0;0.0;0.0;0.0;0.0;0.0;0.0;0.0;0.0;0.0;0.0;0.0;0.0;0.0;0.0;0.0;0.0;0.0;0.0;0.0;0.0;0.0;0.0;0.0;0.0
301453000000;160;301453000000;map;33.0542629827;-0.0835524234885;0.0;0.0;0.0;-0.001138856019;0.999999351503;0.00629422591328;0.000994120089769;0.00128653615514;0.0;0.0;0.0;0.0;0.0;0.000493306462464;0.0;0.0;0.0;0.0;0.0;0.0;0.0;0.0;0.0;0.0;0.0;0.0;0.0;0.0;0.0;0.0;0.0;0.0;0.0;0.0;0.0;0.0;0.0;0.0;0.0;0.0;0.0
301950000000;161;301950000000;map;33.2642980647;-0.0842073160084;0.0;0.0;0.0;-0.000774954224385;0.999999699723;0.00624548532051;0.00103427412941;0.00131989253471;0.0;0.0;0.0;0.0;0.0;0.000509509148772;0.0;0.0;0.0;0.0;0.0;0.0;0.0;0.0;0.0;0.0;0.0;0.0;0.0;0.0;0.0;0.0;0.0;0.0;0.0;0.0;0.0;0.0;0.0;0.0;0.0;0.0;0.0
302352649671;162;302352649671;map;33.4677701745;-0.0844306101811;0.0;0.0;0.0;-0.00176570281081;0.999998441146;0.00591376252032;0.000895430458506;0.00160106554842;0.0;0.0;0.0;0.0;0.0;0.000535874617404;0.0;0.0;0.0;0.0;0.0;0.0;0.0;0.0;0.0;0.0;0.0;0.0;0.0;0.0;0.0;0.0;0.0;0.0;0.0;0.0;0.0;0.0;0.0;0.0;0.0;0.0;0.0
302755000000;163;302755000000;map;33.6638393624;-0.0913395077624;0.0;0.0;0.0;-0.00292882926606;0.99999571097;0.00632268557183;0.00115525971191;0.0013470759787;0.0;0.0;0.0;0.0;0.0;0.000441972170851;0.0;0.0;0.0;0.0;0.0;0.0;0.0;0.0;0.0;0.0;0.0;0.0;0.0;0.0;0.0;0.0;0.0;0.0;0.0;0.0;0.0;0.0;0.0;0.0;0.0;0.0;0.0
303047000000;164;303047000000;map;33.8785387321;-0.0893876560924;0.0;0.0;0.0;-0.000882922268335;0.999999610224;0.00637957485833;0.00113574883722;0.00132728853541;0.0;0.0;0.0;0.0;0.0;0.000378366519978;0.0;0.0;0.0;0.0;0.0;0.0;0.0;0.0;0.0;0.0;0.0;0.0;0.0;0.0;0.0;0.0;0.0;0.0;0.0;0.0;0.0;0.0;0.0;0.0;0.0;0.0;0.0
303552000000;165;303552000000;map;34.0787008779;-0.0888375464854;0.0;0.0;0.0;-0.000757497189336;0.999999713099;0.00579923776127;0.00110204093503;0.00142658532849;0.0;0.0;0.0;0.0;0.0;0.000430735907283;0.0;0.0;0.0;0.0;0.0;0.0;0.0;0.0;0.0;0.0;0.0;0.0;0.0;0.0;0.0;0.0;0.0;0.0;0.0;0.0;0.0;0.0;0.0;0.0;0.0;0.0;0.0
303955000000;166;303955000000;map;34.2973176235;-0.0853417258514;0.0;0.0;0.0;-3.82061420062e-05;0.99999999927;0.0058379535817;0.000738037320458;0.00129049882251;0.0;0.0;0.0;0.0;0.0;0.000442004070682;0.0;0.0;0.0;0.0;0.0;0.0;0.0;0.0;0.0;0.0;0.0;0.0;0.0;0.0;0.0;0.0;0.0;0.0;0.0;0.0;0.0;0.0;0.0;0.0;0.0;0.0;0.0
304346000000;167;304346000000;map;34.4921794887;-0.0865372771838;0.0;0.0;0.0;0.0012491307181;0.999999219836;0.00613704502598;0.0010596054143;0.00147861829438;0.0;0.0;0.0;0.0;0.0;0.000410436233712;0.0;0.0;0.0;0.0;0.0;0.0;0.0;0.0;0.0;0.0;0.0;0.0;0.0;0.0;0.0;0.0;0.0;0.0;0.0;0.0;0.0;0.0;0.0;0.0;0.0;0.0;0.0
304753000000;168;304753000000;map;34.7006813757;-0.0897903842426;0.0;0.0;0.0;-0.000369548588592;0.999999931717;0.00620832951449;0.00107831273451;0.00169281192992;0.0;0.0;0.0;0.0;0.0;0.000434912449302;0.0;0.0;0.0;0.0;0.0;0.0;0.0;0.0;0.0;0.0;0.0;0.0;0.0;0.0;0.0;0.0;0.0;0.0;0.0;0.0;0.0;0.0;0.0;0.0;0.0;0.0;0.0
305146000000;169;305146000000;map;34.9034281861;-0.0906966859959;0.0;0.0;0.0;-0.00197198766349;0.99999805563;0.00741069410128;0.00149409409888;0.00177953277434;0.0;0.0;0.0;0.0;0.0;0.00042025394791;0.0;0.0;0.0;0.0;0.0;0.0;0.0;0.0;0.0;0.0;0.0;0.0;0.0;0.0;0.0;0.0;0.0;0.0;0.0;0.0;0.0;0.0;0.0;0.0;0.0;0.0;0.0
305554000000;170;305554000000;map;35.1218163042;-0.0890041789408;0.0;0.0;0.0;-0.000966583741431;0.999999532858;0.00691015627308;0.00134950495972;0.00189097880998;0.0;0.0;0.0;0.0;0.0;0.000432471480424;0.0;0.0;0.0;0.0;0.0;0.0;0.0;0.0;0.0;0.0;0.0;0.0;0.0;0.0;0.0;0.0;0.0;0.0;0.0;0.0;0.0;0.0;0.0;0.0;0.0;0.0;0.0
305951000000;171;305951000000;map;35.3362133485;-0.0802027884667;0.0;0.0;0.0;0.00154150400115;0.999998811882;0.00603113893658;0.00142138161366;0.00195641454247;0.0;0.0;0.0;0.0;0.0;0.000500358917986;0.0;0.0;0.0;0.0;0.0;0.0;0.0;0.0;0.0;0.0;0.0;0.0;0.0;0.0;0.0;0.0;0.0;0.0;0.0;0.0;0.0;0.0;0.0;0.0;0.0;0.0;0.0
306449000000;172;306449000000;map;35.5480439087;-0.0766634918656;0.0;0.0;0.0;0.000815219631138;0.999999667708;0.00564246903355;0.00136685936817;0.00192952137558;0.0;0.0;0.0;0.0;0.0;0.000503737043252;0.0;0.0;0.0;0.0;0.0;0.0;0.0;0.0;0.0;0.0;0.0;0.0;0.0;0.0;0.0;0.0;0.0;0.0;0.0;0.0;0.0;0.0;0.0;0.0;0.0;0.0;0.0
306851000000;173;306851000000;map;35.7505431954;-0.0712191422341;0.0;0.0;0.0;0.00123203213778;0.999999241048;0.00590207027858;0.00182050187019;0.00164013266731;0.0;0.0;0.0;0.0;0.0;0.000442880568894;0.0;0.0;0.0;0.0;0.0;0.0;0.0;0.0;0.0;0.0;0.0;0.0;0.0;0.0;0.0;0.0;0.0;0.0;0.0;0.0;0.0;0.0;0.0;0.0;0.0;0.0;0.0
307252000000;174;307252000000;map;35.9604510435;-0.0689809461789;0.0;0.0;0.0;0.000419287809917;0.999999912099;0.00540936915286;0.0014771786805;0.00158159686327;0.0;0.0;0.0;0.0;0.0;0.000456074805117;0.0;0.0;0.0;0.0;0.0;0.0;0.0;0.0;0.0;0.0;0.0;0.0;0.0;0.0;0.0;0.0;0.0;0.0;0.0;0.0;0.0;0.0;0.0;0.0;0.0;0.0;0.0
307655000000;175;307655000000;map;36.1751992542;-0.0672958211324;0.0;0.0;0.0;-7.56086948467e-05;0.999999997142;0.00533039504603;0.00156217800658;0.00175737956799;0.0;0.0;0.0;0.0;0.0;0.000553789312512;0.0;0.0;0.0;0.0;0.0;0.0;0.0;0.0;0.0;0.0;0.0;0.0;0.0;0.0;0.0;0.0;0.0;0.0;0.0;0.0;0.0;0.0;0.0;0.0;0.0;0.0;0.0
308056000000;176;308056000000;map;36.3747844592;-0.0663434229195;0.0;0.0;0.0;-0.000376963804953;0.999999928949;0.00540427530132;0.00159391918555;0.00194641496604;0.0;0.0;0.0;0.0;0.0;0.00057174624661;0.0;0.0;0.0;0.0;0.0;0.0;0.0;0.0;0.0;0.0;0.0;0.0;0.0;0.0;0.0;0.0;0.0;0.0;0.0;0.0;0.0;0.0;0.0;0.0;0.0;0.0;0.0
308452000000;177;308452000000;map;36.5814792988;-0.0696873527406;0.0;0.0;0.0;-0.000806795274505;0.999999674541;0.00505380157597;0.00148519025102;0.00200404111786;0.0;0.0;0.0;0.0;0.0;0.000693234120818;0.0;0.0;0.0;0.0;0.0;0.0;0.0;0.0;0.0;0.0;0.0;0.0;0.0;0.0;0.0;0.0;0.0;0.0;0.0;0.0;0.0;0.0;0.0;0.0;0.0;0.0;0.0
308857000000;178;308857000000;map;36.7772434261;-0.0694022469343;0.0;0.0;0.0;-2.2771979858e-08;1.0;0.00564981708294;0.00185399728554;0.00222441661556;0.0;0.0;0.0;0.0;0.0;0.000571393335925;0.0;0.0;0.0;0.0;0.0;0.0;0.0;0.0;0.0;0.0;0.0;0.0;0.0;0.0;0.0;0.0;0.0;0.0;0.0;0.0;0.0;0.0;0.0;0.0;0.0;0.0;0.0
310350000000;179;310350000000;map;36.9704363989;-0.0718953938593;0.0;0.0;0.0;0.124937637551;0.992164596588;0.00687563236397;0.00266521368758;0.00284148354963;0.0;0.0;0.0;0.0;0.0;0.000743141979829;0.0;0.0;0.0;0.0;0.0;0.0;0.0;0.0;0.0;0.0;0.0;0.0;0.0;0.0;0.0;0.0;0.0;0.0;0.0;0.0;0.0;0.0;0.0;0.0;0.0;0.0;0.0
311458000000;180;311458000000;map;36.9791392977;-0.0682476950564;0.0;0.0;0.0;0.249954883609;0.968257484433;0.00690894740978;0.00222502767897;0.00232049775916;0.0;0.0;0.0;0.0;0.0;0.000687034559701;0.0;0.0;0.0;0.0;0.0;0.0;0.0;0.0;0.0;0.0;0.0;0.0;0.0;0.0;0.0;0.0;0.0;0.0;0.0;0.0;0.0;0.0;0.0;0.0;0.0;0.0;0.0
312566000000;181;312566000000;map;36.9857682727;-0.0653913522514;0.0;0.0;0.0;0.367987802001;0.929830617682;0.00653246645493;0.00207891953276;0.00215772507914;0.0;0.0;0.0;0.0;0.0;0.000792753736166;0.0;0.0;0.0;0.0;0.0;0.0;0.0;0.0;0.0;0.0;0.0;0.0;0.0;0.0;0.0;0.0;0.0;0.0;0.0;0.0;0.0;0.0;0.0;0.0;0.0;0.0;0.0
313660000000;182;313660000000;map;36.989486707;-0.0641004591903;0.0;0.0;0.0;0.483389705932;0.875405273116;0.00583057107792;0.00178080612627;0.00196181370332;0.0;0.0;0.0;0.0;0.0;0.000857014698394;0.0;0.0;0.0;0.0;0.0;0.0;0.0;0.0;0.0;0.0;0.0;0.0;0.0;0.0;0.0;0.0;0.0;0.0;0.0;0.0;0.0;0.0;0.0;0.0;0.0;0.0;0.0
314764000000;183;314764000000;map;36.9860964302;-0.06610201181;0.0;0.0;0.0;0.588390007465;0.808577268488;0.00560878040505;0.00179774042071;0.00211041013678;0.0;0.0;0.0;0.0;0.0;0.000814363120162;0.0;0.0;0.0;0.0;0.0;0.0;0.0;0.0;0.0;0.0;0.0;0.0;0.0;0.0;0.0;0.0;0.0;0.0;0.0;0.0;0.0;0.0;0.0;0.0;0.0;0.0;0.0
315864000000;184;315864000000;map;36.991178044;-0.0634123745367;0.0;0.0;0.0;0.68507813413;0.728469594517;0.00484321618455;0.00177061750312;0.00199526137952;0.0;0.0;0.0;0.0;0.0;0.000732609707624;0.0;0.0;0.0;0.0;0.0;0.0;0.0;0.0;0.0;0.0;0.0;0.0;0.0;0.0;0.0;0.0;0.0;0.0;0.0;0.0;0.0;0.0;0.0;0.0;0.0;0.0;0.0
317156000000;185;317156000000;map;36.9778242124;0.14740382687;0.0;0.0;0.0;0.733519983651;0.679667884767;0.00505419816477;0.00147486300771;0.00148374304309;0.0;0.0;0.0;0.0;0.0;0.000625139458401;0.0;0.0;0.0;0.0;0.0;0.0;0.0;0.0;0.0;0.0;0.0;0.0;0.0;0.0;0.0;0.0;0.0;0.0;0.0;0.0;0.0;0.0;0.0;0.0;0.0;0.0;0.0
317548000000;186;317548000000;map;36.970367698;0.350059250838;0.0;0.0;0.0;0.734231434673;0.678899256398;0.00560812790877;0.00151125196993;0.0014629571239;0.0;0.0;0.0;0.0;0.0;0.000650948706104;0.0;0.0;0.0;0.0;0.0;0.0;0.0;0.0;0.0;0.0;0.0;0.0;0.0;0.0;0.0;0.0;0.0;0.0;0.0;0.0;0.0;0.0;0.0;0.0;0.0;0.0;0.0
317949000000;187;317949000000;map;36.9529125533;0.552272944405;0.0;0.0;0.0;0.733912948904;0.679243537644;0.00606914007676;0.00153672750719;0.00160386990904;0.0;0.0;0.0;0.0;0.0;0.000609300479971;0.0;0.0;0.0;0.0;0.0;0.0;0.0;0.0;0.0;0.0;0.0;0.0;0.0;0.0;0.0;0.0;0.0;0.0;0.0;0.0;0.0;0.0;0.0;0.0;0.0;0.0;0.0
318351000000;188;318351000000;map;36.9457026541;0.752969900543;0.0;0.0;0.0;0.73173262315;0.681591790016;0.00668302067174;0.00152623130168;0.00125691635876;0.0;0.0;0.0;0.0;0.0;0.000611871424918;0.0;0.0;0.0;0.0;0.0;0.0;0.0;0.0;0.0;0.0;0.0;0.0;0.0;0.0;0.0;0.0;0.0;0.0;0.0;0.0;0.0;0.0;0.0;0.0;0.0;0.0;0.0
318747000000;189;318747000000;map;36.9312104584;0.957597915507;0.0;0.0;0.0;0.732300664712;0.680981450894;0.00621387924366;0.00128084520125;0.0013307591379;0.0;0.0;0.0;0.0;0.0;0.000593779302662;0.0;0.0;0.0;0.0;0.0;0.0;0.0;0.0;0.0;0.0;0.0;0.0;0.0;0.0;0.0;0.0;0.0;0.0;0.0;0.0;0.0;0.0;0.0;0.0;0.0;0.0;0.0
319155000000;190;319155000000;map;36.9246523482;1.17048545657;0.0;0.0;0.0;0.733551169039;0.67963422692;0.00598070147498;0.0013061372324;0.00146614151889;0.0;0.0;0.0;0.0;0.0;0.000533402026219;0.0;0.0;0.0;0.0;0.0;0.0;0.0;0.0;0.0;0.0;0.0;0.0;0.0;0.0;0.0;0.0;0.0;0.0;0.0;0.0;0.0;0.0;0.0;0.0;0.0;0.0;0.0
319645000000;191;319645000000;map;36.9252890771;1.37653144321;0.0;0.0;0.0;0.732603482885;0.680655666887;0.00695757800258;0.000799139455026;0.0014311932787;0.0;0.0;0.0;0.0;0.0;0.000540709178838;0.0;0.0;0.0;0.0;0.0;0.0;0.0;0.0;0.0;0.0;0.0;0.0;0.0;0.0;0.0;0.0;0.0;0.0;0.0;0.0;0.0;0.0;0.0;0.0;0.0;0.0;0.0
320046000000;192;320046000000;map;36.9197936356;1.58329333415;0.0;0.0;0.0;0.732132967894;0.681161740941;0.00620696573947;0.00050859110025;0.00131012931005;0.0;0.0;0.0;0.0;0.0;0.000558269895067;0.0;0.0;0.0;0.0;0.0;0.0;0.0;0.0;0.0;0.0;0.0;0.0;0.0;0.0;0.0;0.0;0.0;0.0;0.0;0.0;0.0;0.0;0.0;0.0;0.0;0.0;0.0
320350000000;193;320350000000;map;36.9043956841;1.78580620175;0.0;0.0;0.0;0.732413668152;0.680859911219;0.00518483796714;0.000472777340121;0.000896499189179;0.0;0.0;0.0;0.0;0.0;0.000432751584268;0.0;0.0;0.0;0.0;0.0;0.0;0.0;0.0;0.0;0.0;0.0;0.0;0.0;0.0;0.0;0.0;0.0;0.0;0.0;0.0;0.0;0.0;0.0;0.0;0.0;0.0;0.0
320752000000;194;320752000000;map;36.8905870175;1.98740486196;0.0;0.0;0.0;0.733037088199;0.680188670389;0.00421239033585;0.000134704335935;0.000736784847385;0.0;0.0;0.0;0.0;0.0;0.000520450499018;0.0;0.0;0.0;0.0;0.0;0.0;0.0;0.0;0.0;0.0;0.0;0.0;0.0;0.0;0.0;0.0;0.0;0.0;0.0;0.0;0.0;0.0;0.0;0.0;0.0;0.0;0.0
322650000000;195;322650000000;map;36.878020089;2.187296195;0.0;0.0;0.0;0.700661453842;0.71349388722;0.00450662792855;0.000329695876061;0.000851357716464;0.0;0.0;0.0;0.0;0.0;0.000560060361903;0.0;0.0;0.0;0.0;0.0;0.0;0.0;0.0;0.0;0.0;0.0;0.0;0.0;0.0;0.0;0.0;0.0;0.0;0.0;0.0;0.0;0.0;0.0;0.0;0.0;0.0;0.0
323057000000;196;323057000000;map;36.8778033629;2.38736605758;0.0;0.0;0.0;0.7016340515;0.712537478155;0.00405498599434;0.000529298262038;0.000769803494618;0.0;0.0;0.0;0.0;0.0;0.000448106523167;0.0;0.0;0.0;0.0;0.0;0.0;0.0;0.0;0.0;0.0;0.0;0.0;0.0;0.0;0.0;0.0;0.0;0.0;0.0;0.0;0.0;0.0;0.0;0.0;0.0;0.0;0.0
323458000000;197;323458000000;map;36.8867340288;2.59083143657;0.0;0.0;0.0;0.702584807399;0.711600019963;0.0039897832653;0.000365396347746;0.000784964580437;0.0;0.0;0.0;0.0;0.0;0.000428566753221;0.0;0.0;0.0;0.0;0.0;0.0;0.0;0.0;0.0;0.0;0.0;0.0;0.0;0.0;0.0;0.0;0.0;0.0;0.0;0.0;0.0;0.0;0.0;0.0;0.0;0.0;0.0
323861389292;198;323861389292;map;36.8913940049;2.78821833765;0.0;0.0;0.0;0.702510252215;0.711673622901;0.00443596215314;0.000448425803839;0.000854673168292;0.0;0.0;0.0;0.0;0.0;0.000444524434856;0.0;0.0;0.0;0.0;0.0;0.0;0.0;0.0;0.0;0.0;0.0;0.0;0.0;0.0;0.0;0.0;0.0;0.0;0.0;0.0;0.0;0.0;0.0;0.0;0.0;0.0;0.0
324259000000;199;324259000000;map;36.8887894112;2.98887678786;0.0;0.0;0.0;0.702870101214;0.711318227533;0.00416553107198;0.000371261401838;0.000883696245799;0.0;0.0;0.0;0.0;0.0;0.000475525334726;0.0;0.0;0.0;0.0;0.0;0.0;0.0;0.0;0.0;0.0;0.0;0.0;0.0;0.0;0.0;0.0;0.0;0.0;0.0;0.0;0.0;0.0;0.0;0.0;0.0;0.0;0.0
324668000000;200;324668000000;map;36.8970102787;3.20168753083;0.0;0.0;0.0;0.702273887148;0.711906867105;0.00448331990924;0.000391070502658;0.000888294293222;0.0;0.0;0.0;0.0;0.0;0.000518638369511;0.0;0.0;0.0;0.0;0.0;0.0;0.0;0.0;0.0;0.0;0.0;0.0;0.0;0.0;0.0;0.0;0.0;0.0;0.0;0.0;0.0;0.0;0.0;0.0;0.0;0.0;0.0
325059000000;201;325059000000;map;36.9084832852;3.40393583673;0.0;0.0;0.0;0.701848407043;0.712326339209;0.00416201043708;0.000113143387253;0.000784908777204;0.0;0.0;0.0;0.0;0.0;0.000485957562651;0.0;0.0;0.0;0.0;0.0;0.0;0.0;0.0;0.0;0.0;0.0;0.0;0.0;0.0;0.0;0.0;0.0;0.0;0.0;0.0;0.0;0.0;0.0;0.0;0.0;0.0;0.0
325460000000;202;325460000000;map;36.9052130786;3.60844133635;0.0;0.0;0.0;0.702424190081;0.711758566642;0.00383741718178;-3.19815756598e-05;0.000828794091777;0.0;0.0;0.0;0.0;0.0;0.000420668825326;0.0;0.0;0.0;0.0;0.0;0.0;0.0;0.0;0.0;0.0;0.0;0.0;0.0;0.0;0.0;0.0;0.0;0.0;0.0;0.0;0.0;0.0;0.0;0.0;0.0;0.0;0.0
325877000000;203;325877000000;map;36.9087539347;3.81224327513;0.0;0.0;0.0;0.702263071544;0.711917536197;0.00334387871089;-9.30131936059e-05;0.00096247262425;0.0;0.0;0.0;0.0;0.0;0.000522724500494;0.0;0.0;0.0;0.0;0.0;0.0;0.0;0.0;0.0;0.0;0.0;0.0;0.0;0.0;0.0;0.0;0.0;0.0;0.0;0.0;0.0;0.0;0.0;0.0;0.0;0.0;0.0
326275000000;204;326275000000;map;36.9131402995;4.00786227938;0.0;0.0;0.0;0.701793115109;0.7123808136;0.00369067928364;0.000116643085477;0.00112658879142;0.0;0.0;0.0;0.0;0.0;0.000514969675107;0.0;0.0;0.0;0.0;0.0;0.0;0.0;0.0;0.0;0.0;0.0;0.0;0.0;0.0;0.0;0.0;0.0;0.0;0.0;0.0;0.0;0.0;0.0;0.0;0.0;0.0;0.0
326682000000;205;326682000000;map;36.9209590624;4.20859175496;0.0;0.0;0.0;0.701370434265;0.712796965439;0.00427995113273;0.00024645515299;0.0011726959716;0.0;0.0;0.0;0.0;0.0;0.000538090173716;0.0;0.0;0.0;0.0;0.0;0.0;0.0;0.0;0.0;0.0;0.0;0.0;0.0;0.0;0.0;0.0;0.0;0.0;0.0;0.0;0.0;0.0;0.0;0.0;0.0;0.0;0.0
327077000000;206;327077000000;map;36.9326768603;4.40779963345;0.0;0.0;0.0;0.700694521305;0.713461412981;0.00410217404919;0.000115970407677;0.00128025687075;0.0;0.0;0.0;0.0;0.0;0.000488390518851;0.0;0.0;0.0;0.0;0.0;0.0;0.0;0.0;0.0;0.0;0.0;0.0;0.0;0.0;0.0;0.0;0.0;0.0;0.0;0.0;0.0;0.0;0.0;0.0;0.0;0.0;0.0
327482000000;207;327482000000;map;36.9389175071;4.60632893434;0.0;0.0;0.0;0.701666769046;0.712505259782;0.00437717710656;0.000146089277195;0.00113949462123;0.0;0.0;0.0;0.0;0.0;0.000545462633305;0.0;0.0;0.0;0.0;0.0;0.0;0.0;0.0;0.0;0.0;0.0;0.0;0.0;0.0;0.0;0.0;0.0;0.0;0.0;0.0;0.0;0.0;0.0;0.0;0.0;0.0;0.0
327876000000;208;327876000000;map;36.942549083;4.80451880084;0.0;0.0;0.0;0.701878877242;0.712296315926;0.00438594517891;8.24876550496e-05;0.00105513496705;0.0;0.0;0.0;0.0;0.0;0.000618383939587;0.0;0.0;0.0;0.0;0.0;0.0;0.0;0.0;0.0;0.0;0.0;0.0;0.0;0.0;0.0;0.0;0.0;0.0;0.0;0.0;0.0;0.0;0.0;0.0;0.0;0.0;0.0
328278000000;209;328278000000;map;36.9490652468;5.00488545474;0.0;0.0;0.0;0.701855753949;0.712319100297;0.00460483245797;3.98789594556e-05;0.00115250115207;0.0;0.0;0.0;0.0;0.0;0.000542829580353;0.0;0.0;0.0;0.0;0.0;0.0;0.0;0.0;0.0;0.0;0.0;0.0;0.0;0.0;0.0;0.0;0.0;0.0;0.0;0.0;0.0;0.0;0.0;0.0;0.0;0.0;0.0
328784000000;210;328784000000;map;36.950469621;5.20490597228;0.0;0.0;0.0;0.702258722177;0.711921826556;0.00404000263006;0.000269433951104;0.00113211414464;0.0;0.0;0.0;0.0;0.0;0.000617140096737;0.0;0.0;0.0;0.0;0.0;0.0;0.0;0.0;0.0;0.0;0.0;0.0;0.0;0.0;0.0;0.0;0.0;0.0;0.0;0.0;0.0;0.0;0.0;0.0;0.0;0.0;0.0
329077000000;211;329077000000;map;36.9481436601;5.40702195405;0.0;0.0;0.0;0.701919625384;0.712256161434;0.00362041133144;0.000116655192159;0.00110766752255;0.0;0.0;0.0;0.0;0.0;0.000777384988603;0.0;0.0;0.0;0.0;0.0;0.0;0.0;0.0;0.0;0.0;0.0;0.0;0.0;0.0;0.0;0.0;0.0;0.0;0.0;0.0;0.0;0.0;0.0;0.0;0.0;0.0;0.0
329475000000;212;329475000000;map;36.9558803318;5.60820808185;0.0;0.0;0.0;0.702977449376;0.711212138302;0.0033614478898;9.93091665009e-05;0.00116123317584;0.0;0.0;0.0;0.0;0.0;0.000794737644755;0.0;0.0;0.0;0.0;0.0;0.0;0.0;0.0;0.0;0.0;0.0;0.0;0.0;0.0;0.0;0.0;0.0;0.0;0.0;0.0;0.0;0.0;0.0;0.0;0.0;0.0;0.0
329877000000;213;329877000000;map;36.9557889231;5.80903733779;0.0;0.0;0.0;0.702105184447;0.712073247617;0.00324085642296;-0.000130283411437;0.00100990944883;0.0;0.0;0.0;0.0;0.0;0.000912039989927;0.0;0.0;0.0;0.0;0.0;0.0;0.0;0.0;0.0;0.0;0.0;0.0;0.0;0.0;0.0;0.0;0.0;0.0;0.0;0.0;0.0;0.0;0.0;0.0;0.0;0.0;0.0
330278000000;214;330278000000;map;36.9604378737;6.01171855853;0.0;0.0;0.0;0.701674808198;0.712497342831;0.00301920592619;-0.000149837654305;0.00109218296752;0.0;0.0;0.0;0.0;0.0;0.000878452501626;0.0;0.0;0.0;0.0;0.0;0.0;0.0;0.0;0.0;0.0;0.0;0.0;0.0;0.0;0.0;0.0;0.0;0.0;0.0;0.0;0.0;0.0;0.0;0.0;0.0;0.0;0.0
330786000000;215;330786000000;map;36.9649961447;6.22080658418;0.0;0.0;0.0;0.701863107334;0.712311854853;0.00309345223286;-0.000257748835082;0.00124370793609;0.0;0.0;0.0;0.0;0.0;0.000717639275725;0.0;0.0;0.0;0.0;0.0;0.0;0.0;0.0;0.0;0.0;0.0;0.0;0.0;0.0;0.0;0.0;0.0;0.0;0.0;0.0;0.0;0.0;0.0;0.0;0.0;0.0;0.0
331174000000;216;331174000000;map;36.9693872978;6.41949246046;0.0;0.0;0.0;0.701784041773;0.712389751971;0.00261597113513;-0.00036268009697;0.00114848184342;0.0;0.0;0.0;0.0;0.0;0.000770071461265;0.0;0.0;0.0;0.0;0.0;0.0;0.0;0.0;0.0;0.0;0.0;0.0;0.0;0.0;0.0;0.0;0.0;0.0;0.0;0.0;0.0;0.0;0.0;0.0;0.0;0.0;0.0
331580000000;217;331580000000;map;36.9655800741;6.61829260135;0.0;0.0;0.0;0.702702955624;0.711483349178;0.00180199592114;-0.00035248062747;0.00104831927707;0.0;0.0;0.0;0.0;0.0;0.000697537644238;0.0;0.0;0.0;0.0;0.0;0.0;0.0;0.0;0.0;0.0;0.0;0.0;0.0;0.0;0.0;0.0;0.0;0.0;0.0;0.0;0.0;0.0;0.0;0.0;0.0;0.0;0.0
331976000000;218;331976000000;map;36.9656505516;6.82763442075;0.0;0.0;0.0;0.7020481951;0.712129434693;0.00201093283977;-0.000522382734005;0.00110114002384;0.0;0.0;0.0;0.0;0.0;0.000880343085984;0.0;0.0;0.0;0.0;0.0;0.0;0.0;0.0;0.0;0.0;0.0;0.0;0.0;0.0;0.0;0.0;0.0;0.0;0.0;0.0;0.0;0.0;0.0;0.0;0.0;0.0;0.0
332377000000;219;332377000000;map;36.9655971955;7.03775899405;0.0;0.0;0.0;0.702584912768;0.71159991593;0.00207066522012;-0.000392584852648;0.00108421758099;0.0;0.0;0.0;0.0;0.0;0.000925320932993;0.0;0.0;0.0;0.0;0.0;0.0;0.0;0.0;0.0;0.0;0.0;0.0;0.0;0.0;0.0;0.0;0.0;0.0;0.0;0.0;0.0;0.0;0.0;0.0;0.0;0.0;0.0
332786980013;220;332786980013;map;36.9700517318;7.24143932702;0.0;0.0;0.0;0.701817969624;0.712356327629;0.00199966986543;-0.000305316722461;0.00114850535004;0.0;0.0;0.0;0.0;0.0;0.000874397588534;0.0;0.0;0.0;0.0;0.0;0.0;0.0;0.0;0.0;0.0;0.0;0.0;0.0;0.0;0.0;0.0;0.0;0.0;0.0;0.0;0.0;0.0;0.0;0.0;0.0;0.0;0.0
333179000000;221;333179000000;map;36.9704341598;7.44336331512;0.0;0.0;0.0;0.701692755315;0.712479667877;0.0019792680007;-0.00044943406607;0.00116045633155;0.0;0.0;0.0;0.0;0.0;0.000732624737766;0.0;0.0;0.0;0.0;0.0;0.0;0.0;0.0;0.0;0.0;0.0;0.0;0.0;0.0;0.0;0.0;0.0;0.0;0.0;0.0;0.0;0.0;0.0;0.0;0.0;0.0;0.0
333590000000;222;333590000000;map;36.9753906653;7.64487793116;0.0;0.0;0.0;0.700610403214;0.713544016097;0.00188340940758;-0.000312733818078;0.00110691485929;0.0;0.0;0.0;0.0;0.0;0.000770716346543;0.0;0.0;0.0;0.0;0.0;0.0;0.0;0.0;0.0;0.0;0.0;0.0;0.0;0.0;0.0;0.0;0.0;0.0;0.0;0.0;0.0;0.0;0.0;0.0;0.0;0.0;0.0
