%time,field.x,field.y,field.z,field.w
1524842709424530982,2.0493120793e-06,-2.08183343867e-06,-0.70714200225,0.707071558362
1524842709424920082,2.0493198188e-06,-2.08184233153e-06,-0.707142002231,0.707071558381
1524842709424997091,2.04932755066e-06,-2.0818512155e-06,-0.707142002213,0.7070715584
1524842709425061941,2.0493352749e-06,-2.08186009053e-06,-0.707142002194,0.707071558419
1524842709428682088,2.04934299136e-06,-2.08186895693e-06,-0.707142002175,0.707071558437
1524842709428803920,2.04935070003e-06,-2.08187781445e-06,-0.707142002156,0.707071558456
1524842709428869962,2.04935840136e-06,-2.08188666325e-06,-0.707142002138,0.707071558475
1524842709428930997,2.04936609493e-06,-2.08189550323e-06,-0.707142002119,0.707071558494
1524842709428987979,2.04937378079e-06,-2.08190433446e-06,-0.7071420021,0.707071558512
1524842709429052114,2.04938145915e-06,-2.08191315684e-06,-0.707142002081,0.707071558531
1524842709429147005,2.04938912986e-06,-2.08192197046e-06,-0.707142002063,0.70707155855
1524842709432852029,2.04939679282e-06,-2.08193077544e-06,-0.707142002044,0.707071558569
1524842709436214923,2.04940444816e-06,-2.08193957166e-06,-0.707142002025,0.707071558587
1524842709436711072,2.04941209608e-06,-2.08194835912e-06,-0.707142002006,0.707071558606
1524842709436940908,2.04941973629e-06,-2.08195713784e-06,-0.707142001988,0.707071558625
1524842709437145948,2.04942736886e-06,-2.08196590796e-06,-0.707142001969,0.707071558644
1524842709456784009,2.04943499396e-06,-2.08197466915e-06,-0.70714200195,0.707071558662
1524842709456882953,2.04944261149e-06,-2.08198342183e-06,-0.707142001932,0.707071558681
1524842709456945896,2.04945022144e-06,-2.08199216581e-06,-0.707142001913,0.7070715587
1524842709457010030,2.04945782376e-06,-2.08200090108e-06,-0.707142001894,0.707071558719
1524842709527932882,2.04946541863e-06,-2.08200962764e-06,-0.707142001875,0.707071558737
1524842709572849988,2.0494730059e-06,-2.08201834562e-06,-0.707142001857,0.707071558756
1524842709610516071,2.04948058573e-06,-2.08202705496e-06,-0.707142001838,0.707071558775
1524842709656008005,2.04948815806e-06,-2.08203575549e-06,-0.707142001819,0.707071558793
1524842709689500093,2.04949572275e-06,-2.08204444767e-06,-0.7071420018,0.707071558812
1524842709697498083,2.04950327996e-06,-2.08205313105e-06,-0.707142001782,0.707071558831
1524842709725117921,2.04951082972e-06,-2.0820618058e-06,-0.707142001763,0.70707155885
1524842709734427928,2.04951837185e-06,-2.08207047202e-06,-0.707142001744,0.707071558868
1524842709760921955,2.04952590663e-06,-2.08207912942e-06,-0.707142001726,0.707071558887
1524842709767141103,2.04953343383e-06,-2.08208777844e-06,-0.707142001707,0.707071558906
1524842709800133943,2.04954095365e-06,-2.08209641894e-06,-0.707142001688,0.707071558924
1524842709800271034,2.0495484659e-06,-2.0821050506e-06,-0.70714200167,0.707071558943
1524842709825896024,2.04955597086e-06,-2.08211367389e-06,-0.707142001651,0.707071558962
1524842709828722000,-5.98789147004e-07,-4.82073608778e-06,-0.707142987789,0.707070572714
1524842709829324007,-5.84061044543e-07,-4.8382409694e-06,-0.707143569718,0.707069990724
1524842709885852098,-5.76836889533e-07,-4.84161772954e-06,-0.707143754509,0.707069805914
1524842709897217035,-5.74543826738e-07,-4.8425320655e-06,-0.707143816971,0.707069743446
1524842709936783075,-5.74054494724e-07,-4.84244124001e-06,-0.707143839263,0.707069721151
1524842709937057971,-5.74417766856e-07,-4.8416777425e-06,-0.707143848204,0.707069712209
1524842709976134061,-5.75430050653e-07,-4.84020152163e-06,-0.707143852621,0.707069707792
1524842709976237058,-5.77150360864e-07,-4.83782954799e-06,-0.70714385541,0.707069705002
1524842709976280927,-5.79736466078e-07,-4.8343157759e-06,-0.707143857501,0.707069702912
1524842710016225099,-5.83384485738e-07,-4.82938577448e-06,-0.707143859159,0.707069701253
1524842710047535896,-5.88300093677e-07,-4.82275994725e-06,-0.707143860423,0.707069699989
1524842710085199117,-5.9467724045e-07,-4.81417693154e-06,-0.70714386125,0.707069699162
1524842710085604906,-6.02676243115e-07,-4.80342123083e-06,-0.707143861565,0.707069698847
1524842710124125003,2.28003887045e-06,-1.80992548164e-06,-0.707143363875,0.7070701966
1524842710124242067,2.00983911101e-06,-2.03400446357e-06,-0.707142418848,0.707071141723
1524842710164030075,1.98484181052e-06,-2.01466371299e-06,-0.707142151913,0.707071408685
1524842710197527885,1.96711333293e-06,-1.99914905437e-06,-0.707142063214,0.707071497393
1524842710236114978,1.95187746916e-06,-1.98476704028e-06,-0.707142032552,0.707071528058
1524842710236216068,1.93767591006e-06,-1.9709648261e-06,-0.707142021025,0.707071539587
1524842710275980949,1.92423769814e-06,-1.95777041956e-06,-0.707142015857,0.707071544755
1524842710276073932,1.91167332427e-06,-1.94539084952e-06,-0.707142012853,0.70707154776
1524842710319466114,1.90020519951e-06,-1.93407801104e-06,-0.707142010647,0.707071549965
1524842710326070070,1.89007436208e-06,-1.92408039865e-06,-0.707142008813,0.707071551799
1524842710375102043,1.88150574418e-06,-1.91562337327e-06,-0.707142007231,0.707071553382
1524842710412122011,1.87469333494e-06,-1.90889935045e-06,-0.70714200588,0.707071554734
1524842710412195920,1.86979252628e-06,-1.90406185447e-06,-0.707142004769,0.707071555845
1524842710452224016,1.86691549088e-06,-1.90122149173e-06,-0.707142003913,0.7070715567
1524842710452353954,1.8661282603e-06,-1.9004432498e-06,-0.707142003326,0.707071557287
1524842710492141008,1.86744909816e-06,-1.901744953e-06,-0.707142003017,0.707071557597
1524842710494544982,1.87084804274e-06,-1.90509683531e-06,-0.707142002987,0.707071557627
1524842710565362930,1.87624758114e-06,-1.91042221473e-06,-0.707142003233,0.70707155738
1524842710605850934,1.88352441903e-06,-1.91759924521e-06,-0.707142003745,0.707071556869
1524842710605957031,1.89251230123e-06,-1.92646370438e-06,-0.707142004506,0.707071556107
1524842710649334907,1.90300581647e-06,-1.93681275082e-06,-0.707142005496,0.707071555117
1524842710649785041,1.91476509886e-06,-1.94840956592e-06,-0.707142006686,0.707071553927
1524842710688227891,1.92752131617e-06,-1.96098877368e-06,-0.707142008045,0.707071552568
1524842710688380002,1.94098282295e-06,-1.97426251364e-06,-0.707142009538,0.707071551074
1524842710728302001,1.95484183355e-06,-1.98792702959e-06,-0.707142011126,0.707071549486
1524842710728444099,1.96878146622e-06,-2.00166962074e-06,-0.707142012769,0.707071547843
1524842710768589973,1.98248299416e-06,-2.01517579905e-06,-0.707142014424,0.707071546188
1524842710768807888,1.99563313876e-06,-2.02813648716e-06,-0.707142016049,0.707071544562
1524842710808116912,2.00793123875e-06,-2.04025509144e-06,-0.707142017603,0.707071543008
1524842710820569992,2.01909613068e-06,-2.05125429153e-06,-0.707142019046,0.707071541566
1524842710859966039,2.02887258217e-06,-2.0608823859e-06,-0.70714202034,0.707071540271
1524842710900077104,2.03703713351e-06,-2.06891905345e-06,-0.707142021451,0.70707153916
1524842710900178909,2.04340321106e-06,-2.07518039531e-06,-0.70714202235,0.707071538261
1524842710941716909,2.04782539751e-06,-2.07952314326e-06,-0.707142023011,0.707071537599
1524842710993498086,2.05020276004e-06,-2.08184793823e-06,-0.707142023416,0.707071537194
1524842711033364057,2.05048116027e-06,-2.08210160416e-06,-0.70714202355,0.70707153706
1524842711033843040,2.04865449404e-06,-2.08027836373e-06,-0.707142023407,0.707071537204
1524842711072422027,2.04476483191e-06,-2.0764199705e-06,-0.707142022985,0.707071537626
1524842711072585105,2.03890145672e-06,-2.07061475255e-06,-0.707142022289,0.707071538322
1524842711112531900,2.03119882095e-06,-2.0629955903e-06,-0.707142021331,0.70707153928
1524842711125117063,2.02183347021e-06,-2.05373687552e-06,-0.707142020129,0.707071540482
1524842711164447069,2.01102000306e-06,-2.04305051967e-06,-0.707142018706,0.707071541905
1524842711164561033,1.99900616052e-06,-2.03118110363e-06,-0.70714201709,0.707071543522
1524842711204215049,1.98606715578e-06,-2.01840028113e-06,-0.707142015314,0.707071545298
1524842711204375028,1.972499376e-06,-2.00500056211e-06,-0.707142013413,0.707071547198
1524842711244090080,1.95861359887e-06,-1.99128861793e-06,-0.707142011429,0.707071549183
1524842711269063949,1.94472788022e-06,-1.97757826477e-06,-0.7071420094,0.707071551212
1524842711308196067,1.93116027419e-06,-1.96418328199e-06,-0.707142007371,0.707071553242
1524842711349502086,1.91822155421e-06,-1.9514102315e-06,-0.707142005382,0.707071555231
1524842711349992036,1.90620809967e-06,-1.93955144336e-06,-0.707142003475,0.707071557138
1524842711388082027,1.89539511355e-06,-1.92887832547e-06,-0.707142001689,0.707071558924
1524842711388175964,1.88603032366e-06,-1.91963515329e-06,-0.707142000062,0.707071560552
1524842711428345918,1.87832831278e-06,-1.91203347997e-06,-0.707141998625,0.707071561989
1524842711428471088,1.87246560845e-06,-1.9062472939e-06,-0.707141997408,0.707071563206
1524842711469263076,1.86857664266e-06,-1.90240903827e-06,-0.707141996434,0.707071564181
1524842711476377010,1.8667506762e-06,-1.90060657881e-06,-0.707141995721,0.707071564894
1524842711516144990,1.86702975619e-06,-1.90088119256e-06,-0.707141995281,0.707071565333
1524842711556042909,1.86940775416e-06,-1.90322662336e-06,-0.70714199512,0.707071565494
1524842711556154966,1.87383050741e-06,-1.90758922335e-06,-0.707141995238,0.707071565376
1524842711595988988,1.88019705869e-06,-1.91386918104e-06,-0.707141995627,0.707071564987
1524842711596054077,1.88836196727e-06,-1.92192280464e-06,-0.707141996275,0.70707156434
1524842711637985944,1.89813863808e-06,-1.93156580977e-06,-0.707141997161,0.707071563453
1524842711644460916,1.90930359176e-06,-1.94257753672e-06,-0.707141998263,0.707071562351
1524842711684403896,1.92160157971e-06,-1.95470600014e-06,-0.70714199955,0.707071561064
1524842711724309921,1.9347514249e-06,-1.96767365607e-06,-0.707142000989,0.707071559625
1524842711724463939,1.94845245658e-06,-1.98118375349e-06,-0.707142002542,0.707071558071
1524842711767584085,1.96239139082e-06,-1.99492712594e-06,-0.70714200417,0.707071556443
1524842711794329881,1.97624949958e-06,-2.00858926785e-06,-0.707142005831,0.707071554782
1524842711833331108,1.98970990413e-06,-2.02185753203e-06,-0.707142007483,0.707071553129
1524842711872133016,2.00246482627e-06,-2.03442828572e-06,-0.707142009084,0.707071551528
1524842711872221946,2.01422263156e-06,-2.04601385997e-06,-0.707142010594,0.707071550018
1524842711912163019,2.02471450291e-06,-2.05634913336e-06,-0.707142011973,0.707071548639
1524842711912264108,2.03370059212e-06,-2.06519759945e-06,-0.707142013185,0.707071547426
1524842711953596115,2.04097550846e-06,-2.07235677986e-06,-0.707142014199,0.707071546412
1524842711953704118,2.04637301985e-06,-2.07766285829e-06,-0.707142014988,0.707071545623
1524842711992166996,2.04976985658e-06,-2.08099442879e-06,-0.707142015529,0.707071545083
1524842711996526002,2.05108853304e-06,-2.08227527404e-06,-0.707142015805,0.707071544806
1524842712046277999,2.05029912196e-06,-2.08147610926e-06,-0.707142015806,0.707071544805
1524842712084635972,2.04741993894e-06,-2.07861525154e-06,-0.707142015528,0.707071545083
1524842712084749937,2.04251712462e-06,-2.07375820034e-06,-0.707142014973,0.707071545638
1524842712125293970,2.03570313143e-06,-2.06701613762e-06,-0.70714201415,0.707071546461
1524842712125905990,2.02713415061e-06,-2.058543383e-06,-0.707142013073,0.707071547538
1524842712164385080,2.01700653822e-06,-2.04853386189e-06,-0.707142011763,0.707071548849
1524842712178689956,2.00555232141e-06,-2.03721666695e-06,-0.707142010245,0.707071550367
1524842712236885070,1.99303388872e-06,-2.02485081483e-06,-0.707142008551,0.707071552062
1524842712277211904,1.97973798518e-06,-2.0117193194e-06,-0.707142006714,0.707071553899
1524842712277553081,1.96596914921e-06,-1.99812271453e-06,-0.707142004773,0.70707155584
1524842712317723989,1.95204274358e-06,-1.98437217704e-06,-0.707142002768,0.707071557845
1524842712328990936,1.93827773694e-06,-1.97078240584e-06,-0.70714200074,0.707071559873
1524842712369824886,1.9249894039e-06,-1.95766442058e-06,-0.707141998733,0.707071561881
1524842712410094976,1.91248210923e-06,-1.94531844427e-06,-0.707141996787,0.707071563827
1524842712410310983,1.90104234191e-06,-1.93402703374e-06,-0.707141994944,0.707071565671
1524842712449063062,1.89093215797e-06,-1.92404861305e-06,-0.70714199324,0.707071567374
1524842712450334072,1.88238318375e-06,-1.91561156059e-06,-0.707141991712,0.707071568903
1524842712488085031,1.875591314e-06,-1.90890898156e-06,-0.70714199039,0.707071570225
1524842712488202095,1.87071222974e-06,-1.90409428988e-06,-0.7071419893,0.707071571315
1524842712528080940,1.86785783515e-06,-1.90127769634e-06,-0.707141988462,0.707071572153
1524842712542140007,1.86709369725e-06,-1.9005236862e-06,-0.707141987893,0.707071572722
1524842712580955982,1.86843754585e-06,-1.901849543e-06,-0.707141987601,0.707071573014
1524842712620820045,1.8718588686e-06,-1.90522495229e-06,-0.707141987588,0.707071573027
1524842712621016979,1.87727960964e-06,-1.91057269492e-06,-0.707141987851,0.707071572764
1524842712665482044,1.88457595653e-06,-1.91777041345e-06,-0.70714198838,0.707071572235
1524842712666035890,1.89358117411e-06,-1.92665341187e-06,-0.707141989158,0.707071571457
1524842712704185009,1.90408942114e-06,-1.93701842422e-06,-0.707141990163,0.707071570451
1524842712704325914,1.9158604607e-06,-1.94862826656e-06,-0.70714199137,0.707071569245
1524842712744801044,1.92862515793e-06,-1.96121726428e-06,-0.707141992744,0.70707156787
1524842712745404005,1.94209163965e-06,-1.97449733296e-06,-0.707141994252,0.707071566362
1524842712787177085,1.9559519731e-06,-1.98816457093e-06,-0.707141995855,0.707071564759
1524842712824378013,1.96988921266e-06,-2.00190621517e-06,-0.707141997512,0.707071563102
1524842712865655899,1.98358465263e-06,-2.01540779885e-06,-0.70714199918,0.707071561433
1524842712866274118,1.99672512071e-06,-2.02836034969e-06,-0.707142000818,0.707071559795
1524842712905802011,2.00901014373e-06,-2.04046746041e-06,-0.707142002385,0.707071558228
1524842712921372890,2.02015882366e-06,-2.05145207285e-06,-0.707142003839,0.707071556773
1524842712960443973,2.02991626651e-06,-2.0610628196e-06,-0.707142005145,0.707071555467
1524842713000067949,2.03805941398e-06,-2.06907977618e-06,-0.707142006268,0.707071554345
1524842713000150918,2.04440214947e-06,-2.07531949469e-06,-0.707142007177,0.707071553435
1524842713041548967,2.04879955658e-06,-2.07963920149e-06,-0.707142007849,0.707071552763
1524842713042049884,2.05115123655e-06,-2.08194006487e-06,-0.707142008265,0.707071552347
1524842713081312894,2.05140360574e-06,-2.08216945591e-06,-0.707142008409,0.707071552203
1524842713111591100,2.049551123e-06,-2.08032215286e-06,-0.707142008276,0.707071552336
1524842713148072004,2.04563641661e-06,-2.07644045965e-06,-0.707142007864,0.707071552748
1524842713148159027,2.03974930995e-06,-2.07061323732e-06,-0.707142007178,0.707071553434
1524842713148205995,2.03202476568e-06,-2.06297386986e-06,-0.707142006231,0.707071554381
1524842713188180923,2.02263979808e-06,-2.05369721094e-06,-0.707142005039,0.707071555573
1524842713224261045,2.01180942214e-06,-2.04299558247e-06,-0.707142003627,0.707071556986
1524842713264293909,1.99978173318e-06,-2.03111391472e-06,-0.707142002022,0.707071558591
1524842713264386892,1.98683222878e-06,-2.01832414164e-06,-0.707142000258,0.707071560355
1524842713304481029,1.97325750399e-06,-2.00491897758e-06,-0.70714199837,0.707071562244
1524842713304563999,1.95936846284e-06,-1.99120521835e-06,-0.707141996398,0.707071564216
1524842713378300905,1.94548320346e-06,-1.97749672151e-06,-0.707141994382,0.707071566232
1524842713378952026,1.93191973736e-06,-1.96410722365e-06,-0.707141992366,0.707071568248
1524842713416112899,1.91898871029e-06,-1.95134316095e-06,-0.707141990391,0.707071570223
1524842713416212081,1.90698629386e-06,-1.93949665742e-06,-0.707141988499,0.707071572116
1524842713456897020,1.89618740617e-06,-1.92883883981e-06,-0.707141986728,0.707071573887
1524842713457067012,1.88683942006e-06,-1.91961363329e-06,-0.707141985115,0.7070715755
1524842713503585100,1.87915650161e-06,-1.91203217937e-06,-0.707141983694,0.707071576921
1524842713504023075,1.87331470935e-06,-1.90626800394e-06,-0.707141982493,0.707071578123
1524842713540055990,1.86944796468e-06,-1.90245304587e-06,-0.707141981535,0.707071579081
1524842713581269025,1.86764498789e-06,-1.9006746377e-06,-0.707141980838,0.707071579778
1524842713581943988,1.86794726798e-06,-1.9009735059e-06,-0.707141980414,0.707071580201
1524842713620757102,1.87034811382e-06,-1.90334283881e-06,-0.70714198027,0.707071580346
1524842713684156894,1.8747928078e-06,-1.90772844156e-06,-0.707141980404,0.707071580212
1524842713725613117,1.88117985889e-06,-1.91402997588e-06,-0.707141980809,0.707071579806
1524842713726002931,1.88936332568e-06,-1.92210325589e-06,-0.707141981473,0.707071579143
1524842713726188898,1.89915615648e-06,-1.93176354722e-06,-0.707141982375,0.70707157824
1524842713726397037,1.91033447081e-06,-1.94278979432e-06,-0.707141983492,0.707071577123
1524842713764334917,1.92264268252e-06,-1.95492967924e-06,-0.707141984794,0.707071575821
1524842713767586946,1.93579934919e-06,-1.96790539645e-06,-0.707141986247,0.707071574368
1524842713805445909,1.94950361243e-06,-1.98142001012e-06,-0.707141987814,0.7070715728
1524842713844332933,1.96344208307e-06,-1.99516425036e-06,-0.707141989456,0.707071571159
1524842713884152889,1.97729601224e-06,-2.00882359119e-06,-0.70714199113,0.707071569484
1524842713924129009,1.99074858566e-06,-2.02208544977e-06,-0.707141992795,0.707071567819
1524842713924222946,2.00349217284e-06,-2.03464633941e-06,-0.707141994408,0.707071566206
1524842713924268960,2.01523536767e-06,-2.04621881674e-06,-0.707141995929,0.707071564685
1524842713964020013,2.02570965626e-06,-2.05653805977e-06,-0.707141997319,0.707071563295
1524842713982389926,2.03467556148e-06,-2.06536792887e-06,-0.707141998542,0.707071562071
1524842714020334959,2.04192812355e-06,-2.07250637112e-06,-0.707141999566,0.707071561047
1524842714060971975,2.04730159096e-06,-2.07779004452e-06,-0.707142000365,0.707071560248
1524842714061588048,2.05067321309e-06,-2.08109805559e-06,-0.707142000915,0.707071559697
1524842714101306915,2.0519660507e-06,-2.08235472604e-06,-0.707142001201,0.707071559412
1524842714101712942,2.05115073661e-06,-2.08153132417e-06,-0.707142001212,0.707071559401
1524842714140122890,2.04824614846e-06,-2.0786467214e-06,-0.707142000943,0.707071559669
1524842714144682884,2.0433189777e-06,-2.07376696048e-06,-0.707142000398,0.707071560215
1524842714184062004,2.03648220333e-06,-2.06700374279e-06,-0.707141999584,0.707071561029
1524842714228287935,2.0278925074e-06,-2.0585118721e-06,-0.707141998517,0.707071562096
1524842714264199018,2.01774668924e-06,-2.04848571078e-06,-0.707141997217,0.707071563396
1524842714264338970,2.00627716206e-06,-2.03715473187e-06,-0.707141995709,0.707071564904
1524842714304116964,1.99374663434e-06,-2.02477826769e-06,-0.707141994026,0.707071566588
1524842714323373079,1.98044209732e-06,-2.0116395744e-06,-0.7071419922,0.707071568414
1524842714360382080,1.96666825674e-06,-1.99803935054e-06,-0.70714199027,0.707071570344
1524842714360841035,1.95274055928e-06,-1.98428885533e-06,-0.707141988277,0.707071572337
1524842714401478052,1.93897797292e-06,-1.97070278663e-06,-0.707141986262,0.707071574353
1524842714402038097,1.92569568655e-06,-1.957592079e-06,-0.707141984268,0.707071576347
1524842714444777965,1.91319789626e-06,-1.94525678878e-06,-0.707141982335,0.70707157828
1524842714445023059,1.90177084324e-06,-1.93397922795e-06,-0.707141980506,0.70707158011
1524842714494441986,1.89167626251e-06,-1.92401750361e-06,-0.707141978817,0.707071581799
1524842714532166957,1.88314539279e-06,-1.91559961137e-06,-0.707141977303,0.707071583313
1524842714572515010,1.87637368484e-06,-1.90891821829e-06,-0.707141975996,0.70707158462
1524842714572643995,1.87151632808e-06,-1.90412625298e-06,-0.707141974921,0.707071585695
1524842714572711944,1.86868469911e-06,-1.90133340583e-06,-0.707141974099,0.707071586517
1524842714612070083,1.86794381458e-06,-1.90060361868e-06,-0.707141973546,0.707071587071
1524842714650847911,1.86931084185e-06,-1.90195362027e-06,-0.707141973269,0.707071587348
1524842714688322067,1.8727547083e-06,-1.90535254342e-06,-0.707141973272,0.707071587345
1524842714688438892,1.87819681237e-06,-1.9107226306e-06,-0.70714197355,0.707071587066
1524842714728327035,1.88551282299e-06,-1.91794101292e-06,-0.707141974094,0.707071586522
1524842714738717079,1.89453552528e-06,-1.92684252083e-06,-0.707141974887,0.707071585729
1524842714776499986,1.90505864835e-06,-1.93722346505e-06,-0.707141975907,0.707071584709
1524842714776652097,1.91684158498e-06,-1.94884629641e-06,-0.707141977128,0.707071583488
1524842714817540884,1.92961489881e-06,-1.96144504299e-06,-0.707141978517,0.707071582099
1524842714822254896,1.94308648965e-06,-1.97473139676e-06,-0.707141980038,0.707071580577
1524842714860603094,1.95694827852e-06,-1.98840131235e-06,-0.707141981654,0.707071578961
1524842714901499032,1.97088325697e-06,-2.00214196477e-06,-0.707141983323,0.707071577292
1524842714940057039,1.98457274181e-06,-2.01563891018e-06,-0.707141985004,0.707071575611
1524842714940164089,1.99770366741e-06,-2.02858328167e-06,-0.707141986653,0.707071573961
1524842714981369018,2.0099757499e-06,-2.04067885921e-06,-0.707141988231,0.707071572383
1524842714981978893,2.02110835828e-06,-2.05164884841e-06,-0.707141989696,0.707071570918
1524842715020294904,2.03084693668e-06,-2.06124221631e-06,-0.707141991012,0.707071569602
1524842715020416021,2.03896882982e-06,-2.0692394358e-06,-0.707141992144,0.70707156847
1524842715075591087,2.04528837796e-06,-2.0754575105e-06,-0.707141993063,0.70707156755
1524842715076415061,2.0496611666e-06,-2.07975416198e-06,-0.707141993744,0.707071566869
1524842715116825103,2.05198733097e-06,-2.08203108575e-06,-0.707141994168,0.707071566445
1524842715156773090,2.05221384271e-06,-2.08223620083e-06,-0.707141994322,0.707071566292
1524842715156898021,2.0503357232e-06,-2.08036484047e-06,-0.707141994197,0.707071566416
1524842715202049970,2.04639615888e-06,-2.07645985928e-06,-0.707141993794,0.70707156682
1524842715236146926,2.04048551277e-06,-2.07061065071e-06,-0.707141993117,0.707071567496
1524842715276288032,2.03273925784e-06,-2.06295110192e-06,-0.707141992179,0.707071568435
1524842715276473999,2.02333487629e-06,-2.05365652807e-06,-0.707141990997,0.707071569617
1524842715276557922,2.01248779869e-06,-2.04293966067e-06,-0.707141989594,0.70707157102
1524842715317312955,2.00044647394e-06,-2.0310457787e-06,-0.707141987999,0.707071572616
1524842715326565027,1.98748668321e-06,-2.01824709528e-06,-0.707141986244,0.70707157437
1524842715364182949,1.97390522819e-06,-2.00483652827e-06,-0.707141984367,0.707071576248
1524842715408103942,1.96001313866e-06,-1.99112099716e-06,-0.707141982406,0.707071578209
1524842715449297904,1.94612855397e-06,-1.97741439966e-06,-0.707141980402,0.707071580213
1524842715449548959,1.93256944138e-06,-1.96403042856e-06,-0.707141978398,0.707071582218
1524842715449661016,1.91964631906e-06,-1.95127539348e-06,-0.707141976436,0.70707158418
1524842715492355108,1.90765514922e-06,-1.93944121167e-06,-0.707141974556,0.70707158606
1524842715493485927,1.89687056405e-06,-1.92879872748e-06,-0.707141972799,0.707071587818
1524842715567342996,1.88753958083e-06,-1.91959151506e-06,-0.7071419712,0.707071589417
1524842715604537963,1.8798759485e-06,-1.91203030389e-06,-0.707141969793,0.707071590824
1524842715604742050,1.87405525581e-06,-1.9062881563e-06,-0.707141968606,0.707071592011
1524842715644203901,1.87021091314e-06,-1.90249650701e-06,-0.707141967662,0.707071592955
1524842715644292116,1.86843110013e-06,-1.90074215473e-06,-0.70714196698,0.707071593637
1524842715684299945,1.86875674735e-06,-1.90106527525e-06,-0.707141966572,0.707071594045
1524842715684398889,1.87118060106e-06,-1.90345850164e-06,-0.707141966442,0.707071594175
1524842715724293947,1.87564738918e-06,-1.90786709196e-06,-0.707141966591,0.707071594026
1524842715724447965,1.88205508702e-06,-1.91419018174e-06,-0.707141967011,0.707071593606
1524842715764571905,1.89025725281e-06,-1.92228309135e-06,-0.707141967689,0.707071592928
1524842715788109064,1.90006637928e-06,-1.93196063702e-06,-0.707141968606,0.707071592011
1524842715829910993,1.91125818508e-06,-1.94300136808e-06,-0.707141969736,0.70707159088
1524842715830661058,1.92357674763e-06,-1.95515263486e-06,-0.707141971052,0.707071589565
1524842715870094060,1.93674035981e-06,-1.96813637102e-06,-0.707141972518,0.707071588098
1524842715905983924,1.95044797689e-06,-1.98165545703e-06,-0.707141974098,0.707071586518
1524842715944142103,1.96438610522e-06,-1.99540052037e-06,-0.707141975751,0.707071584864
1524842715985640048,1.97823597612e-06,-2.00905701606e-06,-0.707141977437,0.707071583178
1524842715985766887,1.99168084067e-06,-2.02231242585e-06,-0.707141979113,0.707071581502
1524842715985884904,2.00441321742e-06,-2.03486341073e-06,-0.707141980737,0.707071579878
1524842716024564027,2.01614192939e-06,-2.04642275361e-06,-0.707141982268,0.707071578347
1524842716024652957,2.02659876638e-06,-2.05672593292e-06,-0.707141983667,0.707071576947
1524842716046169996,2.03554462352e-06,-2.06553717638e-06,-0.7071419849,0.707071575715
1524842716088215112,2.04277497248e-06,-2.07265485721e-06,-0.707141985933,0.707071574681
1524842716124583959,2.04812454259e-06,-2.07791610817e-06,-0.70714198674,0.707071573874
1524842716124671936,2.05147110315e-06,-2.08120054887e-06,-0.707141987299,0.707071573315
1524842716192411899,2.05273826113e-06,-2.08243304015e-06,-0.707141987593,0.707071573021
1524842716192626953,2.05189720987e-06,-2.0815854034e-06,-0.707141987612,0.707071573002
1524842716232378005,2.04896738907e-06,-2.0786770645e-06,-0.707141987351,0.707071573263
1524842716232543945,2.04401604033e-06,-2.07377460904e-06,-0.707141986814,0.7070715738
1524842716275399923,2.03715666909e-06,-2.06699025764e-06,-0.707141986009,0.707071574606
1524842716287466049,2.02854644739e-06,-2.0584792973e-06,-0.70714198495,0.707071575665
1524842716325129032,2.01838261752e-06,-2.04843652714e-06,-0.707141983658,0.707071576956
1524842716364501953,2.00689797817e-06,-2.0370918001e-06,-0.70714198216,0.707071578455
1524842716405103921,1.99435555663e-06,-2.02470476263e-06,-0.707141980485,0.70707158013
1524842716405435085,1.98104258964e-06,-2.01155891285e-06,-0.707141978669,0.707071581946
1524842716444329023,1.96726394909e-06,-1.99795511261e-06,-0.70714197675,0.707071583866
1524842716444446086,1.9533351647e-06,-1.98420470292e-06,-0.707141974768,0.707071585848
1524842716444493055,1.93957520261e-06,-1.97062237927e-06,-0.707141972764,0.707071587852
1524842716495815038,1.92629916514e-06,-1.9575189903e-06,-0.707141970781,0.707071589836
1524842716496139049,1.91381107868e-06,-1.94519442463e-06,-0.707141968861,0.707071591756
1524842716550462961,1.90239693567e-06,-1.93393074869e-06,-0.707141967044,0.707071593573
1524842716588197946,1.89231814924e-06,-1.92398575144e-06,-0.707141965367,0.70707159525
1524842716588284015,1.88380557016e-06,-1.91558704552e-06,-0.707141963867,0.70707159675
1524842716629257917,1.87705420398e-06,-1.90892685868e-06,-0.707141962574,0.707071598044
1524842716639961957,1.87221874824e-06,-1.90415763399e-06,-0.707141961513,0.707071599105
1524842716676506996,1.86941005215e-06,-1.90138854127e-06,-0.707141960705,0.707071599913
1524842716676625967,1.86869258071e-06,-1.90068297817e-06,-0.707141960165,0.707071600452
1524842716716876029,1.87008293962e-06,-1.90205711925e-06,-0.707141959903,0.707071600715
1524842716717046022,1.8735494959e-06,-1.90547954452e-06,-0.70714195992,0.707071600698
1524842716756059885,1.87901310248e-06,-1.91087195823e-06,-0.707141960213,0.707071600405
1524842716815426111,1.88634891019e-06,-1.91811098019e-06,-0.70714196077,0.707071599847
1524842716852174043,1.89538922506e-06,-1.92703096869e-06,-0.707141961577,0.70707159904
1524842716852288961,1.90592734671e-06,-1.93742781079e-06,-0.707141962611,0.707071598006
1524842716852374076,1.91772229901e-06,-1.94906359333e-06,-0.707141963844,0.707071596773
1524842716892016887,1.93050434436e-06,-1.96167204783e-06,-0.707141965246,0.707071595371
1524842716894242048,1.94398115713e-06,-1.97496464377e-06,-0.70714196678,0.707071593837
1524842716932409048,1.95784451262e-06,-1.98863719248e-06,-0.707141968407,0.70707159221
1524842716980415105,1.97177734086e-06,-2.00237680885e-06,-0.707141970087,0.707071590529
1524842717021164894,1.98546098195e-06,-2.01586907213e-06,-0.707141971779,0.707071588837
1524842717021545886,1.9985824783e-06,-2.02880522261e-06,-0.707141973439,0.707071587177
1524842717060136079,2.01084173594e-06,-2.04088922794e-06,-0.707141975026,0.70707158559
1524842717060252904,2.02195839155e-06,-2.05184455844e-06,-0.7071419765,0.707071584115
1524842717100168943,2.03167822885e-06,-2.06142051625e-06,-0.707141977825,0.70707158279
1524842717102196931,2.03977899572e-06,-2.06939797283e-06,-0.707141978965,0.70707158165
1524842717141072988,2.04607549032e-06,-2.07559438351e-06,-0.707141979893,0.707071580722
1524842717180202960,2.05042380008e-06,-2.07986796551e-06,-0.707141980582,0.707071580033
1524842717180289030,2.052724595e-06,-2.08212094217e-06,-0.707141981013,0.707071579601
1524842717220767021,2.05292540159e-06,-2.0823017801e-06,-0.707141981174,0.70707157944
1524842717221440076,2.05102180445e-06,-2.08040636835e-06,-0.707141981057,0.707071579557
1524842717260998964,2.04705754728e-06,-2.07647811111e-06,-0.707141980661,0.707071579954
1524842717301132917,2.04112353315e-06,-2.0706069347e-06,-0.707141979992,0.707071580623
1524842717340274095,2.03335574425e-06,-2.06292722839e-06,-0.707141979061,0.707071581554
1524842717340477943,2.02393213065e-06,-2.05361476874e-06,-0.707141977887,0.707071582728
1524842717381026029,2.01306853771e-06,-2.04288269616e-06,-0.707141976492,0.707071584123
1524842717381362915,2.00101376701e-06,-2.03097663727e-06,-0.707141974906,0.70707158571
1524842717421497106,1.9880438822e-06,-2.01816908361e-06,-0.707141973161,0.707071587455
1524842717430356979,1.97445589109e-06,-2.00475315581e-06,-0.707141971293,0.707071589324
1524842717467962980,1.96056094788e-06,-1.99103589585e-06,-0.707141969341,0.707071591275
1524842717508186101,1.94667723216e-06,-1.97733124064e-06,-0.707141967348,0.707071593269
1524842717508321046,1.93312266634e-06,-1.96395283827e-06,-0.707141965354,0.707071595263
1524842717549365043,1.92020763957e-06,-1.95120687064e-06,-0.707141963403,0.707071597214
1524842717549814939,1.90822790383e-06,-1.93938504737e-06,-0.707141961535,0.707071599082
1524842717588077068,1.89745780475e-06,-1.92875792978e-06,-0.70714195979,0.707071600828
1524842717629275083,1.88814400313e-06,-1.91956873986e-06,-0.707141958204,0.707071602414
1524842717669465065,1.88049982992e-06,-1.91202779458e-06,-0.70714195681,0.707071603808
1524842717669763088,1.8747004037e-06,-1.90630769237e-06,-0.707141955636,0.707071604982
1524842717708118915,1.87087862332e-06,-1.90253936295e-06,-0.707141954706,0.707071605913
1524842717708240985,1.86912212758e-06,-1.90080907123e-06,-0.707141954037,0.707071606581
1524842717758243083,1.86947128868e-06,-1.90115644228e-06,-0.707141953642,0.707071606976
1524842717769630908,1.87191829001e-06,-1.90357355359e-06,-0.707141953526,0.707071607092
1524842717808424949,1.87640730532e-06,-1.90800511663e-06,-0.707141953689,0.70707160693
1524842717808572053,1.88283577656e-06,-1.91434974089e-06,-0.707141954122,0.707071606496
1524842717848480939,1.89105676212e-06,-1.92246225353e-06,-0.707141954813,0.707071605805
1524842717848678112,1.90088229967e-06,-1.932157022e-06,-0.707141955743,0.707071604875
1524842717889650106,1.91208770783e-06,-1.9432122011e-06,-0.707141956887,0.707071603731
1524842717895118951,1.92441672822e-06,-1.95537481034e-06,-0.707141958214,0.707071602404
1524842717932454109,1.93758739029e-06,-1.96836652347e-06,-0.707141959692,0.707071600925
1524842717972096920,1.95129846347e-06,-1.98189003819e-06,-0.707141961283,0.707071599334
1524842717972203016,1.96523635084e-06,-1.99563588018e-06,-0.707141962948,0.707071597669
1524842718072164058,1.97908226485e-06,-2.00928948661e-06,-0.707141964644,0.707071595973
1524842718073523044,1.99251952306e-06,-2.02253840486e-06,-0.70714196633,0.707071594287
1524842718112065076,2.00524079402e-06,-2.03507944452e-06,-0.707141967963,0.707071592654
1524842718112143993,2.01695513047e-06,-2.04662561576e-06,-0.707141969503,0.707071591113
1524842718112195014,2.0273946274e-06,-2.05691269814e-06,-0.707141970911,0.707071589705
1524842718152343034,2.03632055244e-06,-2.06570528751e-06,-0.707141972151,0.707071588465
1524842718152460098,2.04352880967e-06,-2.07280218395e-06,-0.707141973192,0.707071587423
1524842718169426918,2.04885460985e-06,-2.07804099549e-06,-0.707141974007,0.707071586609
1524842718240417957,2.05217624208e-06,-2.08130185505e-06,-0.707141974573,0.707071586043
1524842718281924962,2.05341786017e-06,-2.08251016287e-06,-0.707141974874,0.707071585742
1524842718282471895,2.05255121784e-06,-2.08163829354e-06,-0.707141974899,0.707071585716
1524842718327896118,2.04959631685e-06,-2.07870622742e-06,-0.707141974646,0.70707158597
1524842718328640937,2.04462094895e-06,-2.07378109276e-06,-0.707141974115,0.7070715865
1524842718369453907,2.0377391453e-06,-2.06697562885e-06,-0.707141973317,0.707071587299
1524842718410053014,2.02910856796e-06,-2.05844560571e-06,-0.707141972265,0.707071588351
1524842718410732984,2.01892690117e-06,-2.04838625819e-06,-0.707141970981,0.707071589635
1524842718448184013,2.00742732826e-06,-2.03702781869e-06,-0.70714196949,0.707071591126
1524842718448292970,1.99487319461e-06,-2.02463024698e-06,-0.707141967824,0.707071592792
1524842718448335886,1.98155198135e-06,-2.01147728188e-06,-0.707141966017,0.7070715946
1524842718493021965,1.96776872578e-06,-1.99786994809e-06,-0.707141964106,0.70707159651
1524842718494121074,1.95383903969e-06,-1.98411966689e-06,-0.707141962133,0.707071598484
1524842718546528100,1.94008188658e-06,-1.97054113089e-06,-0.70714196014,0.707071600478
1524842718588218927,1.92681228058e-06,-1.95744510167e-06,-0.707141958167,0.707071602451
1524842718588330030,1.91433407777e-06,-1.94513129913e-06,-0.707141956258,0.70707160436
1524842718628446102,1.90293302105e-06,-1.93388154295e-06,-0.707141954452,0.707071606166
1524842718637816905,1.8928702007e-06,-1.92395330376e-06,-0.707141952788,0.707071607831
1524842718676543951,1.88437607872e-06,-1.9155738102e-06,-0.7071419513,0.707071609319
1524842718676697015,1.87764521503e-06,-1.90893484987e-06,-0.707141950018,0.7070716106
1524842718717116117,1.87283181472e-06,-1.90418838021e-06,-0.70714194897,0.707071611649
1524842718721388101,1.87004619911e-06,-1.90144304982e-06,-0.707141948175,0.707071612444
1524842718760818004,1.86935228174e-06,-1.90076171246e-06,-0.707141947649,0.70707161297
1524842718800914049,1.87076610625e-06,-1.90215998782e-06,-0.707141947399,0.70707161322
1524842718801199913,1.87425547962e-06,-1.9056059034e-06,-0.707141947429,0.70707161319
1524842718841080904,1.87974070941e-06,-1.91102062567e-06,-0.707141947735,0.707071612884
1524842718869498968,1.88709642856e-06,-1.91828026369e-06,-0.707141948306,0.707071612313
1524842718908103942,1.89615446476e-06,-1.92721870339e-06,-0.707141949125,0.707071611494
1524842718948370933,1.90670768897e-06,-1.93763140954e-06,-0.707141950171,0.707071610448
1524842718948518991,1.91851475661e-06,-1.94928010561e-06,-0.707141951416,0.707071609202
1524842718988178968,1.93130563006e-06,-1.96189822731e-06,-0.707141952829,0.707071607789
1524842718988296031,1.94478775865e-06,-1.97519702248e-06,-0.707141954374,0.707071606244
1524842719028709888,1.9586527734e-06,-1.98887216041e-06,-0.707141956012,0.707071604606
1524842719028832912,1.97258354368e-06,-2.00261069634e-06,-0.707141957703,0.707071602915
1524842719072560071,1.98626143402e-06,-2.01609823419e-06,-0.707141959403,0.707071601214
1524842719072770118,1.99937359553e-06,-2.02902612207e-06,-0.707141961072,0.707071599545
1524842719116314888,2.01162012521e-06,-2.04109851624e-06,-0.707141962668,0.707071597949
1524842719119057893,2.02272092866e-06,-2.05203915289e-06,-0.707141964151,0.707071596466
1524842719165304899,2.03242212964e-06,-2.06159766994e-06,-0.707141965483,0.707071595134
1524842719204488992,2.04050187992e-06,-2.06955533781e-06,-0.707141966631,0.707071593985
1524842719204642057,2.04677543615e-06,-2.07573006445e-06,-0.707141967565,0.707071593051
1524842719244179010,2.05109938804e-06,-2.07998056312e-06,-0.707141968261,0.707071592355
1524842719251328945,2.05337494085e-06,-2.0822095852e-06,-0.707141968699,0.707071591917
1524842719288213968,2.05355017643e-06,-2.08236614542e-06,-0.707141968866,0.70707159175
1524842719328047990,2.05162124195e-06,-2.08044668777e-06,-0.707141968755,0.707071591861
1524842719328161001,2.04763243879e-06,-2.07649516671e-06,-0.707141968366,0.70707159225
1524842719369230985,2.0416752094e-06,-2.07060204077e-06,-0.707141967703,0.707071592913
1524842719390286922,2.03388604503e-06,-2.06290220114e-06,-0.707141966779,0.707071593837
1524842719428128004,2.02444336264e-06,-2.05357188492e-06,-0.707141965611,0.707071595005
1524842719428344964,2.01356342194e-06,-2.04282464079e-06,-0.707141964224,0.707071596393
1524842719468664884,2.0014953766e-06,-2.03090644244e-06,-0.707141962645,0.707071597972
1524842719468946933,1.98851557173e-06,-2.0180900588e-06,-0.707141960907,0.70707159971
1524842719534148931,1.97492122023e-06,-2.00466881247e-06,-0.707141959047,0.70707160157
1524842719573507070,1.96102359987e-06,-1.99094986665e-06,-0.707141957105,0.707071603513
1524842719573836088,1.94714092945e-06,-1.97724719665e-06,-0.70714195512,0.707071605497
1524842719612046003,1.93359108529e-06,-1.963874405e-06,-0.707141953137,0.707071607481
1524842719612149953,1.92068432666e-06,-1.95113754485e-06,-0.707141951196,0.707071609423
1524842719652381896,1.90871619437e-06,-1.93932811689e-06,-0.707141949338,0.70707161128
1524842719652508020,1.89796074663e-06,-1.92871639885e-06,-0.707141947604,0.707071613015
1524842719692219018,1.88866428716e-06,-1.91954526006e-06,-0.707141946029,0.70707161459
1524842719694467067,1.88103972797e-06,-1.91202460393e-06,-0.707141944647,0.707071615972
1524842719733067989,1.87526171697e-06,-1.90632656446e-06,-0.707141943485,0.707071617134
1524842719772960901,1.87146264162e-06,-1.90258156621e-06,-0.707141942567,0.707071618052
1524842719816991090,1.86972959865e-06,-1.90087533986e-06,-0.707141941911,0.707071618708
1524842719817186117,1.87010240223e-06,-1.90124695935e-06,-0.707141941529,0.707071619091
1524842719856703996,1.87257267303e-06,-1.9036879473e-06,-0.707141941425,0.707071619194
1524842719856908082,1.87708403057e-06,-1.90814246815e-06,-0.7071419416,0.707071619019
1524842719897344112,1.88353338411e-06,-1.91450860586e-06,-0.707141942046,0.707071618573
1524842719897799968,1.89177329247e-06,-1.92264069526e-06,-0.707141942749,0.70707161787
1524842719936851024,1.9016153386e-06,-1.93235265492e-06,-0.707141943691,0.707071616928
1524842719969573020,1.91283444209e-06,-1.94342224629e-06,-0.707141944846,0.707071615773
1524842720009490013,1.92517400984e-06,-1.95559615872e-06,-0.707141946185,0.707071614434
1524842720009944915,1.9383518082e-06,-1.96859580697e-06,-0.707141947674,0.707071612945
1524842720052582025,1.95206642208e-06,-1.9821237069e-06,-0.707141949275,0.707071611343
1524842720053246974,1.96600415213e-06,-1.9958702834e-06,-0.707141950949,0.707071609669
1524842720095299005,1.97984619348e-06,-2.0095209567e-06,-0.707141952655,0.707071607963
1524842720113162994,1.99327593047e-06,-2.02276334114e-06,-0.707141954349,0.707071606269
1524842720152173995,2.00598618276e-06,-2.0352943953e-06,-0.707141955991,0.707071604627
1524842720192070007,2.01768623415e-06,-2.04682735781e-06,-0.707141957538,0.707071603079
1524842720232376098,2.02810848501e-06,-2.05709831026e-06,-0.707141958954,0.707071601663
1524842720232510089,2.03701457689e-06,-2.06587221741e-06,-0.707141960201,0.707071600416
1524842720272475004,2.04420084618e-06,-2.07294830646e-06,-0.707141961249,0.707071599368
1524842720272588014,2.04950298603e-06,-2.07816466155e-06,-0.70714196207,0.707071598547
1524842720272634983,2.05279980598e-06,-2.08140192925e-06,-0.707141962642,0.707071597975
1524842720314786911,2.05401600645e-06,-2.08258604958e-06,-0.707141962948,0.707071597668
1524842720321336984,2.053123902e-06,-2.08168995035e-06,-0.70714196298,0.707071597637
1524842720360053062,2.05014405617e-06,-2.07873416595e-06,-0.707141962732,0.707071597885
1524842720400044918,2.04514481035e-06,-2.07378636736e-06,-0.707141962207,0.707071598409
1524842720400139093,2.03824072175e-06,-2.06695981236e-06,-0.707141961415,0.707071599202
1524842720440423011,2.02958994136e-06,-2.05841075306e-06,-0.707141960369,0.707071600247
1524842720446369886,2.01939059508e-06,-2.04833485989e-06,-0.707141959092,0.707071601525
1524842720495218038,2.00787624965e-06,-2.03696274357e-06,-0.707141957608,0.707071603009
1524842720532417058,1.99531056838e-06,-2.02455467664e-06,-0.707141955949,0.707071604669
1524842720532582044,1.98198127572e-06,-2.01139463779e-06,-0.707141954149,0.707071606469
1524842720576307058,1.96819357308e-06,-1.99778381308e-06,-0.707141952246,0.707071608372
1524842720576961040,1.95426315355e-06,-1.98403370378e-06,-0.707141950282,0.707071610336
1524842720616470098,1.94050897643e-06,-1.97045899794e-06,-0.707141948297,0.707071612322
1524842720656074047,1.92724596765e-06,-1.95737036935e-06,-0.707141946334,0.707071614285
1524842720656229972,1.91477781137e-06,-1.9450673684e-06,-0.707141944434,0.707071616185
1524842720696430921,1.90339000025e-06,-1.93383156739e-06,-0.707141942639,0.70707161798
1524842720722990989,1.89334330049e-06,-1.92392011696e-06,-0.707141940985,0.707071619634
1524842720760096073,1.8848677853e-06,-1.91555986145e-06,-0.707141939508,0.707071621112
1524842720801429986,1.87815756786e-06,-1.90894214823e-06,-0.707141938238,0.707071622381
1524842720801882982,1.87336636033e-06,-1.90421844788e-06,-0.707141937202,0.707071623418
1524842720840053081,1.87060395592e-06,-1.90149688786e-06,-0.707141936419,0.707071624201
1524842720840164899,1.8699337167e-06,-1.90083977764e-06,-0.707141935904,0.707071624716
1524842720880095958,1.87137112391e-06,-1.90226218204e-06,-0.707141935667,0.707071624953
1524842720906786918,1.87488342445e-06,-1.90573157648e-06,-0.707141935709,0.707071624911
1524842720944215059,1.88039038138e-06,-1.91116858958e-06,-0.707141936027,0.707071624593
1524842720944319963,1.88776610975e-06,-1.91844881977e-06,-0.707141936609,0.707071624011
1524842720944387912,1.89684195953e-06,-1.92740568185e-06,-0.70714193744,0.70707162318
1524842720985924959,1.9074103737e-06,-1.93783421845e-06,-0.707141938497,0.707071622123
1524842721028450965,1.91922963982e-06,-1.94949579048e-06,-0.707141939753,0.707071620866
1524842721069396972,1.93202942112e-06,-1.96212353872e-06,-0.707141941177,0.707071619443
1524842721069561958,1.94551694311e-06,-1.97542849047e-06,-0.707141942732,0.707071617888
1524842721108450889,1.95938369341e-06,-1.98910617375e-06,-0.707141944379,0.70707161624
1524842721124631881,1.97331248153e-06,-2.00284358537e-06,-0.707141946079,0.70707161454
1524842721164323091,1.98698469739e-06,-2.01632635463e-06,-0.707141947788,0.70707161283
1524842721164484024,2.00008760205e-06,-2.02924593824e-06,-0.707141949465,0.707071611153
1524842721204186916,2.01232148458e-06,-2.04130668283e-06,-0.707141951068,0.70707160955
1524842721204307079,2.02340652009e-06,-2.05223259043e-06,-0.707141952558,0.70707160806
1524842721244119882,2.03308917296e-06,-2.06177363614e-06,-0.707141953897,0.707071606721
1524842721245248079,2.04114799996e-06,-2.06971148972e-06,-0.707141955051,0.707071605566
1524842721284421920,2.04739871678e-06,-2.07586451251e-06,-0.707141955991,0.707071604626
1524842721327054023,2.05169841603e-06,-2.08009191429e-06,-0.707141956693,0.707071603924
1524842721364471912,2.05394883825e-06,-2.08229697455e-06,-0.707141957136,0.707071603481
1524842721364594936,2.05409862045e-06,-2.08242925597e-06,-0.707141957309,0.707071603308
1524842721408157110,2.05214447292e-06,-2.08048575822e-06,-0.707141957203,0.707071603414
1524842721408265113,2.04813125433e-06,-2.07651098586e-06,-0.707141956819,0.707071603798
1524842721448168992,2.0421509462e-06,-2.07059592871e-06,-0.707141956162,0.707071604456
1524842721461230993,2.03434054862e-06,-2.06287598e-06,-0.707141955243,0.707071605374
1524842721500384092,2.02487894487e-06,-2.0535278364e-06,-0.707141954081,0.707071606536
1524842721500555992,2.01398280816e-06,-2.04276545447e-06,-0.7071419527,0.707071607918
1524842721540195941,2.00190164326e-06,-2.03083515409e-06,-0.707141951127,0.707071609491
1524842721546734094,1.98891207638e-06,-2.0180099809e-06,-0.707141949397,0.707071611222
1524842721584188938,1.97531152424e-06,-2.00458345807e-06,-0.707141947544,0.707071613074
1524842721624357938,1.96141138695e-06,-1.99086286968e-06,-0.707141945609,0.70707161501
1524842721664261102,1.94752992167e-06,-1.97716222789e-06,-0.707141943633,0.707071616986
1524842721664410114,1.93398495799e-06,-1.96379508874e-06,-0.707141941658,0.707071618961
1524842721704682111,1.92108662422e-06,-1.95106737577e-06,-0.707141939726,0.707071620893
1524842721705133914,1.90913024873e-06,-1.93927038029e-06,-0.707141937878,0.707071622741
1524842721745676994,1.89838960165e-06,-1.92867409501e-06,-0.707141936154,0.707071624466
1524842721771677017,1.88911062873e-06,-1.91952103572e-06,-0.70714193459,0.70707162603
1524842721808397054,1.88150582249e-06,-1.91202069195e-06,-0.707141933218,0.707071627402
1524842721849149942,1.87574935985e-06,-1.90634473267e-06,-0.707141932067,0.707071628553
1524842721849282026,1.87197311561e-06,-1.90262307676e-06,-0.707141931161,0.70707162946
1524842721849373102,1.87026364529e-06,-1.90094092053e-06,-0.707141930516,0.707071630104
1524842721889333009,1.87066020445e-06,-1.90133678668e-06,-0.707141930146,0.707071630475
1524842721895214080,1.87315385075e-06,-1.90380164288e-06,-0.707141930054,0.707071630567
1524842721944947957,1.87768765008e-06,-1.90827910706e-06,-0.70714193024,0.707071630381
1524842721984766006,1.88415797908e-06,-1.91466673757e-06,-0.707141930697,0.707071629923
1524842721984862089,1.89241689755e-06,-1.92281837712e-06,-0.707141931412,0.707071629209
1524842722034493923,1.90227553452e-06,-1.93254749691e-06,-0.707141932364,0.707071628256
1524842722043188095,1.91350841102e-06,-1.94363146501e-06,-0.70714193353,0.70707162709
1524842722080869913,1.92585859986e-06,-1.95581664162e-06,-0.707141934879,0.707071625741
1524842722120671987,1.93904360572e-06,-1.96882418339e-06,-0.707141936377,0.707071624242
1524842722120764970,1.95276182968e-06,-1.98235642494e-06,-0.707141937988,0.707071622631
1524842722160446882,1.96669947088e-06,-1.99610369218e-06,-0.707141939671,0.707071620948
1524842722160547018,1.98053770787e-06,-2.00975138872e-06,-0.707141941385,0.707071619234
1524842722200064897,1.99395999341e-06,-2.02298719696e-06,-0.707141943087,0.707071617532
1524842722200165033,2.00665929889e-06,-2.03550822561e-06,-0.707141944736,0.707071615883
1524842722252671957,2.0183451398e-06,-2.04702794257e-06,-0.707141946291,0.707071614328
1524842722277251958,2.02875022373e-06,-2.05728273228e-06,-0.707141947712,0.707071612906
1524842722316782951,2.03763656554e-06,-2.06603792914e-06,-0.707141948966,0.707071611652
1524842722356519937,2.04480093593e-06,-2.07309318824e-06,-0.707141950019,0.707071610599
1524842722356713056,2.05007950995e-06,-2.07828707021e-06,-0.707141950845,0.707071609772
1524842722356786966,2.05335161832e-06,-2.08150073584e-06,-0.707141951422,0.707071609195
1524842722396945953,2.05454250837e-06,-2.08266066466e-06,-0.707141951734,0.707071608883
1524842722397309064,2.05362505552e-06,-2.08174033815e-06,-0.70714195177,0.707071608847
1524842722462919950,2.05062038484e-06,-2.07876084474e-06,-0.707141951527,0.70707160909
1524842722463184118,2.04559738756e-06,-2.0737903978e-06,-0.707141951008,0.70707160961
1524842722501058101,2.03867114629e-06,-2.06694277292e-06,-0.70714195022,0.707071610398
1524842722544420957,2.03000030017e-06,-2.0583747044e-06,-0.70714194918,0.707071611438
1524842722544615030,2.01978341634e-06,-2.04828229733e-06,-0.707141947908,0.70707161271
1524842722585903882,2.00825444503e-06,-2.03689653986e-06,-0.70714194643,0.707071614189
1524842722594244003,1.99567736535e-06,-2.02447801649e-06,-0.707141944777,0.707071615842
1524842722632503986,1.9823401448e-06,-2.011310945e-06,-0.707141942984,0.707071617635
1524842722672350883,1.96854814785e-06,-1.9976966722e-06,-0.707141941088,0.707071619531
1524842722712335109,1.95461714772e-06,-1.98394677772e-06,-0.707141939131,0.707071621488
1524842722712491989,1.94086609915e-06,-1.97037594469e-06,-0.707141937154,0.707071623466
1524842722712606906,1.92760983804e-06,-1.95729475783e-06,-0.7071419352,0.70707162542
1524842722752187013,1.91515187612e-06,-1.94500259693e-06,-0.707141933309,0.707071627311
1524842722752285957,1.90377745458e-06,-1.93378078593e-06,-0.707141931523,0.707071629097
1524842722796274900,1.89374701561e-06,-1.92388615517e-06,-0.707141929879,0.707071630742
1524842722841427087,1.88529024158e-06,-1.91554516391e-06,-0.707141928412,0.707071632209
1524842722884762048,1.87860079926e-06,-1.90894871821e-06,-0.707141927153,0.707071633468
1524842722884897947,1.87383190729e-06,-1.90424780147e-06,-0.707141926127,0.707071634494
1524842722884988069,1.87109283023e-06,-1.90155001986e-06,-0.707141925355,0.707071635266
1524842722924318075,1.87044637818e-06,-1.90091713834e-06,-0.707141924852,0.70707163577
1524842722924524068,1.87190747045e-06,-1.90236366698e-06,-0.707141924626,0.707071635996
1524842722957236051,1.87544279403e-06,-1.90585652851e-06,-0.707141924679,0.707071635942
1524842722971733093,1.88097156706e-06,-1.91131581455e-06,-0.707141925007,0.707071635614
1524842723012008905,1.88836738805e-06,-1.91861661351e-06,-0.707141925601,0.707071635021
1524842723053564071,1.89746112865e-06,-1.92759186898e-06,-0.707141926442,0.707071634179
1524842723093122005,1.90804480527e-06,-1.93803620246e-06,-0.70714192751,0.707071633111
1524842723134146928,1.91987633849e-06,-1.9497106132e-06,-0.707141928776,0.707071631845
1524842723135076999,1.93268509306e-06,-1.96234794758e-06,-0.707141930209,0.707071630412
1524842723172095060,1.94617807156e-06,-1.97565901324e-06,-0.707141931773,0.707071628848
1524842723172198057,1.96004661899e-06,-1.98933919829e-06,-0.707141933429,0.707071627191
1524842723172281980,1.97397348638e-06,-2.00307544172e-06,-0.707141935136,0.707071625483
1524842723212095975,1.98764008978e-06,-2.01655339922e-06,-0.707141936853,0.707071623766
1524842723258867979,2.00073380158e-06,-2.02946463773e-06,-0.707141938538,0.707071622082
1524842723296122074,2.01295510322e-06,-2.04151369424e-06,-0.707141940148,0.707071620471
1524842723296211957,2.0240244403e-06,-2.05242483824e-06,-0.707141941643,0.707071618975
1524842723336049079,2.03368861959e-06,-2.06194838225e-06,-0.707141942988,0.707071617631
1524842723336153030,2.04172660255e-06,-2.06986639624e-06,-0.707141944148,0.707071616471
1524842723376342058,2.04795456468e-06,-2.0759976956e-06,-0.707141945093,0.707071615525
1524842723376477003,2.05223010208e-06,-2.08020198681e-06,-0.707141945799,0.707071614819
1524842723416986942,2.05445549047e-06,-2.08238307799e-06,-0.707141946247,0.707071614371
1524842723417342901,2.05457992298e-06,-2.08249108023e-06,-0.707141946424,0.707071614194
1524842723457798957,2.05260067232e-06,-2.08052354851e-06,-0.707141946323,0.707071614295
1524842723513377904,2.0485631547e-06,-2.07652553691e-06,-0.707141945943,0.707071614675
1524842723553755044,2.04255989044e-06,-2.07058856722e-06,-0.70714194529,0.707071615328
1524842723554486036,2.03472838775e-06,-2.06284853359e-06,-0.707141944377,0.707071616242
1524842723554913043,2.0252479957e-06,-2.05348259199e-06,-0.70714194322,0.707071617399
1524842723596194982,2.01433580028e-06,-2.04270510634e-06,-0.707141941844,0.707071618775
1524842723596338987,2.00224165696e-06,-2.0307627414e-06,-0.707141940277,0.707071620343
1524842723622750997,1.98924247157e-06,-2.01792881884e-06,-0.707141938552,0.707071622068
1524842723644696950,1.97563586395e-06,-2.0044970618e-06,-0.707141936706,0.707071623914
1524842723684178113,1.96173335604e-06,-1.99077487351e-06,-0.707141934778,0.707071625842
1524842723724169969,1.9478532421e-06,-1.97707630302e-06,-0.707141932809,0.707071627811
1524842723765567064,1.93431330362e-06,-1.96371485837e-06,-0.707141930842,0.707071629779
1524842723804178953,1.9214235371e-06,-1.95099633252e-06,-0.707141928918,0.707071631703
1524842723804306983,1.90947905775e-06,-1.9392118063e-06,-0.707141927079,0.707071633542
1524842723804374933,1.89875334685e-06,-1.92863098638e-06,-0.707141925364,0.707071635257
1524842723844089984,1.88949199081e-06,-1.91949603514e-06,-0.707141923809,0.707071636812
1524842723851115942,1.8819070627e-06,-1.91201602724e-06,-0.707141922448,0.707071638174
1524842723888284921,1.87617226728e-06,-1.90636216543e-06,-0.707141921307,0.707071639315
1524842723928219079,1.87241896694e-06,-1.90266386331e-06,-0.707141920411,0.707071640211
1524842723969448089,1.87073317522e-06,-1.90100578195e-06,-0.707141919777,0.707071640845
1524842724008533954,1.87115358859e-06,-1.90142589308e-06,-0.707141919417,0.707071641205
1524842724008791923,1.87367070284e-06,-1.90391460927e-06,-0.707141919336,0.707071641286
1524842724050112962,1.87822702973e-06,-1.90841500187e-06,-0.707141919533,0.707071641089
1524842724050723075,1.88471841343e-06,-1.91482410454e-06,-0.70714192,0.707071640621
1524842724050961971,1.89299641581e-06,-1.922995268e-06,-0.707141920725,0.707071639896
1524842724098390102,1.90287171201e-06,-1.93274151644e-06,-0.707141921688,0.707071638934
1524842724098776102,1.91411842532e-06,-1.94383982594e-06,-0.707141922863,0.707071637758
1524842724137482881,1.9264792956e-06,-1.95603622758e-06,-0.707141924222,0.707071636399
1524842724176286935,1.93967156646e-06,-1.96905162146e-06,-0.707141925729,0.707071634892
1524842724176400899,1.9533934562e-06,-1.98258816179e-06,-0.707141927348,0.707071633272
1524842724216183900,1.96733106356e-06,-1.99633607579e-06,-0.707141929039,0.707071631581
1524842724223507881,1.98116555114e-06,-2.00998075218e-06,-0.707141930761,0.70707162986
1524842724260548114,1.99458044143e-06,-2.02320994214e-06,-0.70714193247,0.70707162815
1524842724301546096,2.00726885854e-06,-2.03572090557e-06,-0.707141934125,0.707071626495
1524842724302270889,2.01894055087e-06,-2.04722734033e-06,-0.707141935686,0.707071624934
1524842724340069055,2.02932853286e-06,-2.05746593471e-06,-0.707141937113,0.707071623506
1524842724344122886,2.03819519503e-06,-2.06620239343e-06,-0.707141938372,0.707071622248
1524842724385577917,2.04533774157e-06,-2.07323680019e-06,-0.70714193943,0.707071621189
1524842724424196958,2.05059283107e-06,-2.0784081925e-06,-0.70714194026,0.707071620358
1524842724424355030,2.05384031543e-06,-2.08159824557e-06,-0.707141940842,0.707071619777
1524842724464102029,2.05500598897e-06,-2.08273397911e-06,-0.707141941158,0.707071619461
1524842724468370914,2.05406328789e-06,-2.08178942789e-06,-0.707141941198,0.707071619421
1524842724508260011,2.05103389921e-06,-2.0787862348e-06,-0.707141940959,0.70707161966
1524842724548264980,2.04598726364e-06,-2.07379315486e-06,-0.707141940443,0.707071620175
1524842724548641920,2.0390389884e-06,-2.06692448171e-06,-0.70714193966,0.707071620959
1524842724590910911,2.03034820095e-06,-2.058337431e-06,-0.707141938624,0.707071621995
1524842724618515014,2.02011390865e-06,-2.04822854175e-06,-0.707141937357,0.707071623263
1524842724656090974,2.00857044395e-06,-2.03682917895e-06,-0.707141935884,0.707071624736
1524842724696208953,1.99598210207e-06,-2.02440023824e-06,-0.707141934236,0.707071626384
1524842724696350097,1.98263709168e-06,-2.01122617567e-06,-0.707141932448,0.707071628172
1524842724736154079,1.96884093999e-06,-1.99760849734e-06,-0.707141930559,0.707071630061
1524842724736258983,1.95490949924e-06,-1.98385886108e-06,-0.707141928609,0.707071632012
1524842724776057958,1.94116171809e-06,-1.97029194327e-06,-0.707141926639,0.707071633982
1524842724776135921,1.92791234191e-06,-1.95721823919e-06,-0.707141924692,0.707071635929
1524842724824902057,1.91546470904e-06,-1.94493695669e-06,-0.70714192281,0.707071637811
1524842724825843095,1.90410380802e-06,-1.93372917094e-06,-0.707141921032,0.707071639589
1524842724864190101,1.89408975624e-06,-1.9238513906e-06,-0.707141919398,0.707071641224
1524842724904063940,1.88565184502e-06,-1.91552968941e-06,-0.70714191794,0.707071642682
1524842724904177904,1.87898329342e-06,-1.9089545314e-06,-0.70714191669,0.707071643932
1524842724949651956,1.87423682638e-06,-1.90427641298e-06,-0.707141915675,0.707071644948
1524842724962724924,1.87152117948e-06,-1.90160241778e-06,-0.707141914913,0.70707164571
1524842725004147052,1.87089861095e-06,-1.90099376629e-06,-0.70714191442,0.707071646203
1524842725004245996,1.87238347762e-06,-1.90246441408e-06,-0.707141914204,0.707071646419
1524842725051419973,1.87594190676e-06,-1.90598073141e-06,-0.707141914267,0.707071646355
1524842725052401065,1.8814925722e-06,-1.91146227279e-06,-0.707141914606,0.707071646016
1524842725088829040,1.88890855564e-06,-1.91878361688e-06,-0.707141915209,0.707071645413
1524842725128077030,1.89802025215e-06,-1.9277772371e-06,-0.707141916061,0.707071644561
1524842725128201007,1.9086192512e-06,-1.93823733424e-06,-0.707141917138,0.707071643484
1524842725167974948,1.92046310733e-06,-1.94992454623e-06,-0.707141918413,0.707071642209
1524842725195208072,1.93328088778e-06,-1.96257142642e-06,-0.707141919855,0.707071640767
1524842725232245922,1.946779373e-06,-1.97588856405e-06,-0.707141921427,0.707071639194
1524842725232400894,1.96064976676e-06,-1.9895712071e-06,-0.707141923091,0.70707163753
1524842725272038936,1.97457476201e-06,-2.0033062387e-06,-0.707141924806,0.707071635815
1524842725296437025,1.9882358024e-06,-2.01677934195e-06,-0.70714192653,0.707071634091
1524842725337935924,2.00132037217e-06,-2.02968219416e-06,-0.70714192822,0.7070716324
1524842725338433027,2.01352914671e-06,-2.04171952427e-06,-0.707141929836,0.707071630784
1524842725376241922,2.02458284289e-06,-2.05261586994e-06,-0.707141931337,0.707071629283
1524842725376333951,2.0342286101e-06,-2.06212188186e-06,-0.707141932687,0.707071627933
1524842725416147947,2.04224581566e-06,-2.07002003111e-06,-0.707141933851,0.707071626768
1524842725419132947,2.04845109505e-06,-2.07612958767e-06,-0.707141934801,0.707071625819
1524842725458132982,2.05270254866e-06,-2.08031075474e-06,-0.707141935511,0.707071625108
1524842725520989894,2.05490298795e-06,-2.08246786997e-06,-0.707141935963,0.707071624656
1524842725557864904,2.05500216168e-06,-2.08255159272e-06,-0.707141936144,0.707071624475
1524842725557996034,2.05299790553e-06,-2.08056003305e-06,-0.707141936046,0.707071624573
1524842725601845026,2.04893619284e-06,-2.07653879488e-06,-0.70714193567,0.707071624949
1524842725602313041,2.04291008217e-06,-2.07057993128e-06,-0.707141935021,0.707071625599
1524842725640302896,2.03505758989e-06,-2.06281983681e-06,-0.707141934111,0.707071626509
1524842725640431880,2.02555853005e-06,-2.05343612705e-06,-0.707141932958,0.707071627662
1524842725680236101,2.01463040098e-06,-2.04264357123e-06,-0.707141931586,0.707071629033
1524842725685683012,2.00252340775e-06,-2.03068917923e-06,-0.707141930024,0.707071630596
1524842725724522113,1.98951473504e-06,-2.01784654775e-06,-0.707141928305,0.707071632316
1524842725764367103,1.97590220518e-06,-2.00440959843e-06,-0.707141926464,0.707071634157
1524842725764513969,1.96199746015e-06,-1.9906858538e-06,-0.707141924542,0.707071636079
1524842725805483102,1.94811883089e-06,-1.97698939752e-06,-0.70714192258,0.707071638041
1524842725815886974,1.93458404996e-06,-1.9636336892e-06,-0.70714192062,0.707071640002
1524842725853055953,1.9217029807e-06,-1.95092439011e-06,-0.707141918704,0.707071641918
1524842725892081975,1.90977052452e-06,-1.93915237002e-06,-0.707141916873,0.707071643749
1524842725892215013,1.89905987233e-06,-1.92858704902e-06,-0.707141915166,0.707071645456
1524842725932804107,1.88981625149e-06,-1.91947023425e-06,-0.70714191362,0.707071647002
1524842725944041013,1.882251314e-06,-1.91201058503e-06,-0.707141912268,0.707071648355
1524842725980197906,1.8765382927e-06,-1.9063788384e-06,-0.707141911137,0.707071649486
1524842725980314016,1.87280803638e-06,-1.902703901e-06,-0.70714191025,0.707071650372
1524842726021337985,1.87114601657e-06,-1.90106989952e-06,-0.707141909626,0.707071650997
1524842726043092966,1.87159037139e-06,-1.90151425399e-06,-0.707141909276,0.707071651347
1524842726080133914,1.87413103362e-06,-1.90402682171e-06,-0.707141909205,0.707071651418
