%time,field.x,field.y,field.z
1524842709446979999,0.0,0.0,0.0
1524842709490245103,2.6384429982e-07,7.66635759764e-15,0.0
1524842709495167970,2.90228694334e-07,9.35602761058e-15,0.0
1524842709541729927,5.48794717771e-07,3.03353448454e-14,0.0
1524842709547542095,6.01563145067e-07,3.6385151601e-14,0.0
1524842709570976972,6.27947368276e-07,3.94853523274e-14,0.0
1524842709600482940,6.54331519147e-07,4.21417839845e-14,0.0
1524842709626852035,7.07099846717e-07,4.92593448251e-14,0.0
1524842709647836923,7.59868125282e-07,5.69645484406e-14,0.0
1524842709677211046,8.65404530602e-07,7.15878289113e-14,0.0
1524842709698652982,8.91788623207e-07,7.58165757512e-14,0.0
1524842709732888936,9.49833496113e-07,8.49490809429e-14,0.0
1524842709757807016,1.1081375342e-06,1.14149517243e-13,0.0
1524842709779759883,1.1820125301e-06,1.3145741407e-13,0.0
1524842709805517911,1.2664410502e-06,1.50531482411e-13,0.0
1524842709828042984,1.37197647149e-06,1.80298298009e-13,0.0
1524842709854540109,0.000348557921891,9.97815122134e-11,0.0
1524842709872991085,0.000456223310174,-1.78261352433e-10,0.0
1524842709898119926,0.000564398570784,-5.3161660119e-10,0.0
1524842709938735961,0.0177450146859,-7.04535790836e-08,0.0
1524842709953393936,0.023804469278,-1.01609798162e-07,0.0
1524842709976978063,0.0395863238149,-1.83862204256e-07,0.0
1524842710000004053,0.0542394853269,-2.60495875304e-07,0.0
1524842710027843952,0.0666794916181,-3.25715196826e-07,0.0
1524842710047715902,0.0725644616933,-3.56691853446e-07,0.0
1524842710080004930,0.111012267279,-5.57847225731e-07,0.0
1524842710107856035,0.128101376669,-6.47090964963e-07,0.0
1524842710125902891,0.138727742895,-7.01710267034e-07,0.0
1524842710152707099,0.16460662667,-8.34215520573e-07,0.0
1524842710179264068,0.203894825265,-9.90248931193e-07,0.0
1524842710198255062,0.213838869307,-1.00863634143e-06,0.0
1524842710228837966,0.223905042266,-1.02569888246e-06,0.0
1524842710259955883,0.264214287138,-1.07618999719e-06,0.0
1524842710281528949,0.304691257345,-1.11328738852e-06,0.0
1524842710304579973,0.32495002461,-1.13036772884e-06,0.0
1524842710327852010,0.345212323337,-1.14701668027e-06,0.0
1524842710349292993,0.355451155731,-1.15528821285e-06,0.0
1524842710374886035,0.365740255205,-1.16353194473e-06,0.0
1524842710405534982,0.385700581699,-1.17920574582e-06,0.0
1524842710442322015,0.446450948926,-1.2256139663e-06,0.0
1524842710452208042,0.479115465676,-1.24993684286e-06,0.0
1524842710478080987,0.507508484454,-1.27053712706e-06,0.0
1524842710507129907,0.527698478521,-1.28472241113e-06,0.0
1524842710530626058,0.547902137304,-1.29876064333e-06,0.0
1524842710553999900,0.558117908165,-1.30581278407e-06,0.0
1524842710585309982,0.588295639005,-1.32624709573e-06,0.0
1524842710605882883,0.608503501916,-1.33970165178e-06,0.0
1524842710632766008,0.641086948519,-1.36101337026e-06,0.0
1524842710658530950,0.68171555606,-1.38684143145e-06,0.0
1524842710679570913,0.702017129111,-1.39954224759e-06,0.0
1524842710705018043,0.722312500373,-1.4120757549e-06,0.0
1524842710732650995,0.770746149908,-1.44197088004e-06,0.0
1524842710754766941,0.780939309007,-1.44820964891e-06,0.0
1524842710782516002,0.823392662517,-1.4739031222e-06,0.0
1524842710805516004,0.831326149802,-1.47861596546e-06,0.0
1524842710829835891,0.863829347481,-1.49781754606e-06,0.0
1524842710859982013,0.884099204837,-1.50928358316e-06,0.0
1524842710879872083,0.91236252425,-1.52517421407e-06,0.0
1524842710907577037,0.944737459898,-1.54321333223e-06,0.0
1524842710929939031,0.964991754397,-1.55434055207e-06,0.0
1524842710953149080,0.975203585135,-1.55991400407e-06,0.0
1524842710979502916,0.985228815625,-1.56533480024e-06,0.0
1524842711010973930,1.04568691073,-1.59754662926e-06,0.0
1524842711028013944,1.05585426351,-1.60281626184e-06,0.0
1524842711055133104,1.06604892133,-1.60804552332e-06,0.0
1524842711085691928,1.11437356775,-1.63222790581e-06,0.0
1524842711103405952,1.12453381606,-1.63716508283e-06,0.0
1524842711139134883,1.16695402663,-1.65724842666e-06,0.0
1524842711163278102,1.18715009546,-1.66620228395e-06,0.0
1524842711183928966,1.20734719436,-1.67494818224e-06,0.0
1524842711209121942,1.25562708345,-1.69500377327e-06,0.0
1524842711237267017,1.26772676833,-1.69973669206e-06,0.0
1524842711257375001,1.27786736289,-1.70366413048e-06,0.0
1524842711288610935,1.28792165292,-1.7074947978e-06,0.0
1524842711307997941,1.31611952365,-1.71803601332e-06,0.0
1524842711334342956,1.35632700811,-1.73230427384e-06,0.0
1524842711354398012,1.3664419725,-1.7357652479e-06,0.0
1524842711385538101,1.40881304753,-1.7498479804e-06,0.0
1524842711410708904,1.44915451021,-1.76244272096e-06,0.0
1524842711431622982,1.45930229153,-1.76545550606e-06,0.0
1524842711458434104,1.48973079699,-1.77423090966e-06,0.0
1524842711490035057,1.52993028311,-1.7846440353e-06,0.0
1524842711512182950,1.55007393219,-1.7895319202e-06,0.0
1524842711538806915,1.57022288573,-1.79426944986e-06,0.0
1524842711559076070,1.59037374527,-1.79890725105e-06,0.0
1524842711588895082,1.63067524959,-1.80769808861e-06,0.0
1524842711615026950,1.65082444236,-1.81185318633e-06,0.0
1524842711635596036,1.66095396207,-1.81383121874e-06,0.0
1524842711661439895,1.69110860185,-1.8195443174e-06,0.0
1524842711690360069,1.71125082747,-1.82302901292e-06,0.0
1524842711715146064,1.73139213106,-1.82652914348e-06,0.0
1524842711744781017,1.77959222163,-1.83464807173e-06,0.0
1524842711770277976,1.79966952239,-1.83791704978e-06,0.0
1524842711789371013,1.80975106322,-1.83952656967e-06,0.0
1524842711828319072,1.85990424764,-1.84705103721e-06,0.0
1524842711840100049,1.86997878609,-1.84844658094e-06,0.0
1524842711868616104,1.90005772667,-1.85245521277e-06,0.0
1524842711894579887,1.92013639159,-1.85504871199e-06,0.0
1524842711917383909,1.96033297227,-1.85991413628e-06,0.0
1524842711941595077,1.98041101637,-1.86222524436e-06,0.0
1524842711966463088,1.99048062379,-1.86333629963e-06,0.0
1524842711989466905,2.00056094033,-1.86442565671e-06,0.0
1524842712024287939,2.05279919789,-1.8695932206e-06,0.0
1524842712041686058,2.08090903485,-1.87195314846e-06,0.0
1524842712073518991,2.11307930189,-1.87400005143e-06,0.0
1524842712090692043,2.14119002088,-1.87536892751e-06,0.0
1524842712114335060,2.15125952065,-1.87578098814e-06,0.0
1524842712145852088,2.18130283075,-1.8767316768e-06,0.0
1524842712166476964,2.20136524421,-1.87717851709e-06,0.0
1524842712191876888,2.22142855655,-1.87741078238e-06,0.0
1524842712214780092,2.23148452376,-1.87744675682e-06,0.0
1524842712250848054,2.2816103911,-1.87687625017e-06,0.0
1524842712266752004,2.30167162842,-1.87619751886e-06,0.0
1524842712290452957,2.31172363975,-1.8757027509e-06,0.0
1524842712322635889,2.3338700023,-1.87433979341e-06,0.0
1524842712345005989,2.37397728529,-1.87107320783e-06,0.0
1524842712368570089,2.38404271733,-1.86993241976e-06,0.0
1524842712398957967,2.40205791746,-1.8677192609e-06,0.0
1524842712427598953,2.44215391783,-1.86189875886e-06,0.0
1524842712440268039,2.45220178943,-1.8601954522e-06,0.0
1524842712477821111,2.48225505352,-1.85470468409e-06,0.0
1524842712496166944,2.53447808813,-1.84379414204e-06,0.0
1524842712524677991,2.55456077973,-1.83894160254e-06,0.0
1524842712541026115,2.56462132582,-1.83645090943e-06,0.0
1524842712576736927,2.60266813519,-1.82649469402e-06,0.0
1524842712591322898,2.61271297385,-1.82367888059e-06,0.0
1524842712621340990,2.65484346229,-1.81134410019e-06,0.0
1524842712642556905,2.66489569053,-1.80817196519e-06,0.0
1524842712676542997,2.7230272895,-1.78915407404e-06,0.0
1524842712695189952,2.74306979056,-1.78230469248e-06,0.0
1524842712719294071,2.75310791883,-1.77882539824e-06,0.0
1524842712754878044,2.78315399643,-1.76832305644e-06,0.0
1524842712771094083,2.80319738648,-1.76126855046e-06,0.0
1524842712795814990,2.8353347614,-1.74979380185e-06,0.0
1524842712820314884,2.85539512916,-1.74247893521e-06,0.0
1524842712842573881,2.86544371415,-1.73875100868e-06,0.0
1524842712876115083,2.90352570784,-1.72449019002e-06,0.0
1524842712897840023,2.93563417775,-1.71214109192e-06,0.0
1524842712917176008,2.94567849322,-1.70819454219e-06,0.0
1524842712953887939,2.9958168716,-1.68798269568e-06,0.0
1524842712969778060,3.00586167222,-1.6838328039e-06,0.0
1524842712999058961,3.03593550875,-1.67121251157e-06,0.0
1524842713023920059,3.05599468097,-1.66262543019e-06,0.0
1524842713052136898,3.09611165133,-1.64491125036e-06,0.0
1524842713073157072,3.10615398236,-1.64037076684e-06,0.0
1524842713101233005,3.11616784961,-1.6358060333e-06,0.0
1524842713138025999,3.17628024144,-1.6073967433e-06,0.0
1524842713147564888,3.1863122106,-1.60243490467e-06,0.0
1524842713177272081,3.20433237535,-1.59343055784e-06,0.0
1524842713202050924,3.22436310537,-1.58322486934e-06,0.0
1524842713225189924,3.2443950562,-1.57272841492e-06,0.0
1524842713257164955,3.28445960649,-1.55094888779e-06,0.0
1524842713276052951,3.30449164041,-1.53980715034e-06,0.0
1524842713302848100,3.33656907434,-1.5215000221e-06,0.0
1524842713326668977,3.35661795009,-1.50982310462e-06,0.0
1524842713356715917,3.37666657914,-1.4976899248e-06,0.0
1524842713374842882,3.38669882405,-1.49155929242e-06,0.0
1524842713412327051,3.43678371683,-1.46017593407e-06,0.0
1524842713437711954,3.44478314354,-1.45502338632e-06,0.0
1524842713459167957,3.49691298155,-1.42091704763e-06,0.0
1524842713486907958,3.50490757,-1.41530202818e-06,0.0
1524842713504458904,3.51493102127,-1.4082149753e-06,0.0
1524842713545909881,3.57704323803,-1.36293284257e-06,0.0
1524842713558136940,3.59708523652,-1.34758877355e-06,0.0
1524842713591948986,3.61712682561,-1.33175065949e-06,0.0
1524842713610608100,3.65720856931,-1.29987420174e-06,0.0
1524842713632339000,3.66723600511,-1.29172053316e-06,0.0
1524842713658385038,3.67724794109,-1.28345861729e-06,0.0
1524842713680527925,3.68727514977,-1.27518354335e-06,0.0
1524842713714109897,3.7253011678,-1.24328011085e-06,0.0
1524842713735553979,3.77739812675,-1.19857031393e-06,0.0
1524842713755974054,3.78742169643,-1.18982657781e-06,0.0
1524842713787564039,3.81747035283,-1.16344445173e-06,0.0
1524842713814131975,3.85754188448,-1.12765621088e-06,0.0
1524842713832604885,3.87757717725,-1.10945500574e-06,0.0
1524842713857928037,3.88760072694,-1.10037499317e-06,0.0
1524842713883821964,3.89761147603,-1.09135520962e-06,0.0
1524842713912906885,3.93767955779,-1.05472900268e-06,0.0
1524842713930900096,3.94770221797,-1.0454981632e-06,0.0
1524842713961060047,3.97774547027,-1.01769630428e-06,0.0
1524842713989661931,4.01781052912,-9.80238778215e-07,0.0
1524842714006470918,4.02783192746,-9.70773297885e-07,0.0
1524842714043026924,4.06585543254,-9.34464322926e-07,0.0
1524842714056878089,4.07587040421,-9.2481780073e-07,0.0
1524842714092623949,4.09789073564,-9.03517854378e-07,0.0
1524842714116168975,4.12592094511,-8.76230781913e-07,0.0
1524842714138004064,4.15796675714,-8.44753890291e-07,0.0
1524842714166184902,4.19802408325,-8.04426863741e-07,0.0
1524842714183572053,4.20804187064,-7.9419417469e-07,0.0
1524842714219923019,4.23806527304,-7.63142980071e-07,0.0
1524842714233927965,4.24808059535,-7.5261618468e-07,0.0
1524842714262142896,4.26609083007,-7.33573461559e-07,0.0
1524842714285969018,4.28610658471,-7.12153625528e-07,0.0
1524842714322191953,4.34615582404,-6.4676337605e-07,0.0
1524842714333354949,4.35616676067,-6.35690886974e-07,0.0
1524842714371613979,4.40620334176,-5.79395097466e-07,0.0
1524842714389394998,4.42621901206,-5.56437957938e-07,0.0
1524842714408732891,4.4362292154,-5.44796351163e-07,0.0
1524842714439385890,4.45824802108,-5.18961276923e-07,0.0
1524842714467684984,4.51830752097,-4.47327308497e-07,0.0
1524842714486968994,4.52832026645,-4.35141926924e-07,0.0
1524842714512469053,4.53833015697,-4.22846074581e-07,0.0
1524842714547944068,4.5783753359,-3.73251218279e-07,0.0
1524842714559995889,4.58838910787,-3.60673474784e-07,0.0
1524842714593451023,4.61841943594,-3.22615844057e-07,0.0
1524842714609828948,4.62843312579,-3.09742411326e-07,0.0
1524842714648066997,4.65846245148,-2.70878723601e-07,0.0
1524842714664335966,4.70649473059,-2.07960244413e-07,0.0
1524842714685956954,4.71650410096,-1.94703413837e-07,0.0
1524842714714078903,4.72650697478,-1.81378059666e-07,0.0
1524842714743264913,4.74651950247,-1.54672228748e-07,0.0
1524842714762520074,4.75652785261,-1.41207717192e-07,0.0
1524842714800127029,4.81857896194,-5.68529288837e-08,0.0
1524842714812800884,4.82858965207,-4.30852701492e-08,0.0
1524842714849340915,4.87863538372,2.63222661787e-08,0.0
1524842714868279933,4.89865394459,5.43742519581e-08,0.0
1524842714896008968,4.93869049518,1.11007452379e-07,0.0
1524842714933434009,4.94870148027,1.25207421264e-07,0.0
1524842714972965002,4.97872588158,1.68019129416e-07,0.0
1524842714973380088,4.98873660182,1.82391937154e-07,0.0
1524842715012156009,5.01876030838,2.25662052767e-07,0.0
1524842715019110918,5.06679345333,2.95617313141e-07,0.0
1524842715057756900,5.07680157273,3.10191430512e-07,0.0
1524842715096100091,5.08680282511,3.247756614e-07,0.0
1524842715096188068,5.10681273914,3.53997742557e-07,0.0
1524842715136014938,5.14683267136,4.12723004684e-07,0.0
1524842715139265060,5.15683882884,4.27522694491e-07,0.0
1524842715179018974,5.206866513,5.02069696915e-07,0.0
1524842715216387033,5.21687258383,5.17224518569e-07,0.0
1524842715256308078,5.23888792085,5.50744226223e-07,0.0
1524842715256465911,5.25890221534,5.81551856883e-07,0.0
1524842715297260046,5.26891007947,5.97087284819e-07,0.0
1524842715305954933,5.30693005868,6.56646893061e-07,0.0
1524842715344264030,5.31693676266,6.72504460777e-07,0.0
1524842715389028072,5.37897904336,7.72130553766e-07,0.0
1524842715389177083,5.41899929375,8.37549818463e-07,0.0
1524842715428200006,5.42900638996,8.54129339664e-07,0.0
1524842715428335905,5.43901229819,8.70809531597e-07,0.0
1524842715472441911,5.4590252466,9.04182167407e-07,0.0
1524842715472910881,5.49905082294,9.71829942972e-07,0.0
1524842715512157917,5.54707543677,1.05459429794e-06,0.0
1524842715553680896,5.55708118867,1.07215073962e-06,0.0
1524842715554203033,5.56708251242,1.0897713685e-06,0.0
1524842715592047929,5.57708758211,1.10747971325e-06,0.0
1524842715602174043,5.63911324573,1.21831768073e-06,0.0
1524842715640048027,5.64911875086,1.23645319122e-06,0.0
1524842715681582927,5.69914651235,1.32791082184e-06,0.0
1524842715682219028,5.71915752524,1.36504066124e-06,0.0
1524842715720355033,5.72916374804,1.38360454105e-06,0.0
1524842715724841117,5.73916835864,1.4021700774e-06,0.0
1524842715764535903,5.79920029861,1.51461309786e-06,0.0
1524842715806250095,5.809206328,1.53354763582e-06,0.0
1524842715845668077,5.82721003626,1.56770149668e-06,0.0
1524842715846067905,5.87923588377,1.6666300826e-06,0.0
1524842715885783910,5.88924129112,1.68579077495e-06,0.0
1524842715886285066,5.8992455593,1.70491142508e-06,0.0
1524842715924876928,5.90925098743,1.72413581784e-06,0.0
1524842715928356885,5.91925511839,1.74343549689e-06,0.0
1524842715968322992,5.96726956838,1.83601535451e-06,0.0
1524842716008311033,5.97727337024,1.8553570399e-06,0.0
1524842716048048019,6.02728657058,1.9522754614e-06,0.0
1524842716048125028,6.07930596327,2.05338240171e-06,0.0
1524842716089622020,6.09931440186,2.09252039791e-06,0.0
1524842716089692115,6.10931885486,2.11215141274e-06,0.0
1524842716133243083,6.11932279932,2.13180223921e-06,0.0
1524842716136154890,6.15933945498,2.21071107717e-06,0.0
1524842716176724910,6.16934407214,2.2305190268e-06,0.0
1524842716216394901,6.19935574858,2.29014664633e-06,0.0
1524842716216505050,6.20936030822,2.31015419157e-06,0.0
1524842716256642103,6.2593801051,2.41063678729e-06,0.0
1524842716256855964,6.27938773144,2.45095318915e-06,0.0
1524842716296361923,6.28939209359,2.47124552622e-06,0.0
1524842716308595895,6.30739438035,2.50783127823e-06,0.0
1524842716347982883,6.34740328785,2.58954427996e-06,0.0
1524842716388663053,6.35740606839,2.61012926308e-06,0.0
1524842716388851881,6.37941202717,2.65558844561e-06,0.0
1524842716428652048,6.38941507541,2.67636115197e-06,0.0
1524842716439757108,6.42742308434,2.75571761753e-06,0.0
1524842716476067066,6.49944579218,2.90864132039e-06,0.0
1524842716516398906,6.50944926787,2.93024023022e-06,0.0
1524842716516597986,6.53945575609,2.99524183058e-06,0.0
1524842716559292078,6.54945895099,3.01731304278e-06,0.0
1524842716565227031,6.55946211228,3.03946173927e-06,0.0
1524842716605071067,6.61948098998,3.17342473005e-06,0.0
1524842716645083904,6.62948438039,3.19602390938e-06,0.0
1524842716645196914,6.63948713284,3.21873521782e-06,0.0
1524842716685601949,6.65949321768,3.26421360198e-06,0.0
1524842716696022033,6.72750621963,3.42122416468e-06,0.0
1524842716732289075,6.73750835606,3.44466461255e-06,0.0
1524842716773511886,6.76751333064,3.51525517799e-06,0.0
1524842716774014949,6.80752029759,3.61006929519e-06,0.0
1524842716812680006,6.81752218935,3.63393133471e-06,0.0
1524842716813219070,6.8275236879,3.65782933033e-06,0.0
1524842716852072000,6.8795340292,3.78259078434e-06,0.0
1524842716857189893,6.88953629983,3.80675247959e-06,0.0
1524842716898821115,6.91954408103,3.87944472755e-06,0.0
1524842716936423063,6.92954666845,3.90374109065e-06,0.0
1524842716976598024,6.95955411478,3.97678429098e-06,0.0
1524842716976901054,6.97955907564,4.02557240756e-06,0.0
1524842717017034053,6.99956398856,4.07447336043e-06,0.0
1524842717017510890,7.03957365445,4.17270351152e-06,0.0
1524842717056339979,7.04957624459,4.19732002093e-06,0.0
1524842717064286947,7.0875828606,4.29108797783e-06,0.0
1524842717104130029,7.09758486146,4.31588380772e-06,0.0
1524842717147473096,7.12758843593,4.39042264492e-06,0.0
1524842717184619903,7.18759675717,4.54023256525e-06,0.0
1524842717184803009,7.19759822928,4.56529557896e-06,0.0
1524842717225456953,7.23960651261,4.670905007e-06,0.0
1524842717225642919,7.24960848877,4.69619564184e-06,0.0
1524842717264153003,7.24960720593,4.69619935357e-06,0.0
1524842717264282941,7.27961276391,4.77222207929e-06,0.0
1524842717304248094,7.28961465399,4.7976577256e-06,0.0
1524842717321705102,7.34762341133,4.94599079986e-06,0.0
1524842717360057115,7.35762491629,4.97177342075e-06,0.0
1524842717401072025,7.39963257993,5.08054068895e-06,0.0
1524842717401230096,7.40963442039,5.10659974122e-06,0.0
1524842717440501928,7.43963998071,5.18508730627e-06,0.0
1524842717440937042,7.47964726982,5.29055276568e-06,0.0
1524842717481010913,7.48964918115,5.31709559791e-06,0.0
1524842717520426034,7.51965438659,5.39708756174e-06,0.0
1524842717520648002,7.559661347,5.50478111076e-06,0.0
1524842717560118913,7.56966318073,5.53193079986e-06,0.0
1524842717567922115,7.60766657191,5.63565782091e-06,0.0
1524842717604271888,7.61766782685,5.6631720276e-06,0.0
1524842717644308090,7.62766861748,5.6907498476e-06,0.0
1524842717644479990,7.64767065808,5.74599233706e-06,0.0
1524842717684149026,7.65767176576,5.77372627306e-06,0.0
1524842717703555107,7.71968102202,5.94660624954e-06,0.0
1524842717744375944,7.75968707425,6.05886999622e-06,0.0
1524842717785485982,7.79969417691,6.1715457571e-06,0.0
1524842717786153078,7.80969601309,6.19989758778e-06,0.0
1524842717824117898,7.82769668608,6.25100891128e-06,0.0
1524842717824240922,7.84769838986,6.30795491762e-06,0.0
1524842717864239931,7.85769948835,6.3365176648e-06,0.0
1524842717869256973,7.8997054601,6.45652328297e-06,0.0
1524842717908219099,7.90970680864,6.48522399555e-06,0.0
1524842717949455976,7.9477108005,6.59453732376e-06,0.0
1524842717949698925,7.9677124627,6.65228389609e-06,0.0
1524842717989918947,7.97771343216,6.68122196411e-06,0.0
1524842717996784925,8.00771573203,6.76817811295e-06,0.0
1524842718037120103,8.02771733753,6.82632717529e-06,0.0
1524842718076103925,8.05972058679,6.91937797315e-06,0.0
1524842718076236963,8.06972161415,6.94855835662e-06,0.0
1524842718116390943,8.07972295158,6.97783024065e-06,0.0
1524842718116564035,8.08972407584,7.00704889562e-06,0.0
1524842718156066894,8.1277275822,7.11838522702e-06,0.0
1524842718177575111,8.19973556119,7.33144559058e-06,0.0
1524842718216599941,8.20973670379,7.36119345488e-06,0.0
1524842718256321907,8.21973781915,7.3910463258e-06,0.0
1524842718256500005,8.23974005744,7.4506559403e-06,0.0
1524842718296263933,8.25974227367,7.51055300648e-06,0.0
1524842718296396970,8.26974341644,7.54062761461e-06,0.0
1524842718337186098,8.3197469263,7.69139275474e-06,0.0
1524842718341342926,8.32974780638,7.72170070862e-06,0.0
1524842718379965066,8.37975341338,7.87400987345e-06,0.0
1524842718420217037,8.42775729273,8.02176361578e-06,0.0
1524842718420300960,8.43775810568,8.05274546444e-06,0.0
1524842718460256099,8.45975966623,8.12116604048e-06,0.0
1524842718475930929,8.50776270634,8.27146597466e-06,0.0
1524842718512891054,8.51776335132,8.30303610819e-06,0.0
1524842718552414894,8.54776503192,8.39795580761e-06,0.0
1524842718552596092,8.56776616945,8.46144469274e-06,0.0
1524842718592730998,8.58776729028,8.52513666352e-06,0.0
1524842718597067117,8.62776982607,8.65326323897e-06,0.0
1524842718632406949,8.63777045096,8.68554155271e-06,0.0
1524842718671974897,8.6677719996,8.78279925572e-06,0.0
1524842718672041893,8.67777255731,8.81540682005e-06,0.0
1524842718712127923,8.72777572109,8.97945738959e-06,0.0
1524842718723175048,8.74777672794,9.04574813941e-06,0.0
1524842718760252952,8.75777726977,9.07901844099e-06,0.0
1524842718802129030,8.80777967302,9.24617520601e-06,0.0
1524842718802356004,8.84778157145,9.38091777908e-06,0.0
1524842718841048002,8.86778250178,9.44861231291e-06,0.0
1524842718849690914,8.88778342009,9.51647534008e-06,0.0
1524842718889324903,8.89778388247,9.55050640646e-06,0.0
1524842718928102016,8.90778432546,9.58458557432e-06,0.0
1524842718928217887,8.92778522005,9.65279983426e-06,0.0
1524842718968863964,8.93778567026,9.68700442474e-06,0.0
1524842718974585056,8.98778784673,9.85836439771e-06,0.0
1524842719012139081,9.03979088164,1.00373193912e-05,0.0
1524842719052170038,9.04979147476,1.00717929027e-05,0.0
1524842719052273988,9.07979347637,1.01753096713e-05,0.0
1524842719092005968,9.08979411367,1.02098671526e-05,0.0
1524842719103368043,9.11979547201,1.03136903259e-05,0.0
1524842719140013933,9.16779747086,1.04803812601e-05,0.0
1524842719180156946,9.17779789594,1.05152807775e-05,0.0
1524842719180289983,9.20779900313,1.06201962097e-05,0.0
1524842719221354007,9.21779939145,1.06552773433e-05,0.0
1524842719238436937,9.2598015021,1.08030271117e-05,0.0
1524842719276659965,9.26980199831,1.08383171544e-05,0.0
1524842719318034887,9.32780402951,1.10437828925e-05,0.0
1524842719318275928,9.33780439641,1.10793783238e-05,0.0
1524842719356133937,9.34780472649,1.11150115341e-05,0.0
1524842719356245994,9.3578050811,1.11506912026e-05,0.0
1524842719396917104,9.4078067575,1.13299254435e-05,0.0
1524842719403513908,9.44780834049,1.14743068608e-05,0.0
1524842719440030097,9.45780869588,1.15105677585e-05,0.0
1524842719486015081,9.46780898935,1.15468888786e-05,0.0
1524842719486732959,9.47780932527,1.15832555815e-05,0.0
1524842719525161981,9.52781087105,1.17659488717e-05,0.0
1524842719530586957,9.54781147982,1.18394649668e-05,0.0
1524842719568417072,9.56781207982,1.1913282282e-05,0.0
1524842719608727931,9.57781237868,1.19503225757e-05,0.0
1524842719648303031,9.62781383267,1.21362827991e-05,0.0
1524842719648458003,9.66781521303,1.22863248013e-05,0.0
1524842719688333034,9.6778155185,1.23240517459e-05,0.0
1524842719688429117,9.70781631788,1.24375653593e-05,0.0
1524842719729343891,9.74781738769,1.25898913561e-05,0.0
1524842719729723930,9.75781765222,1.26281870213e-05,0.0
1524842719769159078,9.78781842479,1.27433505347e-05,0.0
1524842719779050111,9.80781893251,1.28204487312e-05,0.0
1524842719816904067,9.8278194333,1.28977173976e-05,0.0
1524842719856671094,9.83781968149,1.29364395267e-05,0.0
1524842719897361040,9.8678204148,1.30528550804e-05,0.0
1524842719897981882,9.91982210203,1.3255637603e-05,0.0
1524842719936899900,9.92982243299,1.32948309154e-05,0.0
1524842719936978101,9.9598235703,1.3412602126e-05,0.0
1524842719977215051,9.97982430023,1.34914281202e-05,0.0
1524842719983810901,9.99982502429,1.35701491253e-05,0.0
1524842720019948005,10.0098253847,1.3609685604e-05,0.0
1524842720060017108,10.0398264505,1.37283257845e-05,0.0
1524842720100132942,10.0878275594,1.39180390113e-05,0.0
1524842720100239992,10.0978278019,1.39575995941e-05,0.0
1524842720140122890,10.1398291427,1.4123900686e-05,0.0
1524842720140234947,10.1498294429,1.41635398326e-05,0.0
1524842720181302070,10.1598297932,1.42031573802e-05,0.0
1524842720190759897,10.2078308114,1.43933881028e-05,0.0
1524842720228176116,10.2178310324,1.4433024834e-05,0.0
1524842720268122911,10.247831602,1.45521108215e-05,0.0
1524842720268225908,10.2798323891,1.46793706413e-05,0.0
1524842720308284997,10.299832964,1.47591923773e-05,0.0
1524842720310686111,10.3278335342,1.48711103174e-05,0.0
1524842720348071098,10.3378337521,1.49112143788e-05,0.0
1524842720388948917,10.387834821,1.51123083787e-05,0.0
1524842720428162097,10.4278355314,1.52740415764e-05,0.0
1524842720428286075,10.4478358773,1.53551006515e-05,0.0
1524842720469762086,10.4678362178,1.54363353896e-05,0.0
1524842720470002889,10.5078368836,1.55994548636e-05,0.0
1524842720508943080,10.5178370459,1.56404179912e-05,0.0
1524842720514998912,10.5478375308,1.57636525642e-05,0.0
1524842720552042007,10.5578376883,1.58048845527e-05,0.0
1524842720592569112,10.5878381596,1.59288742325e-05,0.0
1524842720592782974,10.5978383124,1.59703451103e-05,0.0
1524842720632352113,10.6398392545,1.61450642948e-05,0.0
1524842720641935110,10.6798399656,1.63125063976e-05,0.0
1524842720680138111,10.6898401657,1.63547168483e-05,0.0
1524842720721441030,10.719840869,1.64817124322e-05,0.0
1524842720721884012,10.7398413179,1.65666197378e-05,0.0
1524842720760123014,10.7598417625,1.66518073304e-05,0.0
1524842720760230064,10.7698419819,1.66945869169e-05,0.0
1524842720804295063,10.7798422022,1.67374116066e-05,0.0
1524842720831037998,10.8398434878,1.69955128353e-05,0.0
1524842720868285894,10.8498436991,1.70388064659e-05,0.0
1524842720908065080,10.8998447228,1.72560133607e-05,0.0
1524842720908142089,10.9098449258,1.72996729017e-05,0.0
1524842720948071956,10.9398455191,1.74309237254e-05,0.0
1524842720948210954,10.9498457166,1.74747309161e-05,0.0
1524842720988218069,10.9998466758,1.76943941118e-05,0.0
1524842720996829032,11.0398474234,1.78708680582e-05,0.0
1524842721032294988,11.0498476084,1.79151038667e-05,0.0
1524842721076000928,11.0598477905,1.79593647544e-05,0.0
1524842721076087951,11.0798481532,1.80479555968e-05,0.0
1524842721117445945,11.0898483337,1.80922989259e-05,0.0
1524842721130367040,11.1478489235,1.8349810265e-05,0.0
1524842721169358968,11.1578490357,1.83943321213e-05,0.0
1524842721208230972,11.2078495573,1.86172790813e-05,0.0
1524842721208333969,11.2278497628,1.87066234866e-05,0.0
1524842721249088048,11.2478499658,1.87960716272e-05,0.0
1524842721249424934,11.2578500642,1.8840881372e-05,0.0
1524842721288263082,11.2998506779,1.90291660653e-05,0.0
1524842721288530111,11.3098508134,1.90740031445e-05,0.0
1524842721329154968,11.3398512944,1.92086192515e-05,0.0
1524842721368156909,11.3878518969,1.94245534616e-05,0.0
1524842721368283987,11.3978520133,1.94696653694e-05,0.0
1524842721408051967,11.4278522718,1.96051738877e-05,0.0
1524842721424609899,11.4678526367,1.97863072394e-05,0.0
1524842721465657949,11.4778527252,1.98317089412e-05,0.0
1524842721505124092,11.507852989,1.99682543082e-05,0.0
1524842721505316972,11.5178530737,2.00139308333e-05,0.0
1524842721544770956,11.5478533305,2.01512033989e-05,0.0
1524842721545182943,11.5578534124,2.01970816978e-05,0.0
1524842721584187030,11.5878536614,2.03350453955e-05,0.0
1524842721596503973,11.6278539813,2.05198270707e-05,0.0
1524842721636184930,11.637854058,2.0566199352e-05,0.0
1524842721676074981,11.6478541335,2.06126177441e-05,0.0
1524842721676167011,11.6878544408,2.07989186753e-05,0.0
1524842721718779087,11.730854849,2.10004970022e-05,0.0
1524842721719161033,11.7408549467,2.10476160011e-05,0.0
1524842721756359100,11.7678551031,2.11753430189e-05,0.0
1524842721771716117,11.7878552435,2.12702883287e-05,0.0
1524842721808386087,11.8078553805,2.13656775021e-05,0.0
1524842721848253965,11.8278555145,2.14612986357e-05,0.0
1524842721848370075,11.8378555796,2.1509269496e-05,0.0
1524842721889333963,11.8878559018,2.17501281131e-05,0.0
1524842721902143001,11.9198561411,2.19052455205e-05,0.0
1524842721940768003,11.967856446,2.21388914519e-05,0.0
1524842721980161905,11.9778565065,2.21877878323e-05,0.0
1524842722020392894,12.0078567368,2.23345834954e-05,0.0
1524842722020555019,12.0178567996,2.23836496544e-05,0.0
1524842722060966014,12.0598571715,2.2590113111e-05,0.0
1524842722061140060,12.0998575349,2.27873485758e-05,0.0
1524842722100913047,12.1098576216,2.28367414469e-05,0.0
1524842722101305961,12.1198577159,2.28861555377e-05,0.0
1524842722140178918,12.1298578032,2.29355846147e-05,0.0
1524842722156760931,12.1598581266,2.30838940587e-05,0.0
1524842722196955919,12.2078583991,2.33213654062e-05,0.0
1524842722236864089,12.2178584589,2.33709031436e-05,0.0
1524842722276633024,12.2478586636,2.3519710865e-05,0.0
1524842722276736021,12.2678587694,2.36191610468e-05,0.0
1524842722318680047,12.2778588228,2.36689402846e-05,0.0
1524842722319051027,12.2878588732,2.37187243067e-05,0.0
1524842722356297016,12.3478591764,2.40178121425e-05,0.0
1524842722356417894,12.3578592245,2.40677741517e-05,0.0
1524842722399547100,12.4078594704,2.43179830231e-05,0.0
1524842722409081935,12.4278595662,2.44182944601e-05,0.0
1524842722449053049,12.4378596121,2.4468484271e-05,0.0
1524842722488140106,12.4798599019,2.4679591782e-05,0.0
1524842722488249063,12.5198601912,2.4881293319e-05,0.0
1524842722528042078,12.52986026,2.49318384583e-05,0.0
1524842722534878015,12.567860472,2.51243440953e-05,0.0
1524842722573390960,12.6078606454,2.5328161399e-05,0.0
1524842722616147041,12.6178606892,2.53793910158e-05,0.0
1524842722657969951,12.6478608108,2.55334991036e-05,0.0
1524842722658685922,12.6578608507,2.55850651112e-05,0.0
1524842722696083068,12.6678608907,2.56367100649e-05,0.0
1524842722696180105,12.6998610489,2.5802208581e-05,0.0
1524842722736007928,12.7098610965,2.5854173837e-05,0.0
1524842722745493888,12.7598614055,2.61149675742e-05,0.0
1524842722785235881,12.769861462,2.61673873832e-05,0.0
1524842722824243068,12.7998616389,2.63249861063e-05,0.0
1524842722824390888,12.827861745,2.64725763171e-05,0.0
1524842722864217042,12.8378617875,2.65254830098e-05,0.0
1524842722864362001,12.8598619492,2.66420420177e-05,0.0
1524842722904120922,12.9398622645,2.70689076151e-05,0.0
1524842722907813072,12.9498623116,2.71226364515e-05,0.0
1524842722944928884,12.9878624999,2.73271214301e-05,0.0
1524842722984174966,12.997862541,2.73811099792e-05,0.0
1524842723024180889,12.9998625628,2.73918881524e-05,0.0
1524842723024295091,13.0478627072,2.7651479823e-05,0.0
1524842723064198970,13.0578627368,2.77057093249e-05,0.0
1524842723065979003,13.0998628756,2.79337685939e-05,0.0
1524842723104182958,13.1098629093,2.79882120429e-05,0.0
1524842723144905090,13.1098628956,2.79882160365e-05,0.0
1524842723185628890,13.1678630525,2.8304617182e-05,0.0
1524842723185755968,13.1778630776,2.83593763584e-05,0.0
1524842723224148988,13.2078631551,2.85238658557e-05,0.0
1524842723224246978,13.2598633081,2.88096900554e-05,0.0
1524842723265016078,13.2698633387,2.88647699703e-05,0.0
1524842723266288042,13.2798633881,2.89198648366e-05,0.0
1524842723308278083,13.2898634229,2.89749643595e-05,0.0
1524842723349212884,13.3278635477,2.91844749479e-05,0.0
1524842723349639892,13.3678636494,2.940558983e-05,0.0
1524842723388219118,13.3778636745,2.94610366546e-05,0.0
1524842723391611099,13.4198638327,2.96941971396e-05,0.0
1524842723429197072,13.4598639892,2.99166909757e-05,0.0
1524842723468267917,13.4698640262,2.99724420055e-05,0.0
1524842723508263111,13.499864145,3.01398660391e-05,0.0
1524842723508379936,13.5098641824,3.01957241243e-05,0.0
1524842723549016952,13.5198642218,3.02516302519e-05,0.0
1524842723549559116,13.5598643714,3.04753964988e-05,0.0
1524842723588104963,13.5998645179,3.07002390014e-05,0.0
1524842723588212966,13.6098645536,3.07565743575e-05,0.0
1524842723628026962,13.6398646594,3.09257981935e-05,0.0
1524842723644455909,13.6798647956,3.11521544458e-05,0.0
1524842723680028915,13.6898648289,3.12089473712e-05,0.0
1524842723721960067,13.7198649261,3.13796727868e-05,0.0
1524842723722702026,13.7298649579,3.14367804636e-05,0.0
1524842723760946035,13.7598650506,3.1608431855e-05,0.0
1524842723767447948,13.769865081,3.16658636361e-05,0.0
1524842723804882049,13.8278651672,3.19999558134e-05,0.0
1524842723844091892,13.8678652274,3.22315732667e-05,0.0
1524842723844204902,13.8778652415,3.22896767836e-05,0.0
1524842723884196996,13.8998652847,3.24177248743e-05,0.0
1524842723892621994,13.9198653283,3.25343292572e-05,0.0
1524842723932045936,13.9478653696,3.26979568223e-05,0.0
1524842723974001884,13.9578653845,3.2756567751e-05,0.0
1524842723974313020,13.9678653948,3.28152479742e-05,0.0
1524842724012150049,13.9778654078,3.28740034608e-05,0.0
1524842724032212018,14.0278654967,3.31684151723e-05,0.0
1524842724068420886,14.0798655941,3.3475779795e-05,0.0
1524842724108227968,14.119865676,3.37132186521e-05,0.0
1524842724108316898,14.1298656951,3.37727450785e-05,0.0
1524842724152218103,14.1478657099,3.38799749173e-05,0.0
1524842724152349948,14.1678657316,3.39992666053e-05,0.0
1524842724194082975,14.1778657433,3.40589815828e-05,0.0
1524842724194344043,14.1878657534,3.41187316835e-05,0.0
1524842724233500003,14.1978657641,3.41785100968e-05,0.0
1524842724272525072,14.247865819,3.44777348039e-05,0.0
1524842724312417030,14.3198659428,3.49099557578e-05,0.0
1524842724312570095,14.32986596,3.49701034381e-05,0.0
1524842724353856086,14.3598660223,3.51507509454e-05,0.0
1524842724354398965,14.3998661024,3.53922000771e-05,0.0
1524842724392046928,14.4098661215,3.54526864466e-05,0.0
1524842724396944999,14.4278661437,3.55617090628e-05,0.0
1524842724436379909,14.4378661593,3.56223478221e-05,0.0
1524842724476176977,14.4598662009,3.57558686162e-05,0.0
1524842724476377964,14.4998662788,3.59992879203e-05,0.0
1524842724516465902,14.5098662971,3.60603168724e-05,0.0
1524842724522542953,14.5398663388,3.62435711684e-05,0.0
1524842724560129880,14.5498663546,3.63047317781e-05,0.0
1524842724600219011,14.5878663963,3.65372944684e-05,0.0
1524842724600364923,14.6078664184,3.66598888584e-05,0.0
1524842724641113996,14.6178664294,3.67213028879e-05,0.0
1524842724651909112,14.6278664399,3.67827541845e-05,0.0
1524842724688659906,14.6998665207,3.72260786235e-05,0.0
1524842724728269100,14.7098665327,3.72878192553e-05,0.0
1524842724769426107,14.7398665814,3.74733180403e-05,0.0
1524842724769907951,14.7798666402,3.77215628129e-05,0.0
1524842724809351921,14.7898666541,3.77838008468e-05,0.0
1524842724816239118,14.8198666954,3.79708223467e-05,0.0
1524842724856892108,14.8478667165,3.81457796909e-05,0.0
1524842724856997013,14.8678667282,3.82710657123e-05,0.0
1524842724896322011,14.8878667392,3.83965993428e-05,0.0
1524842724901817083,14.8978667449,3.84594900823e-05,0.0
1524842724940116882,14.9598668048,3.88503041157e-05,0.0
1524842724984277963,14.9698668134,3.89135289204e-05,0.0
1524842724984385967,14.9878668205,3.9027467832e-05,0.0
1524842725028271913,14.9978668265,3.90908339649e-05,0.0
1524842725037373065,15.0598668636,3.9484559225e-05,0.0
1524842725076122999,15.0698668696,3.95482905041e-05,0.0
1524842725117144107,15.1078668886,3.97905655529e-05,0.0
1524842725117494106,15.1278668939,3.99182309085e-05,0.0
1524842725157121896,15.1378668967,3.9982126086e-05,0.0
1524842725168957948,15.1878669172,4.03019047051e-05,0.0
1524842725209625005,15.2078669226,4.04300588286e-05,0.0
1524842725209868907,15.2178669249,4.0494227673e-05,0.0
1524842725249340057,15.2278669282,4.05584385907e-05,0.0
1524842725259970903,15.2598669464,4.07640714179e-05,0.0
1524842725296425104,15.2698669515,4.0828468884e-05,0.0
1524842725337927103,15.3198669873,4.11507666997e-05,0.0
1524842725338430881,15.3598670206,4.14089859349e-05,0.0
1524842725376210927,15.3698670282,4.14736747211e-05,0.0
1524842725383563041,15.3998670556,4.16679210247e-05,0.0
1524842725419962882,15.4098670637,4.1732715432e-05,0.0
1524842725460025072,15.4478670806,4.19792737048e-05,0.0
1524842725501184940,15.4878671077,4.22392637841e-05,0.0
1524842725501872062,15.4978671132,4.23042671693e-05,0.0
1524842725540251016,15.5078671184,4.23693028307e-05,0.0
1524842725540415048,15.5278671292,4.24994485232e-05,0.0
1524842725580276966,15.5378671342,4.25646041296e-05,0.0
1524842725585829973,15.5998671721,4.29694970665e-05,0.0
1524842725624176979,15.6398671975,4.32320076715e-05,0.0
1524842725664597034,15.6798672302,4.34958674903e-05,0.0
1524842725664779901,15.6898672379,4.3561991619e-05,0.0
1524842725708488941,15.6998672463,4.36281730203e-05,0.0
1524842725709569931,15.7598672747,4.40262849681e-05,0.0
1524842725752038002,15.7698672797,4.4092871554e-05,0.0
1524842725792114973,15.8078672892,4.43464279476e-05,0.0
1524842725792223930,15.817867292,4.44133509476e-05,0.0
1524842725832077026,15.8278672934,4.44803459781e-05,0.0
1524842725834975004,15.8678673049,4.47488922519e-05,0.0
1524842725873131990,15.8778673068,4.48163002889e-05,0.0
1524842725913748979,15.9198673142,4.5099925178e-05,0.0
1524842725914216041,15.9298673161,4.51676780298e-05,0.0
1524842725952034950,15.9678673137,4.54255516855e-05,0.0
1524842725953178882,15.9778673134,4.54936050266e-05,0.0
1524842725991978883,16.0198673246,4.57800459311e-05,0.0
1524842726032105922,16.0398673275,4.59168978837e-05,0.0
1524842726032231092,16.0498673287,4.59854638681e-05,0.0
1524842726073383092,16.0598673302,4.60540803185e-05,0.0
1524842726091126918,16.1198673367,4.64667671409e-05,0.0
1524842726129709005,16.1298673374,4.65357483433e-05,0.0
1524842726170104980,16.1398673384,4.66047655384e-05,0.0
1524842726170618057,16.15986734,4.67428445181e-05,0.0
1524842726208275079,16.2198673447,4.71575506973e-05,0.0
1524842726208498954,16.2298673452,4.72267702239e-05,0.0
1524842726249682903,16.2598673491,4.74346086887e-05,0.0
1524842726288362979,16.3078673505,4.77677563966e-05,0.0
1524842726288477897,16.3178673502,4.783733625e-05,0.0
1524842726328320026,16.3478673491,4.80462805573e-05,0.0
1524842726337699890,16.3578673485,4.81160271677e-05,0.0
1524842726376108884,16.3878673494,4.83253816346e-05,0.0
1524842726416435003,16.3978673492,4.83952136168e-05,0.0
1524842726416651964,16.4078673503,4.8465034824e-05,0.0
1524842726457112073,16.4878673574,4.90242541616e-05,0.0
1524842726461709976,16.4978673583,4.90942628185e-05,0.0
1524842726501588106,16.5278673638,4.93044893103e-05,0.0
1524842726540366888,16.5378673652,4.93746560931e-05,0.0
1524842726580920934,16.5798673757,4.96697710941e-05,0.0
1524842726581053018,16.5898673781,4.97402104574e-05,0.0
1524842726621953964,16.6078673817,4.98671153852e-05,0.0
1524842726622698068,16.6278673857,5.0008355874e-05,0.0
1524842726660115003,16.6378673876,5.00790785841e-05,0.0
1524842726663609981,16.6478673896,5.01498674178e-05,0.0
1524842726704194068,16.7398674068,5.08038601513e-05,0.0
1524842726740274906,16.7498674089,5.08754024183e-05,0.0
1524842726740456104,16.749867407,5.08754086774e-05,0.0
1524842726780157089,16.7678674086,5.10042832646e-05,0.0
1524842726799346923,16.8278674157,5.1435140265e-05,0.0
1524842726837246894,16.8378674164,5.15072668764e-05,0.0
1524842726876539945,16.8798674207,5.18108373966e-05,0.0
1524842726876656055,16.9198674223,5.21011119373e-05,0.0
1524842726916399002,16.9298674226,5.21738366327e-05,0.0
1524842726919424057,16.947867417,5.23048520925e-05,0.0
1524842726956711053,16.9798674145,5.25383071067e-05,0.0
1524842726997847080,16.9898674134,5.26114342188e-05,0.0
1524842726998322010,17.0278674,5.28898493914e-05,0.0
1524842727037311077,17.0678673854,5.31842200917e-05,0.0
1524842727040261983,17.0778673816,5.32580627455e-05,0.0
1524842727081413984,17.0878673775,5.33319580535e-05,0.0
1524842727120434999,17.1078673694,5.34799540044e-05,0.0
1524842727160435914,17.1478673525,5.37767505609e-05,0.0
1524842727160633087,17.1578673481,5.38511563401e-05,0.0
1524842727202249050,17.167867344,5.3925604309e-05,0.0
1524842727203017950,17.1878673355,5.40746086359e-05,0.0
1524842727240200996,17.2278673188,5.43731642513e-05,0.0
1524842727240463018,17.2378673144,5.4447937269e-05,0.0
1524842727281112909,17.2878672976,5.48221480837e-05,0.0
1524842727321084976,17.3278672848,5.51220180589e-05,0.0
1524842727321237087,17.3378672814,5.51970599613e-05,0.0
1524842727360230922,17.3598672785,5.53621918053e-05,0.0
1524842727367553949,17.369867276,5.54372706297e-05,0.0
1524842727404047012,17.3998672711,5.5662654292e-05,0.0
1524842727444376945,17.4478672634,5.60237108113e-05,0.0
1524842727444572925,17.4578672617,5.60990185679e-05,0.0
1524842727484395027,17.5052851372,3.31272065943e-05,0.0
1524842727496566057,17.514626211,1.54368715342e-05,0.0
1524842727533593893,17.5222103684,-3.57641638904e-05,0.0
1524842727573380947,17.5310673325,-9.56687700236e-05,0.0
1524842727612198114,17.5673471785,-0.00068214279265,0.0
1524842727612323045,17.5921158817,-0.00149785194134,0.0
1524842727653059005,17.5981853124,-0.00177042655636,0.0
1524842727654109001,17.6177912284,-0.00287092989707,0.0
1524842727692312002,17.6313678216,-0.00390193174264,0.0
1524842727734009027,17.6349283842,-0.00419675733295,0.0
1524842727734527111,17.6384320601,-0.00450312197976,0.0
1524842727772025108,17.6398346783,-0.00482505237782,0.0
1524842727772126913,17.641565424,-0.00500646847596,0.0
1524842727812482118,17.6412449481,-0.0050357349402,0.0
1524842727821408987,17.6423235934,-0.00515871393827,0.0
1524842727860258102,17.6432148839,-0.00533793373386,0.0
1524842727904117107,17.6431899043,-0.00532414526225,0.0
1524842727940900087,17.6430908005,-0.0052931681587,0.0
1524842727941045045,17.64247347,-0.0051700887404,0.0
1524842727980345964,17.6421120185,-0.00510600198648,0.0
1524842727984489917,17.6432659665,-0.00519285335341,0.0
1524842728028565883,17.647727322,-0.00591952463654,0.0
1524842728028800010,17.6510405911,-0.00653498837746,0.0
1524842728068120956,17.6522565549,-0.00679548039642,0.0
1524842728074248075,17.6531135598,-0.00695126763669,0.0
1524842728117141962,17.6544487478,-0.00723905672564,0.0
1524842728156059026,17.6605507077,-0.00857676626749,0.0
1524842728196064949,17.6620351409,-0.0090040458619,0.0
1524842728196186065,17.6621483958,-0.00903112792451,0.0
1524842728236257076,17.6619165028,-0.00897772183408,0.0
1524842728236383914,17.6617682058,-0.00893682581432,0.0
1524842728276356935,17.6619396622,-0.00893719884892,0.0
1524842728277437925,17.6643913636,-0.00948876737519,0.0
1524842728317063093,17.6647113107,-0.00958133222304,0.0
1524842728356570959,17.6708825886,-0.0111845651264,0.0
1524842728396325111,17.6816744445,-0.0141548962293,0.0
1524842728396419048,17.6839499178,-0.0148288337495,0.0
1524842728436156034,17.6971767974,-0.0185317481819,0.0
1524842728436244010,17.7006116913,-0.0195497238176,0.0
1524842728476100921,17.7141785365,-0.0234863457832,0.0
1524842728479306936,17.728655824,-0.0279066966806,0.0
1524842728519790887,17.7322880255,-0.0290397125352,0.0
1524842728557821989,17.7387707858,-0.0312465459628,0.0
1524842728558227062,17.7415203662,-0.0321500053834,0.0
1524842728596301078,17.744881061,-0.0334969595855,0.0
1524842728608577013,17.7463161923,-0.0341104054917,0.0
1524842728644193887,17.7472389898,-0.0345739545127,0.0
1524842728684052944,17.7473788483,-0.0346786609668,0.0
1524842728684178113,17.7476008946,-0.0347632910026,0.0
1524842728725384950,17.7474114592,-0.0347119329296,0.0
1524842728728847980,17.7473411806,-0.0346723409383,0.0
1524842728769556045,17.7470264149,-0.0345143106531,0.0
1524842728812247991,17.746907874,-0.0344165826646,0.0
1524842728812407016,17.7467687435,-0.0343532823508,0.0
1524842728852277040,17.7468577278,-0.0343700684353,0.0
1524842728853964090,17.7467804003,-0.0343316172994,0.0
1524842728892399072,17.7465995107,-0.0342208821508,0.0
1524842728933176040,17.7464473947,-0.0341475203633,0.0
1524842728973284959,17.7460392699,-0.0338963043576,0.0
1524842728973401069,17.7469851084,-0.0342646746481,0.0
1524842729012280941,17.7484337808,-0.0349329755676,0.0
1524842729012413978,17.7505529881,-0.0359433189233,0.0
1524842729052352905,17.751384752,-0.0364065795747,0.0
1524842729056865930,17.7593804008,-0.0405717307806,0.0
1524842729098534107,17.7610789372,-0.0415218388684,0.0
1524842729138514995,17.7685527762,-0.0454058203008,0.0
1524842729138751029,17.7712382242,-0.0469083594433,0.0
1524842729177573919,17.7767743414,-0.049817496719,0.0
1524842729178956985,17.7801231312,-0.0516912742007,0.0
1524842729217468976,17.8234954804,-0.0754220334566,0.0
1524842729256267070,17.8576542623,-0.0941750110613,0.0
1524842729300117969,17.8820747493,-0.10773587159,0.0
1524842729300236940,17.8987030486,-0.116964000524,0.0
1524842729340082883,17.9067885881,-0.121488005142,0.0
1524842729340210914,17.9226986177,-0.130324661447,0.0
1524842729380372047,17.9312070673,-0.135085266247,0.0
1524842729386585950,17.9575367398,-0.149799342439,0.0
1524842729429471969,18.0032387369,-0.175394714655,0.0
1524842729430079936,18.0121722259,-0.1803930804,0.0
1524842729468235969,18.0553788236,-0.204652874363,0.0
1524842729477943897,18.0641857682,-0.209592995067,0.0
1524842729517724990,18.071485835,-0.213773214014,0.0
1524842729555972099,18.0917840555,-0.225406740163,0.0
1524842729599860906,18.1047262485,-0.232941268431,0.0
1524842729600357055,18.1118601757,-0.237078552665,0.0
1524842729636178016,18.1480658941,-0.259332239093,0.0
1524842729636291027,18.1530146706,-0.262450769176,0.0
1524842729677309036,18.162845686,-0.269070296662,0.0
1524842729686779975,18.1735143412,-0.276221898585,0.0
1524842729724169969,18.174357771,-0.276965474822,0.0
1524842729765295982,18.1851323828,-0.284670503546,0.0
1524842729765796899,18.1870518565,-0.286066724704,0.0
1524842729803997039,18.1923499144,-0.289982589274,0.0
1524842729810045957,18.1941436864,-0.291322819405,0.0
1524842729848146915,18.1969770358,-0.293354753843,0.0
1524842729888155937,18.2061587346,-0.300138928266,0.0
1524842729928247928,18.2225444223,-0.312037672989,0.0
1524842729928402900,18.2260133859,-0.314642836509,0.0
1524842729968992948,18.2420436597,-0.32638823837,0.0
1524842729969814062,18.2651653276,-0.343484395081,0.0
1524842730008241891,18.270647404,-0.347601928579,0.0
1524842730051925897,18.2922252696,-0.363560017239,0.0
1524842730052007913,18.2987181761,-0.368436823166,0.0
1524842730092572927,18.3225760374,-0.386160752055,0.0
1524842730093250989,18.3541145274,-0.409764253761,0.0
1524842730132088899,18.3619570826,-0.415654334956,0.0
1524842730172298908,18.3861076533,-0.433776181615,0.0
1524842730172451019,18.4246035318,-0.462711023432,0.0
1524842730212692975,18.4327248676,-0.468810390173,0.0
1524842730215298891,18.4405989221,-0.474738774948,0.0
1524842730254745006,18.4566278852,-0.48679104109,0.0
1524842730292063951,18.5045571076,-0.522843163766,0.0
1524842730292206048,18.5126100597,-0.528892210774,0.0
1524842730333271026,18.5342918936,-0.545337460203,0.0
1524842730340981960,18.5480282006,-0.555807227436,0.0
1524842730380991935,18.5608042045,-0.565642179595,0.0
1524842730421211004,18.5835795643,-0.583522065299,0.0
1524842730421550035,18.5893153675,-0.588085719772,0.0
1524842730460062980,18.6101408643,-0.605116607139,0.0
1524842730462439060,18.6151950943,-0.60932329117,0.0
1524842730500071048,18.6175373226,-0.61149387689,0.0
1524842730540204048,18.6242690736,-0.617375720206,0.0
1524842730540324926,18.6281572582,-0.620733016529,0.0
1524842730580447912,18.6413876136,-0.632889263138,0.0
1524842730589687108,18.6439789506,-0.635264333566,0.0
1524842730632174968,18.6580610144,-0.648526563995,0.0
1524842730673125982,18.6612728887,-0.651715481285,0.0
1524842730712104082,18.6670407951,-0.657504426427,0.0
1524842730712202072,18.6685060778,-0.658989450983,0.0
1524842730752866983,18.6699451352,-0.660449419183,0.0
1524842730753134012,18.674380818,-0.664826522615,0.0
1524842730792156934,18.6760711296,-0.666556501864,0.0
1524842730792680025,18.6775814558,-0.667954105057,0.0
1524842730832204103,18.7025402971,-0.692940110929,0.0
1524842730872078895,18.7061085355,-0.696600499568,0.0
1524842730914508104,18.7315241657,-0.722228587749,0.0
1524842730915329933,18.7427554284,-0.73361724881,0.0
1524842730952045917,18.7611016062,-0.752326456932,0.0
1524842730952192068,18.7668466261,-0.758220027761,0.0
1524842730992105960,18.7739776635,-0.765428462527,0.0
1524842730994507074,18.8010068567,-0.793021608472,0.0
1524842731033205986,18.8076834469,-0.799870422891,0.0
1524842731074248075,18.8205980752,-0.813068102165,0.0
1524842731074578046,18.8275216046,-0.82017016689,0.0
1524842731112091064,18.8624059098,-0.855962399382,0.0
1524842731126616001,18.898948838,-0.893468303692,0.0
1524842731164674043,18.906055247,-0.900757847571,0.0
1524842731204063892,18.9178990253,-0.91296741818,0.0
1524842731204130887,18.9391183334,-0.934820147098,0.0
1524842731245333909,18.9627626275,-0.959466921045,0.0
1524842731245770931,18.9688283492,-0.965878309673,0.0
1524842731284219026,18.9884823594,-0.987133786294,0.0
1524842731298865079,19.0005050392,-1.0007968674,0.0
1524842731337403059,19.0049530369,-1.00580720544,0.0
1524842731376101016,19.0092910286,-1.01108417302,0.0
1524842731376199007,19.0143096073,-1.01711969882,0.0
1524842731416841030,19.0222969899,-1.02700995089,0.0
1524842731420170068,19.0243909277,-1.02958298205,0.0
1524842731456872940,19.0271456172,-1.03339288535,0.0
1524842731496310949,19.0284055736,-1.03500104972,0.0
1524842731536642074,19.0306814818,-1.03819958997,0.0
1524842731536833047,19.0313342022,-1.03907635701,0.0
1524842731576513051,19.0308558142,-1.03870747913,0.0
1524842731576628923,19.0309139852,-1.0387881432,0.0
1524842731616090059,19.0309148491,-1.03878120396,0.0
1524842731619762897,19.0308269257,-1.03865577762,0.0
1524842731656335115,19.0308544378,-1.03860603425,0.0
1524842731696424007,19.030823111,-1.03846149321,0.0
1524842731696542978,19.030721914,-1.03830295077,0.0
1524842731740334987,19.0317696261,-1.03969454976,0.0
1524842731758708953,19.0349879946,-1.04447982066,0.0
1524842731796408891,19.035552948,-1.04541678408,0.0
1524842731837469100,19.0402940849,-1.05278575755,0.0
1524842731837980985,19.0414060835,-1.05463113736,0.0
1524842731876661062,19.0481857246,-1.0653946832,0.0
1524842731876739025,19.0620865414,-1.08773465165,0.0
1524842731917069911,19.0648310833,-1.09228971894,0.0
1524842731929424047,19.0764141606,-1.11106815005,0.0
1524842731968997955,19.0887684549,-1.13137559593,0.0
1524842732008078098,19.0925420503,-1.13763861564,0.0
1524842732008182048,19.1014201906,-1.15206214465,0.0
1524842732050479888,19.1057318316,-1.15921814624,0.0
1524842732053796052,19.1113296368,-1.1683225887,0.0
1524842732092156887,19.141784979,-1.21866984957,0.0
1524842732133189916,19.1469083288,-1.22717253066,0.0
1524842732172408103,19.1624133677,-1.25290845605,0.0
1524842732172555923,19.1823015882,-1.28608171813,0.0
1524842732212491035,19.18811685,-1.29579292178,0.0
1524842732212759971,19.1930983848,-1.30409950457,0.0
1524842732257250070,19.2086308176,-1.33052020681,0.0
1524842732257793903,19.2129166833,-1.33779479286,0.0
1524842732296080112,19.2275081101,-1.36340829168,0.0
1524842732302793979,19.2384996488,-1.3837889845,0.0
1524842732341299057,19.2413794956,-1.38922220157,0.0
1524842732381069898,19.2436763788,-1.39419317922,0.0
1524842732381541967,19.2498705268,-1.40645021489,0.0
1524842732420325040,19.2526742267,-1.41240069796,0.0
1524842732437268018,19.2564557983,-1.42089695524,0.0
1524842732476561069,19.2574896047,-1.4231505105,0.0
1524842732518044948,19.2579582958,-1.42483021635,0.0
1524842732518234014,19.2583039607,-1.42605155176,0.0
1524842732557295083,19.2584588791,-1.42642663447,0.0
1524842732568104982,19.2583468825,-1.42627953292,0.0
1524842732609102010,19.2583509843,-1.42628986295,0.0
1524842732650484085,19.2583174068,-1.42615494487,0.0
1524842732650966882,19.2582445066,-1.42589971633,0.0
1524842732688071966,19.2581725281,-1.42569645836,0.0
1524842732689623117,19.2581734153,-1.42557098398,0.0
1524842732728015899,19.2581303359,-1.4252632711,0.0
1524842732769299983,19.2580696607,-1.42507576978,0.0
1524842732769685029,19.2580943321,-1.42505192992,0.0
1524842732808182954,19.2581013774,-1.42486574556,0.0
1524842732808305978,19.2580556463,-1.42471120958,0.0
1524842732849052906,19.2580921826,-1.42469587446,0.0
1524842732858835935,19.2580484693,-1.42454144626,0.0
1524842732897285938,19.2580743276,-1.42449201387,0.0
1524842732936223983,19.2580326564,-1.42433794855,0.0
1524842732936389923,19.2579813897,-1.42410120102,0.0
1524842732976241111,19.2579539572,-1.42369661644,0.0
1524842732986219882,19.2579136066,-1.42351659069,0.0
1524842733023979902,19.257943604,-1.42347743942,0.0
1524842733065025091,19.2579077235,-1.42330725484,0.0
1524842733104007959,19.2579828977,-1.42340986165,0.0
1524842733107812881,19.2579830844,-1.42325511167,0.0
1524842733144623041,19.257959162,-1.42312983469,0.0
1524842733144785881,19.2579358511,-1.42281763729,0.0
1524842733185242891,19.2579112925,-1.42265980421,0.0
1524842733189121007,19.2579224191,-1.42268404862,0.0
1524842733228054046,19.2579287399,-1.42237604074,0.0
1524842733268254995,19.2579084855,-1.42222845332,0.0
1524842733268403053,19.2579516342,-1.42220512278,0.0
1524842733308275938,19.2579657422,-1.42217473392,0.0
1524842733315637111,19.2579538349,-1.42206936205,0.0
1524842733352111101,19.2579913402,-1.4221364563,0.0
1524842733391994953,19.2579824681,-1.42204874249,0.0
1524842733433609962,19.2580506599,-1.42230211733,0.0
1524842733434108018,19.2580497995,-1.42229262776,0.0
1524842733472095966,19.2584047193,-1.42467538577,0.0
1524842733475153923,19.2591201663,-1.43105894509,0.0
1524842733512130975,19.2592200258,-1.43244455678,0.0
1524842733552974939,19.2601831058,-1.44216930952,0.0
1524842733553100109,19.2608373649,-1.4494620132,0.0
1524842733591931104,19.2615738823,-1.45794388591,0.0
1524842733594671964,19.2632945688,-1.47852139222,0.0
1524842733632148027,19.2636481993,-1.48345329467,0.0
1524842733672378063,19.2653585528,-1.50412102282,0.0
1524842733712117910,19.2683811265,-1.5419895732,0.0
1524842733712243080,19.2689531828,-1.54996723607,0.0
1524842733753932952,19.270563993,-1.57071665282,0.0
1524842733754576921,19.2711961235,-1.57953098002,0.0
1524842733793346881,19.2734605141,-1.6094918025,0.0
1524842733798746109,19.2768849966,-1.65707167513,0.0
1524842733836404085,19.2776084183,-1.66715589641,0.0
1524842733876555919,19.2796432699,-1.69639756466,0.0
1524842733917587995,19.2828809436,-1.7448348897,0.0
1524842733918081998,19.2834873512,-1.75424668917,0.0
1524842733956435918,19.2846193776,-1.77736951248,0.0
1524842733956634044,19.285514294,-1.80520944949,0.0
1524842733996134996,19.2857174098,-1.81254175369,0.0
1524842733996408939,19.2857469022,-1.8273448021,0.0
1524842734036003112,19.2857920319,-1.83339224529,0.0
1524842734076499938,19.285649165,-1.83700322703,0.0
1524842734076642990,19.2856334163,-1.84244073349,0.0
1524842734116127014,19.2852293254,-1.85696272668,0.0
1524842734124608039,19.2848293966,-1.87524740112,0.0
1524842734164194107,19.2846826175,-1.87984616496,0.0
1524842734205797910,19.2842789016,-1.89743432922,0.0
1524842734206183910,19.2833215303,-1.93025874752,0.0
1524842734244133949,19.2830948037,-1.93676845559,0.0
1524842734249537944,19.2824145707,-1.96160355053,0.0
1524842734288945913,19.2821479138,-1.96926127564,0.0
1524842734328759908,19.2813295655,-1.99778329676,0.0
1524842734368171930,19.2797816095,-2.04470557069,0.0
1524842734368294954,19.279448407,-2.05428404024,0.0
1524842734408452033,19.2784578088,-2.08392843152,0.0
1524842734408560991,19.2781092287,-2.09395194511,0.0
1524842734449173927,19.2770536662,-2.12398500574,0.0
1524842734449531078,19.2767011741,-2.13412238962,0.0
1524842734489347934,19.2756358826,-2.16413569634,0.0
1524842734498754024,19.2749251396,-2.18423860241,0.0
1524842734536425113,19.2742141669,-2.20434909047,0.0
1524842734576244115,19.2727927035,-2.24456471182,0.0
1524842734576350927,19.2724392486,-2.25473236194,0.0
1524842734616345882,19.2701401528,-2.31362657367,0.0
1524842734624792098,19.2697183742,-2.32311952265,0.0
1524842734668147087,19.2683783349,-2.34972455267,0.0
1524842734704453945,19.2678880628,-2.35897340531,0.0
1524842734704744100,19.266350569,-2.38814629304,0.0
1524842734748399972,19.264235909,-2.42774956068,0.0
1524842734748620986,19.2637009146,-2.43767639609,0.0
1524842734790115118,19.2631641792,-2.44763683956,0.0
1524842734801675081,19.2610011909,-2.48773477703,0.0
1524842734840420961,19.2605709226,-2.49563705195,0.0
1524842734881045103,19.2600271053,-2.50573257191,0.0
1524842734920082092,19.2562211699,-2.57594491406,0.0
1524842734920190095,19.2556762079,-2.58606668263,0.0
1524842734962238073,19.2540498551,-2.61603925217,0.0
1524842734962763071,19.2529638999,-2.63610151741,0.0
1524842735000226020,19.2524194059,-2.64621611381,0.0
1524842735018570899,19.2490476256,-2.70856435561,0.0
1524842735056572914,19.2485013186,-2.71871414102,0.0
1524842735096050024,19.2464410448,-2.75673306928,0.0
1524842735096144914,19.2447034548,-2.78891369024,0.0
1524842735136095046,19.2441581565,-2.79904621954,0.0
1524842735136200904,19.2421025616,-2.83701885251,0.0
1524842735176326036,19.2415589989,-2.84711980705,0.0
1524842735181030035,19.239938547,-2.87708628106,0.0
1524842735216109037,19.2393954992,-2.88717826318,0.0
1524842735255980014,19.2371175494,-2.92939415029,0.0
1524842735297291040,19.2345207817,-2.97747827512,0.0
1524842735297820091,19.2339780105,-2.98756624062,0.0
1524842735336448907,19.2334404001,-2.99749983118,0.0
1524842735336602926,19.2328978872,-3.00758257251,0.0
1524842735376158952,19.2312793586,-3.03755892571,0.0
1524842735380980014,19.2291175097,-3.07764062325,0.0
1524842735420458078,19.2285754238,-3.08771447763,0.0
1524842735460021018,19.2269533353,-3.11778122952,0.0
1524842735501097917,19.2241391579,-3.16999653335,0.0
1524842735501276969,19.2235959855,-3.1800906149,0.0
1524842735541363000,19.2208897142,-3.23030003789,0.0
1524842735541940927,19.2198086232,-3.25034410506,0.0
1524842735584755897,19.2187271282,-3.27040776985,0.0
1524842735585568904,19.2181839661,-3.28050177806,0.0
1524842735624177932,19.2176459257,-3.29046923244,0.0
1524842735632239103,19.2171028853,-3.30056097785,0.0
1524842735673525094,19.2144027464,-3.3506541247,0.0
1524842735712548017,19.213859992,-3.3607405688,0.0
1524842735752453088,19.2122411298,-3.39077367225,0.0
1524842735752605915,19.2100795344,-3.43089690853,0.0
1524842735792172908,19.2095371334,-3.44097683251,0.0
1524842735793037891,19.2074914514,-3.47892356308,0.0
1524842735834945917,19.205334882,-3.51895918588,0.0
1524842735876725912,19.2047942335,-3.52900656087,0.0
1524842735876880884,19.2031784632,-3.55899788021,0.0
1524842735917506933,19.202637977,-3.56904228509,0.0
1524842735917885065,19.202100426,-3.5790153842,0.0
1524842735956182956,19.1992918585,-3.63118293006,0.0
1524842735960280895,19.1987505168,-3.64124332693,0.0
1524842736001195907,19.1971327496,-3.67128110154,0.0
1524842736043112039,19.1945457917,-3.71931484464,0.0
1524842736082043886,19.1940054981,-3.72935577827,0.0
1524842736082667112,19.1923910082,-3.75933414962,0.0
1524842736120359897,19.191850984,-3.7693701187,0.0
1524842736120644092,19.1902361368,-3.79935869624,0.0
1524842736163121938,19.1874300357,-3.85149577026,0.0
1524842736200273990,19.186888918,-3.86155216196,0.0
1524842736200401067,19.1852751768,-3.89151990972,0.0
1524842736240588903,19.1831176735,-3.93160142107,0.0
1524842736240654945,19.1825771433,-3.94164715328,0.0
1524842736280652999,19.1820392099,-3.95163681007,0.0
1524842736288721084,19.1809607619,-3.97167203782,0.0
1524842736328087091,19.1804202547,-3.98171732609,0.0
1524842736369059085,19.1783764779,-4.01967636618,0.0
1524842736369431018,19.1777298601,-4.03169117243,0.0
1524842736408087015,19.1762213327,-4.05971683988,0.0
1524842736424293994,19.1740663592,-4.09975449637,0.0
1524842736464225053,19.1735269004,-4.10978039701,0.0
1524842736504832029,19.171263096,-4.15184347612,0.0
1524842736505003929,19.1686775103,-4.19988189184,0.0
1524842736544476985,19.1681380076,-4.2099085881,0.0
1524842736553349971,19.1669550329,-4.23188654716,0.0
1524842736592305898,19.1643707348,-4.27990425084,0.0
1524842736632420063,19.1638316291,-4.28992359154,0.0
1524842736632597923,19.1632943903,-4.29990402867,0.0
1524842736672573089,19.1622179596,-4.31990576374,0.0
1524842736675869941,19.16006504,-4.35991102807,0.0
1524842736712112903,19.1595261299,-4.36992680842,0.0
1524842736751991033,19.1572636863,-4.4119698366,0.0
1524842736792248964,19.1551091215,-4.45200769392,0.0
1524842736792375087,19.1545696854,-4.46203332193,0.0
