H%time;field.header.seq;field.header.stamp;field.header.frame_id;field.child_frame_id;field.pose.pose.position.x;field.pose.pose.position.y;field.pose.pose.position.z;field.pose.pose.orientation.x;field.pose.pose.orientation.y;field.pose.pose.orientation.z;field.pose.pose.orientation.w;field.pose.covariance0;field.pose.covariance1;field.pose.covariance2;field.pose.covariance3;field.pose.covariance4;field.pose.covariance5;field.pose.covariance6;field.pose.covariance7;field.pose.covariance8;field.pose.covariance9;field.pose.covariance10;field.pose.covariance11;field.pose.covariance12;field.pose.covariance13;field.pose.covariance14;field.pose.covariance15;field.pose.covariance16;field.pose.covariance17;field.pose.covariance18;field.pose.covariance19;field.pose.covariance20;field.pose.covariance21;field.pose.covariance22;field.pose.covariance23;field.pose.covariance24;field.pose.covariance25;field.pose.covariance26;field.pose.covariance27;field.pose.covariance28;field.pose.covariance29;field.pose.covariance30;field.pose.covariance31;field.pose.covariance32;field.pose.covariance33;field.pose.covariance34;field.pose.covariance35;field.twist.twist.linear.x;field.twist.twist.linear.y;field.twist.twist.linear.z;field.twist.twist.angular.x;field.twist.twist.angular.y;field.twist.twist.angular.z;field.twist.covariance0;field.twist.covariance1;field.twist.covariance2;field.twist.covariance3;field.twist.covariance4;field.twist.covariance5;field.twist.covariance6;field.twist.covariance7;field.twist.covariance8;field.twist.covariance9;field.twist.covariance10;field.twist.covariance11;field.twist.covariance12;field.twist.covariance13;field.twist.covariance14;field.twist.covariance15;field.twist.covariance16;field.twist.covariance17;field.twist.covariance18;field.twist.covariance19;field.twist.covariance20;field.twist.covariance21;field.twist.covariance22;field.twist.covariance23;field.twist.covariance24;field.twist.covariance25;field.twist.covariance26;field.twist.covariance27;field.twist.covariance28;field.twist.covariance29;field.twist.covariance30;field.twist.covariance31;field.twist.covariance32;field.twist.covariance33;field.twist.covariance34;field.twist.covariance35
58212000000;1;58212000000;map;base_link;1.72339583603;-0.00889040902804;-0.000770956899421;-6.02232753365e-15;-3.84004083297e-17;0.0017858307929;0.999998405403;6.25262098905e-05;1.82481630702e-09;8.18860193498e-10;7.49513125528e-18;2.2444441623e-15;1.04958014572e-15;1.82481630702e-09;3.94688086714e-05;-2.56852951645e-07;-2.2973262733e-15;7.58832877528e-18;-7.66927771911e-18;8.18860193498e-10;-2.56852951645e-07;7.37743935872e-08;-1.09108773628e-17;2.12045107404e-20;-6.29040381693e-22;7.49513125528e-18;-2.2973262733e-15;-1.09108773628e-17;1.12604144644e-07;4.83859238216e-23;4.98946738273e-21;2.2444441623e-15;7.58832877528e-18;2.12045107404e-20;4.70307496319e-23;1.12604144644e-07;-1.07627538891e-23;1.04958014572e-15;-7.66927771911e-18;-6.29040381693e-22;4.98949978813e-21;6.84040651283e-23;6.25261645593e-05;-1.80083872697e-08;3.03877772569e-06;6.03567976105e-07;5.44252670223e-17;-4.51474406721e-20;2.02532695617e-06;2.65268306362e-05;-1.64021239247e-11;-3.17358611208e-14;1.43897165807e-22;1.08561608632e-19;1.82260495883e-19;-1.64021239247e-11;2.65215269943e-05;-2.65911894213e-11;-1.79169283718e-19;8.18230222234e-22;-2.7728778831e-21;-3.17358611208e-14;-2.65911894213e-11;2.43262796666e-07;-3.56668392135e-22;1.82438027282e-24;-4.78470361454e-24;1.43897165807e-22;-1.79169283718e-19;-3.56668392135e-22;2.43261799526e-07;3.50423355291e-28;1.78443907768e-25;1.08561608632e-19;8.18230222234e-22;1.82438027282e-24;3.43149012928e-28;2.43261799526e-07;-1.41956157599e-27;1.82260495883e-19;-2.7728778831e-21;-4.78470361454e-24;1.78456810245e-25;2.04085969497e-27;2.63928515415e-05
58341000000;2;58341000000;map;base_link;1.72358171989;-0.00915612951453;-0.000776666401886;-3.01759213165e-11;-8.99738258979e-14;0.00181609772839;0.999998350893;2.9007251364e-05;8.9840596873e-10;2.79830156852e-10;-6.68254964683e-17;7.6226352504e-15;-2.43160697098e-11;8.9840596873e-10;1.836153324e-05;-1.28545856508e-07;-2.03125350358e-14;1.90813376262e-18;-1.33642959934e-13;2.79830156852e-10;-1.28545856508e-07;5.18481286091e-08;5.19646815538e-14;1.01905528945e-16;2.73761496739e-16;-6.68254964683e-17;-2.03125350358e-14;5.19646815538e-14;7.95557839119e-08;-1.60060449593e-24;2.39951209771e-21;7.6226352504e-15;1.90813376262e-18;1.01905528945e-16;-2.24315527046e-24;7.95557839119e-08;9.22311269813e-21;-2.43160697098e-11;-1.33642959934e-13;2.73761496739e-16;2.39952713605e-21;9.25837842138e-21;2.90007548754e-05;2.16108343154e-05;-6.51255371967e-05;-5.20156212242e-07;1.08780059932e-13;-2.63843396305e-16;8.9417448447e-06;4.02234196999e-05;-1.22384244471e-10;-2.69009885872e-13;5.45443589421e-20;2.09865879404e-19;-6.84235699707e-16;-1.22384244471e-10;4.01860177057e-05;-9.06534621037e-11;1.78530099234e-17;-2.76988422502e-20;-4.24707065813e-18;-2.69009885872e-13;-9.06534621037e-11;3.25059728799e-07;3.26223302226e-19;-5.27134609395e-22;-7.54010054675e-21;5.45443589421e-20;1.78530099234e-17;3.26223302226e-19;3.25058445311e-07;7.68568217542e-28;4.32435142817e-25;2.09865879404e-19;-2.76988422502e-20;-5.27134609395e-22;7.65186441552e-28;3.25058445311e-07;-1.26325508875e-22;-6.84235699707e-16;-4.24707065813e-18;-7.54010054675e-21;4.32464291239e-25;-1.26318365374e-22;3.92546097113e-05
58341000000;3;58341000000;map;base_link;1.72358171989;-0.00915612952221;-0.00073898259444;-1.16117504026e-11;-2.15544346312e-14;0.00181609772839;0.999998350893;1.4503625682e-05;4.49202966191e-10;1.39915219037e-10;-3.34128282665e-17;3.81131996479e-15;-1.21580348549e-11;4.49202966191e-10;9.18076661755e-06;-6.42729092942e-08;-1.01562817822e-14;9.54051764723e-19;-6.68214799022e-14;1.39915219037e-10;-6.42729092942e-08;4.89260174e-08;4.59308925257e-14;9.01564919247e-17;1.36880248888e-16;-3.34128282665e-17;-1.01562817822e-14;4.59308925257e-14;7.36929226758e-08;-5.02898792566e-24;1.19975649746e-21;3.81131996479e-15;9.54051764723e-19;9.01564919247e-17;-5.58381569119e-24;7.36929226758e-08;4.61156179084e-21;-1.21580348549e-11;-6.68214799022e-14;1.36880248888e-16;1.19976401663e-21;4.62919465331e-21;1.45003774377e-05;2.16312474816e-05;-5.04874923792e-05;-1.34629957597e-07;2.44510520583e-14;-1.22196844798e-16;8.94174488131e-06;4.00233810891e-05;-5.10235785286e-10;-1.46888327576e-13;3.59874901965e-20;1.11292404277e-18;-1.83744095615e-13;-5.10235785286e-10;3.98738517891e-05;-6.70768754065e-11;1.49891005402e-17;-1.85189437544e-20;-9.41240744154e-16;-1.46888327576e-13;-6.70768754065e-11;2.45316922616e-07;2.67033985026e-19;-4.31056045226e-22;-8.41594206537e-20;3.59874901965e-20;1.49891005402e-17;2.67033985026e-19;2.45316184699e-07;4.69263272907e-28;4.85805320436e-25;1.11292404277e-18;-1.85189437544e-20;-4.31056045226e-22;4.6637068601e-28;2.45316184699e-07;-1.15254304158e-22;-1.83744095615e-13;-9.41240744154e-16;-8.41594206537e-20;4.85833458267e-25;-1.1524734763e-22;3.9063669158e-05
58341000000;4;58341000000;map;base_link;1.72358171989;-0.0091561295205;-0.000704801257619;3.13403276455e-12;3.26703851569e-14;0.00181609772839;0.999998350893;7.251812841e-06;2.24601480342e-10;6.99576501367e-11;-1.67064383289e-17;1.90566064265e-15;-6.07901742744e-12;2.24601480342e-10;4.5903833084e-06;-3.21364491701e-08;-5.07814513372e-15;4.770211911e-19;-3.34107399413e-14;6.99576501367e-11;-3.21364491701e-08;4.64587127099e-08;4.09177680086e-14;8.03588987782e-17;6.84399801598e-17;-1.67064383289e-17;-5.07814513372e-15;4.09177680086e-14;6.86349289412e-08;-7.31784486658e-24;5.99878381047e-22;1.90566064265e-15;4.770211911e-19;8.03588987782e-17;-7.80173944281e-24;6.86349289413e-08;2.30578243117e-21;-6.07901742744e-12;-3.34107399413e-14;6.84399801598e-17;5.99882140632e-22;2.31459886264e-21;7.25018871885e-06;2.16497635316e-05;-3.72098551361e-05;7.97562556763e-08;-3.77505244331e-14;-1.68340826592e-17;8.94174491451e-06;3.99233617833e-05;-7.04373289759e-10;-9.84124730029e-14;2.94662930389e-20;1.37602921871e-18;-2.75274026101e-13;-7.04373289759e-10;3.97176169964e-05;-5.5474480657e-11;1.42751915828e-17;-1.60298741682e-20;-1.41011725925e-15;-9.84124730029e-14;-5.5474480657e-11;1.96991491629e-07;2.23657498988e-19;-3.60748537933e-22;-1.04458322378e-19;2.94662930389e-20;1.42751915828e-17;2.23657498988e-19;1.96991015206e-07;3.34126923006e-28;4.86773051548e-25;1.37602921871e-18;-1.60298741682e-20;-3.60748537933e-22;3.31736572975e-28;1.96991015206e-07;-1.06905714317e-22;-2.75274026101e-13;-1.41011725925e-15;-1.04458322378e-19;4.8679969198e-25;-1.06899106361e-22;3.89681988813e-05
58341000000;5;58341000000;map;base_link;1.72358171989;-0.00915612951868;-0.000673648996253;1.49367146446e-11;7.59633678863e-14;0.00181609772839;0.999998350893;3.6259064205e-06;1.12300739709e-10;3.49788380876e-11;-8.35322722342e-18;9.5283052857e-16;-3.03950871372e-12;1.12300739709e-10;2.29519165414e-06;-1.60682228295e-08;-2.53907396116e-15;2.38509000223e-19;-1.6705369969e-14;3.49788380876e-11;-1.60682228295e-08;4.4302634864e-08;3.66994165814e-14;7.20960225797e-17;3.42199438327e-17;-8.35322722342e-18;-2.53907396116e-15;3.66994165814e-14;6.42266851419e-08;-8.82165913698e-24;2.99939233706e-22;9.5283052857e-16;2.38509000223e-19;7.20960225797e-17;-9.24738836091e-24;6.42266851419e-08;1.15289169763e-21;-3.03950871372e-12;-1.6705369969e-14;3.42199438327e-17;2.99941113498e-22;1.15729991344e-21;3.62509435943e-06;2.16666388e-05;-2.51088026937e-05;2.09670373273e-07;-8.52881787677e-14;6.43285266516e-17;8.94174494477e-06;3.98733521302e-05;-8.01636140491e-10;-7.63486786324e-14;2.69678661418e-20;1.42420788882e-18;-3.2103899183e-13;-8.01636140491e-10;3.96393604136e-05;-4.86631717722e-11;1.41793247644e-17;-1.56225522872e-20;-1.64490356446e-15;-7.63486786324e-14;-4.86631717722e-11;1.64572130534e-07;1.91005956849e-19;-3.07897615721e-22;-1.06785698489e-19;2.69678661418e-20;1.41793247644e-17;1.91005956849e-19;1.64571799516e-07;2.60674272581e-28;4.71431174246e-25;1.42420788882e-18;-1.56225522872e-20;-3.07897615721e-22;2.58684546774e-28;1.64571799516e-07;-1.00002520203e-22;-3.2103899183e-13;-1.64490356446e-15;-1.06785698489e-19;4.71456286937e-25;-9.99962825697e-23;3.8920463743e-05
58458000000;6;58458000000;map;base_link;1.72362897613;-0.00916121053036;-0.000578385584879;-2.17452082308e-11;-9.76965633972e-11;0.00181934608594;0.999998344989;2.40086169046e-06;5.67071681562e-11;1.51682593728e-11;1.95277216802e-18;2.05730599256e-15;1.48566059264e-12;5.67071681562e-11;1.73952170105e-06;-6.61241765196e-09;-3.04803686473e-15;1.09629529038e-15;4.63456557643e-12;1.51682593728e-11;-6.61241765196e-09;3.876626166e-08;-4.93695390519e-14;-1.13526041026e-13;-2.98063125725e-15;1.95277216802e-18;-3.04803686473e-15;-4.93695390519e-14;5.24892447698e-08;-2.08087351332e-20;1.48208946389e-19;2.05730599256e-15;1.09629529038e-15;-1.13526041026e-13;-2.08091469698e-20;5.24892447698e-08;-2.26951110994e-17;1.48566059264e-12;4.63456557643e-12;-2.98063125725e-15;1.48208946229e-19;-2.26951095277e-17;2.3766066019e-06;0.000114622807172;2.52475972664e-05;7.00968135054e-07;4.43249913465e-14;2.50868313794e-13;1.97779628867e-05;5.31576291791e-05;-8.87698394786e-10;-7.56899562428e-14;5.86572099256e-21;8.81504425983e-19;-3.52490152645e-13;-8.87698394786e-10;5.28949395424e-05;-5.532330206e-11;7.52247574777e-19;-1.95957290539e-17;-9.33268526801e-15;-7.56899562428e-14;-5.532330206e-11;3.24207733446e-07;-8.75195395112e-20;-2.17571885331e-19;-3.25797667123e-18;5.86572099256e-21;7.52247574777e-19;-8.75195395112e-20;3.24206372635e-07;-3.25225406856e-26;-6.95852533623e-22;8.81504425983e-19;-1.95957290539e-17;-2.17571885331e-19;-3.25310425528e-26;3.24206372635e-07;2.56171057485e-19;-3.52490152645e-13;-9.33268526801e-15;-3.25797667123e-18;-6.9585253177e-22;2.56171060889e-19;5.05291393444e-05
58458000000;7;58458000000;map;base_link;1.72362897613;-0.00916121052893;-0.000556813733733;-3.29860770401e-11;-1.2130045815e-10;0.00181934608594;0.999998344989;1.20043084523e-06;2.83535840928e-11;7.58412691706e-12;9.7638582237e-19;1.02865336486e-15;7.42830296321e-13;2.83535840928e-11;8.69760850522e-07;-3.3062082246e-09;-1.5240188769e-15;5.48148151291e-16;2.31728278819e-12;7.58412691706e-12;-3.3062082246e-09;3.73086472243e-08;-4.52545957428e-14;-1.04050838045e-13;-1.49031091206e-15;9.7638582237e-19;-1.5240188769e-15;-4.52545957428e-14;4.98714249441e-08;-2.32099554895e-20;7.41045214817e-20;1.02865336486e-15;5.48148151291e-16;-1.04050838045e-13;-2.32103282968e-20;4.98714249441e-08;-1.13475628813e-17;7.42830296321e-13;2.31728278819e-12;-1.49031091206e-15;7.41045214014e-20;-1.13475620955e-17;1.18830330095e-06;0.000114650369525;4.13109794103e-05;6.98568766815e-07;8.65366644075e-14;3.39508480866e-13;1.97779475245e-05;4.80051718186e-05;-7.61423538318e-09;-7.05176147163e-14;-8.13634697866e-21;4.10883009421e-18;2.50468227071e-12;-7.61423538318e-09;4.58474627705e-05;-4.58144341822e-11;-8.48230514359e-18;-2.14155932847e-17;1.25108801789e-11;-7.05176147163e-14;-4.58144341822e-11;2.44831386668e-07;-8.64271141194e-20;-2.09908219824e-19;2.19612768398e-17;-8.13634697866e-21;-8.48230514359e-18;-8.64271141194e-20;2.4483061926e-07;-4.48058038744e-26;-5.03657898028e-22;4.10883009421e-18;-2.14155932847e-17;-2.09908219824e-19;-4.48107013013e-26;2.4483061926e-07;1.928152972e-19;2.50468227071e-12;1.25108801789e-11;2.19612768398e-17;-5.03657879401e-22;1.92815302893e-19;4.58322552519e-05
58458000000;8;58458000000;map;base_link;1.72362897613;-0.00916121052839;-0.000536793394818;-4.23669790377e-11;-1.40831980824e-10;0.00181934608594;0.999998344989;6.00215422615e-07;1.41767920486e-11;3.79206264873e-12;4.88192802428e-19;5.14326788845e-16;3.7141514816e-13;1.41767920486e-11;4.34880425261e-07;-1.65310393645e-09;-7.62009559683e-16;2.74074238425e-16;1.15864139409e-12;3.79206264873e-12;-1.65310393645e-09;3.59612988366e-08;-4.16347909652e-14;-9.57216009624e-14;-7.45154076851e-16;4.88192802428e-19;-7.62009559683e-16;-4.16347909652e-14;4.75023563338e-08;-2.48276282455e-20;3.70522747482e-20;5.14326788845e-16;2.74074238425e-16;-9.57216009624e-14;-2.4827967317e-20;4.75023563337e-08;-5.67378355872e-18;3.7141514816e-13;1.15864139409e-12;-7.45154076851e-16;3.7052274708e-20;-5.67378316581e-18;5.94151650474e-07;0.000114675949527;5.62190422253e-05;6.87336208633e-07;1.18552876851e-13;4.05697932557e-13;1.97779332671e-05;4.54289431374e-05;-1.09780923638e-08;-6.69942073409e-14;-1.4422839855e-20;5.1183952515e-18;3.93326904519e-12;-1.09780923638e-08;4.2323381414e-05;-4.13272571316e-11;-1.24563003868e-17;-2.37004823712e-17;1.87713146125e-11;-6.69942073409e-14;-4.13272571316e-11;1.96678299542e-07;-8.15150350196e-20;-1.95660658628e-19;3.02268995855e-17;-1.4422839855e-20;-1.24563003868e-17;-8.15150350196e-20;1.96677810668e-07;-5.11393288066e-26;-4.27248747171e-22;5.1183952515e-18;-2.37004823712e-17;-1.95660658628e-19;-5.11425982082e-26;1.96677810668e-07;1.67397837457e-19;3.93326904519e-12;1.87713146125e-11;3.02268995855e-17;-4.27248723281e-22;1.67397843779e-19;4.34838132056e-05
58559000000;9;58559000000;map;base_link;1.72368603878;-0.00907888614614;-0.000538328330563;-1.14283945269e-10;1.41495430127e-11;0.00181055375854;0.999998360946;8.84210195393e-07;1.13397917446e-11;-2.85470995441e-12;8.26995898492e-18;2.59413889187e-15;-2.309446754e-12;1.13397917446e-11;7.63846818313e-07;2.25403713838e-09;2.63082511872e-15;-8.62991057736e-15;4.93887940289e-12;-2.85470995441e-12;2.25403713838e-09;3.16447441e-08;2.16990666444e-13;-4.70907489855e-13;3.60702319751e-15;8.26995898492e-18;2.63082511872e-15;2.16990666444e-13;4.1216871938e-08;4.65994185342e-19;-1.34353046985e-16;2.59413889187e-15;-8.62991057736e-15;-4.70907489855e-13;4.65994172861e-19;4.12168719371e-08;2.88439267334e-17;-2.309446754e-12;4.93887940289e-12;3.60702319751e-15;-1.34353046985e-16;2.88439264028e-17;8.45829776342e-07;0.000386589829755;0.000539418392946;-2.75828995769e-07;3.43973719398e-13;3.83991313784e-16;-9.25442471303e-05;5.62766431303e-05;-1.31229385942e-08;1.8291550711e-13;-1.39955309985e-19;5.69167014431e-18;4.7810822215e-12;-1.31229385942e-08;5.25640082811e-05;3.67345613703e-11;-3.99139437221e-17;3.10891960617e-17;2.20773338304e-11;1.8291550711e-13;3.67345613703e-11;3.2284948757e-07;6.69758318893e-19;-1.5304543166e-18;1.97537973667e-16;-1.39955309985e-19;-3.99139437221e-17;6.69758318893e-19;3.22848133415e-07;9.59505116731e-25;1.85360376687e-18;5.69167014431e-18;3.10891960617e-17;-1.5304543166e-18;9.59533915335e-25;3.22848133415e-07;-4.14021244228e-19;4.7810822215e-12;2.20773338304e-11;1.97537973667e-16;1.85360376686e-18;-4.14021245596e-19;5.23388000136e-05
58559000000;10;58559000000;map;base_link;1.72368603878;-0.009078886146;-0.000521818855159;-5.74241166152e-11;-9.94476868812e-11;0.00181055375854;0.999998360946;4.42105097697e-07;5.66989587492e-12;-1.42735474176e-12;4.13498119507e-18;1.29707007272e-15;-1.154723377e-12;5.66989587492e-12;3.81923409138e-07;1.12701687255e-09;1.31541526625e-15;-4.31496189071e-15;2.46943970128e-12;-1.42735474176e-12;1.12701687255e-09;3.06709893814e-08;2.02270168772e-13;-4.38957730923e-13;1.80349640102e-15;4.13498119507e-18;1.31541526625e-15;2.02270168772e-13;3.95851411426e-08;5.14554504359e-19;-6.71765865987e-17;1.29707007272e-15;-4.31496189071e-15;-4.38957730923e-13;5.14554492825e-19;3.95851411416e-08;1.44219796109e-17;-1.154723377e-12;2.46943970128e-12;1.80349640102e-15;-6.71765865988e-17;1.44219794456e-17;4.22914888171e-07;0.000386599168237;0.000545721357224;-2.66339830067e-08;1.4033752781e-13;4.29913154394e-13;-9.25442323479e-05;4.0842866033e-05;-1.30213361058e-08;4.80029184001e-14;1.30978449659e-20;1.87660260184e-17;-2.46841364862e-11;-1.30213361058e-08;3.71669625394e-05;-3.5710204047e-13;-2.01628641082e-17;-2.70848682502e-17;7.7170562291e-11;4.80029184001e-14;-3.5710204047e-13;2.44055982654e-07;6.29218624206e-19;-1.42243069515e-18;4.06546181019e-17;1.30978449659e-20;-2.01628641082e-17;6.29218624206e-19;2.44055209482e-07;1.29872665809e-24;7.21523749437e-19;1.87660260184e-17;-2.70848682502e-17;-1.42243069515e-18;1.29874188994e-24;2.44055209482e-07;-1.31936761522e-19;-2.46841364862e-11;7.7170562291e-11;4.06546181019e-17;7.21523749443e-19;-1.31936759578e-19;3.84249415946e-05
58559000000;11;58559000000;map;base_link;1.72368603878;-0.00907888614622;-0.000506292048575;-7.74804409566e-12;-1.98230617681e-10;0.00181055375854;0.999998360946;2.21052548848e-07;2.83494793786e-12;-7.13677301479e-13;2.06749108216e-18;6.48535219571e-16;-5.773616885e-13;2.83494793786e-12;1.90961704566e-07;5.63507936143e-10;6.5770851769e-16;-2.15748307766e-15;1.23471985061e-12;-7.13677301479e-13;5.63507936143e-10;2.97567162809e-08;1.89006438308e-13;-4.10171504194e-13;9.01743720571e-16;2.06749108216e-18;6.5770851769e-16;1.89006438308e-13;3.80777413087e-08;5.50389100422e-19;-3.35883117415e-17;6.48535219571e-16;-2.15748307766e-15;-4.10171504194e-13;5.50389089732e-19;3.80777413077e-08;7.2109945511e-18;-5.773616885e-13;1.23471985061e-12;9.01743720571e-16;-3.35883117416e-17;7.21099446845e-18;2.11457444085e-07;0.000386607950956;0.000551649215121;1.16087165616e-07;-2.88635942747e-14;7.80405402392e-13;-9.25442184453e-05;3.31259774842e-05;-1.29706271587e-08;1.64134697553e-16;7.00517571123e-20;2.30190187925e-17;-3.94167460566e-11;-1.29706271587e-08;2.94683773729e-05;-1.30362686455e-11;-1.0665548319e-17;-5.17304885753e-17;1.04717030419e-10;1.64134697553e-16;-1.30362686455e-11;1.96177581205e-07;5.81159395424e-19;-1.30634976847e-18;-1.43865703809e-17;7.00517571123e-20;-1.0665548319e-17;5.81159395424e-19;1.96177083261e-07;1.48600086268e-24;3.52868427535e-19;2.30190187925e-17;-5.17304885753e-17;-1.30634976847e-18;1.48600996777e-24;1.96177083261e-07;-4.43627514463e-20;-3.94167460566e-11;1.04717030419e-10;-1.43865703809e-17;3.52868427546e-19;-4.43627483906e-20;3.1468012385e-05
58559000000;12;58559000000;map;base_link;1.72368603878;-0.00907888614638;-0.000491662630645;3.57599780609e-11;-2.84315818014e-10;0.00181055375854;0.999998360946;1.10526274424e-07;1.417473969e-12;-3.56838628094e-13;1.03374569397e-18;3.24267669094e-16;-2.8868084425e-13;1.417473969e-12;9.54808522825e-08;2.81753804886e-10;3.28854573734e-16;-1.07874229102e-15;6.17359925302e-13;-3.56838628094e-13;2.81753804886e-10;2.88960482047e-08;1.770120533e-13;-3.84141003457e-13;4.50870398551e-16;1.03374569397e-18;3.28854573734e-16;1.770120533e-13;3.66809590222e-08;5.76138932554e-19;-1.67941618397e-17;3.24267669094e-16;-1.07874229102e-15;-3.84141003457e-13;5.7613892262e-19;3.66809590212e-08;3.60549881102e-18;-2.8868084425e-13;6.17359925302e-13;4.50870398551e-16;-1.67941618397e-17;3.6054987697e-18;1.05728722043e-07;0.000386616226112;0.000557234494835;2.05351662836e-07;-1.72852894288e-13;1.07475680418e-12;-9.25442053461e-05;2.92675332097e-05;-1.29453598289e-08;-1.76127418573e-14;9.3126098773e-20;2.42084402687e-17;-4.67830510461e-11;-1.29453598289e-08;2.56190259725e-05;-1.73679245924e-11;-5.04303154056e-18;-6.40792183286e-17;1.18490126539e-10;-1.76127418573e-14;-1.73679245924e-11;1.6400367963e-07;5.36198264507e-19;-1.2009914636e-18;-3.43752973288e-17;9.3126098773e-20;-5.04303154056e-18;5.36198264507e-19;1.64003333443e-07;1.59706136607e-24;2.35882116417e-19;2.42084402687e-17;-6.40792183286e-17;-1.2009914636e-18;1.59706722467e-24;1.64003333443e-07;-1.99092731276e-20;-4.67830510461e-11;1.18490126539e-10;-3.43752973288e-17;2.3588211643e-19;-1.99092697186e-20;2.79895477803e-05
58697000000;13;58697000000;map;base_link;1.72379619428;-0.0090022248746;-0.000439292938779;1.72703162778e-09;-1.59707806534e-09;0.00180665682596;0.999998367994;6.8866654993e-07;6.55771173605e-12;-3.00390037086e-12;4.56775290144e-17;-6.29496335414e-16;-8.59939618775e-12;6.55771173605e-12;6.03499766967e-07;1.20716908635e-09;-4.74008625408e-14;4.05234079586e-14;7.89288161833e-12;-3.00390037086e-12;1.20716908635e-09;2.80637662936e-08;2.41532330597e-12;-1.86062215151e-12;-2.02025594889e-15;4.56775290144e-17;-4.74008625408e-14;2.41532330597e-12;3.41867464358e-08;1.61256429558e-17;-4.03758101884e-16;-6.29496335414e-16;4.05234079586e-14;-1.86062215151e-12;1.6125642885e-17;3.41867464433e-08;-5.86845312434e-17;-8.59939618775e-12;7.89288161833e-12;-2.02025594889e-15;-4.03758101885e-16;-5.86845315515e-17;6.35258137585e-07;0.00075462156344;0.000563884779885;5.84695265497e-07;-4.33974228588e-12;4.18731502564e-12;-6.18427044959e-05;4.40290283027e-05;-1.3624268355e-08;-1.40551664467e-13;1.08195710408e-18;1.88477002569e-17;-5.15405350539e-11;-1.3624268355e-08;4.01893219483e-05;-5.28239189238e-11;3.73045296852e-16;-3.48261591241e-16;1.28586457208e-10;-1.40551664467e-13;-5.28239189238e-11;3.25550128747e-07;4.44754320472e-18;-3.51146312106e-18;-3.60723782594e-16;1.08195710408e-18;3.73045296852e-16;4.44754320472e-18;3.25548732569e-07;2.6032673385e-23;3.69630795198e-18;1.88477002569e-17;-3.48261591241e-16;-3.51146312106e-18;2.6032663549e-23;3.25548732569e-07;5.35422151527e-19;-5.15405350539e-11;1.28586457208e-10;-3.60723782594e-16;3.69630795199e-18;5.35422154493e-19;4.00041686929e-05
58697000000;14;58697000000;map;base_link;1.72379619428;-0.00900222487222;-0.000427302469134;2.15255387334e-09;-1.91467419487e-09;0.00180665682596;0.999998367994;3.44333274965e-07;3.27885587976e-12;-1.50195135914e-12;2.28387855576e-17;-3.14748340341e-16;-4.29969809388e-12;3.27885587976e-12;3.01749883471e-07;6.03585815125e-10;-2.37004537131e-14;2.02617222641e-14;3.94644080904e-12;-1.50195135914e-12;6.03585815125e-10;2.72964839262e-08;2.27395647459e-12;-1.75172506265e-12;-1.01011548749e-15;2.28387855576e-17;-2.37004537131e-14;2.27395647459e-12;3.30565280009e-08;1.89089483905e-17;-2.0187918324e-16;-3.14748340341e-16;2.02617222641e-14;-1.75172506265e-12;1.89089483242e-17;3.30565280098e-08;-2.93422877392e-17;-4.29969809388e-12;3.94644080904e-12;-1.01011548749e-15;-2.0187918324e-16;-2.93422878933e-17;3.17629068793e-07;0.000754621692329;0.000564138703549;5.7689950601e-07;-5.89735141195e-12;5.36893632308e-12;-6.18426873714e-05;3.0187314592e-05;-7.40137499016e-09;-5.33568822908e-14;4.45591126174e-19;1.51270820693e-17;-9.91512248932e-11;-7.40137499016e-09;2.81006445632e-05;-2.04747167554e-11;1.41441109421e-16;-1.4255972259e-16;1.1944990476e-10;-5.33568822908e-14;-2.04747167554e-11;2.45596142572e-07;4.48465453558e-18;-3.52411090954e-18;-1.71309411774e-16;4.45591126174e-19;1.41441109421e-16;4.48465453558e-18;2.45595353291e-07;3.75762298113e-23;7.9680731248e-19;1.51270820693e-17;-1.4255972259e-16;-3.52411090954e-18;3.75762245557e-23;2.45595353291e-07;7.68979036157e-20;-9.91512248932e-11;1.1944990476e-10;-1.71309411774e-16;7.96807312486e-19;7.68979049028e-20;2.79201467587e-05
58697000000;15;58697000000;map;base_link;1.72379619428;-0.00900222487135;-0.000415949183319;2.52696102152e-09;-2.1936156891e-09;0.00180665682596;0.999998367994;1.72166637482e-07;1.63942794165e-12;-7.50976025562e-13;1.1419399686e-17;-1.57374221343e-16;-2.14984904694e-12;1.63942794166e-12;1.50874941734e-07;3.01793282514e-10;-1.18502342336e-14;1.0130867107e-14;1.9732204045e-12;-7.50976025562e-13;3.01793282514e-10;2.65705697768e-08;2.14466292115e-12;-1.65212654182e-12;-5.05054062784e-16;1.1419399686e-17;-1.18502342336e-14;2.14466292115e-12;3.19986924317e-08;2.11355099527e-17;-1.00939630409e-16;-1.57374221343e-16;1.0130867107e-14;-1.65212654182e-12;2.11355098905e-17;3.19986924419e-08;-1.46711503471e-17;-2.14984904694e-12;1.9732204045e-12;-5.05054062784e-16;-1.00939630409e-16;-1.46711504241e-17;1.58814534396e-07;0.000754621814345;0.000564379124927;5.66384214383e-07;-7.14227456811e-12;6.30978863795e-12;-6.18426711569e-05;2.32664577366e-05;-4.28992838438e-09;-2.17250520267e-14;2.14458820426e-19;1.35779792404e-17;-1.22956569818e-10;-4.28992838438e-09;2.20563057177e-05;-8.72584956307e-12;5.85047969106e-17;-6.84868293271e-17;1.14881618189e-10;-2.17250520267e-14;-8.72584956307e-12;1.97171506443e-07;4.32236219227e-18;-3.38849997827e-18;-1.01505273434e-16;2.14458820426e-19;5.85047969106e-17;4.32236219227e-18;1.97171001602e-07;4.46790819533e-23;-1.38865379208e-19;1.35779792404e-17;-6.84868293271e-17;-3.38849997827e-18;4.46790788444e-23;1.97171001602e-07;-6.57875862924e-20;-1.22956569818e-10;1.14881618189e-10;-1.01505273434e-16;-1.38865379205e-19;-6.57875856197e-20;2.18781357917e-05
58697000000;16;58697000000;map;base_link;1.72379619428;-0.009002224871;-0.000405183597053;2.8567287953e-09;-2.43881901531e-09;0.00180665682596;0.999998367994;8.60833187412e-08;8.19713971125e-13;-3.7548812579e-13;5.70970231458e-18;-7.86871274733e-17;-1.07492452347e-12;8.19713971125e-13;7.54374708665e-08;1.50896763725e-10;-5.92511976005e-15;5.06543568457e-15;9.86610202247e-13;-3.7548812579e-13;1.50896763725e-10;2.58825298912e-08;2.02610967868e-12;-1.56080075127e-12;-2.52525829097e-16;5.70970231458e-18;-5.92511976005e-15;2.02610967868e-12;3.10064815962e-08;2.29026555634e-17;-5.046982781e-17;-7.86871274733e-17;5.06543568457e-15;-1.56080075127e-12;2.2902655505e-17;3.10064816073e-08;-7.33557727625e-18;-1.07492452347e-12;9.86610202247e-13;-2.52525829097e-16;-5.046982781e-17;-7.33557731477e-18;7.94072671982e-08;0.000754621930036;0.00056460709792;5.54868922608e-07;-8.17907800202e-12;7.09076382194e-12;-6.18426557818e-05;1.9806029309e-05;-2.73420515527e-09;-9.35633069062e-15;1.23722660379e-19;1.27798887945e-17;-1.34859242286e-10;-2.73420515527e-09;1.90341361492e-05;-4.12014812726e-12;2.69711578981e-17;-3.99469509101e-17;1.12597465073e-10;-9.35633069062e-15;-4.12014812726e-12;1.64697754562e-07;4.11139745165e-18;-3.21837052487e-18;-7.32670360259e-17;1.23722660379e-19;2.69711578981e-17;4.11139745165e-18;1.64697405278e-07;4.94355226632e-23;-4.24708952005e-19;1.27798887945e-17;-3.99469509101e-17;-3.21837052487e-18;4.94355207035e-23;1.64697405278e-07;-1.05277824667e-19;-1.34859242286e-10;1.12597465073e-10;-7.32670360259e-17;-4.24708952004e-19;-1.05277824239e-19;1.88571303081e-05
58817000000;17;58817000000;map;base_link;1.72390318476;-0.00890581373512;-0.000427378305109;7.50060907189e-10;-1.27109791734e-10;0.00179931224132;0.999998381236;3.83355266708e-07;1.56729330407e-12;-3.86421994995e-13;2.65355745893e-17;7.66922461389e-16;-7.6520261884e-12;1.56729330407e-12;3.61510879453e-07;5.27497725707e-10;4.22095756298e-14;-4.68487638653e-14;8.8485000127e-12;-3.86421994995e-13;5.27497725707e-10;2.60229799816e-08;3.67437208467e-12;-3.92103496218e-12;1.24327701441e-14;2.65355745893e-17;4.22095756298e-14;3.67437208467e-12;3.11357384147e-08;4.99837729265e-17;-1.48367208817e-15;7.66922461389e-16;-4.68487638653e-14;-3.92103496218e-12;4.99837727716e-17;3.11357384224e-08;-1.70352385646e-15;-7.6520261884e-12;8.8485000127e-12;1.24327701441e-14;-1.48367208817e-15;-1.70352385651e-15;3.48158775781e-07;0.000884388271341;0.000770314601585;-1.52105743831e-06;-3.3860066842e-12;2.06726951081e-12;-0.000110393940138;3.24160422886e-05;-2.06924442074e-09;4.61269589416e-13;-1.42506029103e-18;1.42867174876e-17;-1.46471867978e-10;-2.06924442074e-09;3.18317848241e-05;1.18313376385e-10;-3.73710402833e-16;3.65428499317e-16;1.15803780715e-10;4.61269589416e-13;1.18313376385e-10;9.23913363529e-07;1.01443419866e-17;-1.0182574322e-17;1.73113163821e-15;-1.42506029103e-18;-3.73710402833e-16;1.01443419866e-17;9.23903006887e-07;7.89692879364e-23;1.43381485104e-17;1.42867174876e-17;3.65428499317e-16;-1.0182574322e-17;7.89691199118e-23;9.23903006887e-07;1.65612273768e-17;-1.46471867978e-10;1.15803780715e-10;1.73113163821e-15;1.43381485104e-17;1.65612273772e-17;2.93412169042e-05
58817000000;18;58817000000;map;base_link;1.72390318476;-0.00890581373076;-0.000416538394575;1.44782518308e-09;-8.89277574744e-10;0.00179931224132;0.999998381236;1.91677633354e-07;7.83646640503e-13;-1.93212679819e-13;1.32678143384e-17;3.8346124542e-16;-3.8260130942e-12;7.83646640503e-13;1.8075543969e-07;2.63743544281e-10;2.11048588642e-14;-2.34244568078e-14;4.42425000546e-12;-1.93212679819e-13;2.63743544281e-10;2.53618375008e-08;3.47584584303e-12;-3.70918015196e-12;6.21625451342e-15;1.32678143384e-17;2.11048588642e-14;3.47584584303e-12;3.01947974559e-08;5.9455774233e-17;-7.41838833426e-16;3.8346124542e-16;-2.34244568078e-14;-3.70918015196e-12;5.94557740871e-17;3.01947974614e-08;-8.51765225591e-16;-3.8260130942e-12;4.42425000546e-12;6.21625451342e-15;-7.41838833426e-16;-8.51765225618e-16;1.74079387891e-07;0.000884387939968;0.00077010172395;-5.19667806986e-07;-5.55842897542e-12;4.24069262033e-12;-0.000110393933039;2.33698500423e-05;-1.3677892145e-09;1.20961842618e-13;-3.83360073782e-19;1.65735263843e-17;-1.3770330884e-10;-1.3677892145e-09;2.29834739445e-05;3.14144016272e-11;-1.3459157252e-16;1.16906869509e-16;1.39105965009e-10;1.20961842618e-13;3.14144016272e-11;4.80225661362e-07;9.99707065149e-18;-1.04421815417e-17;4.28143369176e-16;-3.83360073782e-19;-1.3459157252e-16;9.99707065149e-18;4.80222859442e-07;1.51046361385e-22;-7.14441738575e-18;1.65735263843e-17;1.16906869509e-16;-1.04421815417e-17;1.51046320008e-22;4.80222859442e-07;-8.43178581687e-18;-1.3770330884e-10;1.39105965009e-10;4.28143369176e-16;-7.14441738575e-18;-8.43178581683e-18;2.15735276264e-05
58817000000;19;58817000000;map;base_link;1.72390318476;-0.00890581373037;-0.00040623555422;2.07128113455e-09;-1.57124744364e-09;0.00179931224132;0.999998381236;9.5838816677e-08;3.91823319239e-13;-9.66066279699e-14;6.63391272085e-18;1.91730624214e-16;-1.9130065471e-12;3.91823319239e-13;9.03777198419e-08;1.31870861453e-10;1.05524445209e-14;-1.17122443449e-14;2.21212500265e-12;-9.66066279699e-14;1.31870861453e-10;2.47340915137e-08;3.29302941677e-12;-3.5140905609e-12;3.10810490143e-15;6.63391272085e-18;1.05524445209e-14;3.29302941677e-12;2.93095362821e-08;6.72165755666e-17;-3.70919892022e-16;1.91730624214e-16;-1.17122443449e-14;-3.5140905609e-12;6.7216575429e-17;2.93095362859e-08;-4.25883174836e-16;-1.9130065471e-12;2.21212500265e-12;3.10810490143e-15;-3.70919892022e-16;-4.25883174849e-16;8.70396939454e-08;0.000884387624883;0.000769899350046;-1.77090976832e-07;-7.32113929912e-12;6.11457555801e-12;-0.000110393926291;1.88467539192e-05;-1.01706178336e-09;4.1745206207e-14;-1.42456213264e-19;1.7056123486e-17;-1.33319029265e-10;-1.01706178336e-09;1.85593183917e-05;1.11601506738e-11;-8.00504852587e-17;6.0437195316e-17;1.50757061004e-10;4.1745206207e-14;1.11601506738e-11;3.24427152393e-07;8.86299227128e-18;-9.34114068051e-18;1.26635964919e-16;-1.42456213264e-19;-8.00504852587e-17;8.86299227128e-18;3.24425873258e-07;1.72902428353e-22;-9.55077957947e-18;1.7056123486e-17;6.0437195316e-17;-9.34114068051e-18;1.7290241093e-22;3.24425873258e-07;-1.11886369574e-17;-1.33319029265e-10;1.50757061004e-10;1.26635964919e-16;-9.55077957947e-18;-1.11886369574e-17;1.76896829875e-05
58817000000;20;58817000000;map;base_link;1.72390318476;-0.00890581373037;-0.000396430282136;2.62903693713e-09;-2.18227382655e-09;0.00179931224132;0.999998381236;4.79194083385e-08;1.9591165949e-13;-4.83033856792e-14;3.31695795867e-18;9.58653122418e-17;-9.5650327355e-13;1.9591165949e-13;4.51888599205e-08;6.59352040687e-11;5.27622670312e-15;-5.85612687347e-15;1.10606250131e-12;-4.83033856792e-14;6.59352040687e-11;2.41368696677e-08;3.1243004761e-12;-3.33403451397e-12;1.5540468868e-15;3.31695795867e-18;5.27622670312e-15;3.1243004761e-12;2.84748245797e-08;7.3541320996e-17;-1.85460063766e-16;9.58653122418e-17;-5.85612687347e-15;-3.33403451397e-12;7.3541320866e-17;2.8474824582e-08;-2.129417267e-16;-9.5650327355e-13;1.10606250131e-12;1.5540468868e-15;-1.85460063766e-16;-2.12941726706e-16;4.35198469727e-08;0.000884387324999;0.000769706742683;-8.68885440532e-09;-8.85153250545e-12;7.77378947971e-12;-0.000110393919869;1.65852058576e-05;-8.41698237432e-10;1.65391685002e-14;-6.71977009709e-20;1.70668940247e-17;-1.31126889472e-10;-8.41698237432e-10;1.63472405062e-05;4.69853844927e-12;-6.33699025997e-17;4.34531746669e-17;1.5658261265e-10;1.65391685002e-14;4.69853844927e-12;2.44956487919e-07;7.9737583633e-18;-8.43961617854e-18;3.18621321062e-17;-6.71977009709e-20;-6.33699025997e-17;7.9737583633e-18;2.44955759337e-07;1.85082127613e-22;-8.84740077059e-18;1.70668940247e-17;4.34531746669e-17;-8.43961617854e-18;1.85082118319e-22;2.44955759337e-07;-1.03333887002e-17;-1.31126889472e-10;1.5658261265e-10;3.18621321062e-17;-8.84740077059e-18;-1.03333887003e-17;1.57477606681e-05
58979000000;21;58979000000;map;base_link;1.72496432821;-0.00874692744861;-0.000384090027355;3.25150003968e-09;-2.91378420707e-09;0.00178575408887;0.99999840554;5.22504919497e-07;4.95104822696e-13;1.55891934932e-12;2.83648404188e-16;-1.85218186326e-15;-1.03518811764e-11;4.95104822697e-13;5.12746278301e-07;2.11892242186e-10;6.49714104558e-14;-6.95552332661e-14;1.20274273446e-11;1.55891934932e-12;2.11892242186e-10;2.71172409253e-08;5.73755928612e-12;-6.38754158786e-12;9.36217490302e-15;2.83648404188e-16;6.49714104558e-14;5.73755928612e-12;3.08591588551e-08;1.53255615561e-16;-2.40137343594e-15;-1.85218186326e-15;-6.95552332661e-14;-6.38754158786e-12;1.53255615353e-16;3.08591588379e-08;-2.78378041151e-15;-1.03518811764e-11;1.20274273446e-11;9.36217490302e-15;-2.40137343594e-15;-2.78378041152e-15;4.56262959371e-07;0.00630558155314;0.000965620215496;1.02383912979e-07;-1.25208582411e-11;1.13211416931e-11;-0.000161702870531;3.55602055904e-05;-9.42655756016e-10;4.51580255218e-13;-5.2672631105e-18;2.98524238134e-17;-1.39026789826e-10;-9.42655756016e-10;3.52949251168e-05;5.01277657784e-11;-6.95873911618e-16;7.37187073537e-16;1.71330585774e-10;4.51580255218e-13;5.01277657784e-11;4.85206849549e-07;2.12955437675e-17;-2.37854014226e-17;7.70310380872e-16;-5.2672631105e-18;-6.95873911618e-16;2.12955437675e-17;4.8520256807e-07;5.25191541939e-22;2.59124436549e-17;2.98524238134e-17;7.37187073537e-16;-2.37854014226e-17;5.25191456914e-22;4.8520256807e-07;2.98279007294e-17;-1.39026789826e-10;1.71330585774e-10;7.70310380872e-16;2.59124436549e-17;2.98279007274e-17;3.09639162387e-05
58979000000;22;58979000000;map;base_link;1.72496432821;-0.00874692744986;-0.000373949842153;4.16472477119e-09;-3.94756616294e-09;0.00178575408887;0.99999840554;2.61252459748e-07;2.47552345734e-13;7.79445833377e-13;1.41824605928e-16;-9.26092284688e-16;-5.17594058822e-12;2.47552345734e-13;2.56373139139e-07;1.05943622368e-10;3.24857859396e-14;-3.47777047549e-14;6.01371367202e-12;7.79445833377e-13;1.05943622368e-10;2.64007437826e-08;5.42340017771e-12;-6.03779328879e-12;4.68103195261e-15;1.41824605928e-16;3.24857859396e-14;5.42340017771e-12;2.9934874496e-08;1.75895854134e-16;-1.20068953176e-15;-9.26092284688e-16;-3.47777047549e-14;-6.03779328879e-12;1.75895853938e-16;2.9934874473e-08;-1.39189345593e-15;-5.17594058822e-12;6.01371367202e-12;4.68103195261e-15;-1.20068953176e-15;-1.39189345593e-15;2.28131479686e-07;0.00630558123749;0.000965472464977;2.97060248299e-07;-1.72377803686e-11;1.66768918716e-11;-0.000161702871834;2.6530605254e-05;-5.51978297703e-10;1.53088071426e-13;-1.73667480193e-18;1.38833313835e-17;-1.16818792315e-10;-5.51978297703e-10;2.6375107245e-05;1.73789350335e-11;-2.44598362666e-16;2.54315095227e-16;1.40626087519e-10;1.53088071426e-13;1.73789350335e-11;3.26692750693e-07;2.23650755074e-17;-2.50182421989e-17;2.63741492411e-16;-1.73667480193e-18;-2.44598362666e-16;2.23650755074e-17;3.26690822665e-07;7.6209097556e-22;-5.15849878069e-19;1.38833313835e-17;2.54315095227e-16;-2.50182421989e-17;7.62090937988e-22;3.26690822665e-07;-4.9019379275e-19;-1.16818792315e-10;1.40626087519e-10;2.63741492411e-16;-5.15849878062e-19;-4.90193793445e-19;2.39112325494e-05
58979000000;23;58979000000;map;base_link;1.72496432821;-0.0087469274504;-0.000364331467351;4.97606005457e-09;-4.86711674402e-09;0.00178575408887;0.99999840554;1.30626229874e-07;1.23776164542e-13;3.89719494766e-13;7.09124199408e-17;-4.63046495171e-16;-2.58797029411e-12;1.23776164542e-13;1.28186569568e-07;5.29711934347e-11;1.62429160112e-14;-1.73888776021e-14;3.00685683597e-12;3.89719494766e-13;5.29711934347e-11;2.57213988188e-08;5.13438566221e-12;-5.71603783483e-12;2.34050225555e-15;7.09124199408e-17;1.62429160112e-14;5.13438566221e-12;2.90645816444e-08;1.94272563758e-16;-6.00345459073e-16;-4.63046495171e-16;-1.73888776021e-14;-5.71603783483e-12;1.94272563573e-16;2.90645816166e-08;-6.95947528819e-16;-2.58797029411e-12;3.00685683597e-12;2.34050225555e-15;-6.00345459073e-16;-6.95947528821e-16;1.14065739843e-07;0.00630558093811;0.000965332318657;3.87014308068e-07;-2.08910856327e-11;2.08432442283e-11;-0.000161702873069;2.20158050858e-05;-3.56639710731e-10;5.86654235594e-14;-6.26612825304e-19;8.76665031227e-18;-1.0571479356e-10;-3.56639710731e-10;2.19151982412e-05;7.00839400065e-12;-1.0425266662e-16;1.04379663033e-16;1.25273837797e-10;5.86654235594e-14;7.00839400065e-12;2.46245780243e-07;2.1478066046e-17;-2.40402015792e-17;1.03424422582e-16;-6.26612825304e-19;-1.0425266662e-16;2.1478066046e-17;2.46244693083e-07;8.77073592689e-22;-7.0895088408e-18;8.76665031227e-18;1.04379663033e-16;-2.40402015792e-17;8.77073572068e-22;2.46244693083e-07;-8.04154047553e-18;-1.0571479356e-10;1.25273837797e-10;1.03424422582e-16;-7.0895088408e-18;-8.04154047582e-18;2.03848907047e-05
58979000000;24;58979000000;map;base_link;1.72496432821;-0.00874692745064;-0.000355195539751;5.69757999424e-09;-5.68593187286e-09;0.00178575408887;0.99999840554;6.53131149371e-08;6.18880810123e-14;1.94858738512e-13;3.54562492337e-17;-2.31523356712e-16;-1.29398514706e-12;6.18880810124e-14;6.40932847837e-08;2.64854145889e-11;8.12146565909e-15;-8.69444719604e-15;1.50342841798e-12;1.94858738512e-13;2.64854145889e-11;2.50762428664e-08;4.86789758472e-12;-5.41936060534e-12;1.17024708254e-15;3.54562492337e-17;8.12146565909e-15;4.86789758472e-12;2.82435529217e-08;2.09081169085e-16;-3.00172933225e-16;-2.31523356712e-16;-8.69444719604e-15;-5.41936060534e-12;2.0908116891e-16;2.82435528901e-08;-3.47973999778e-16;-1.29398514706e-12;1.50342841798e-12;1.17024708254e-15;-3.00172933225e-16;-3.47973999779e-16;5.70328699214e-08;0.00630558065376;0.000965199202534;4.34856548924e-07;-2.39320748013e-11;2.43218678002e-11;-0.000161702874242;1.97584050017e-05;-2.58970555314e-10;2.44446088472e-14;-2.29917631964e-19;6.84372295893e-18;-1.00162794184e-10;-2.58970555314e-10;1.96852436746e-05;3.24040797793e-12;-5.53022467189e-17;5.22974814112e-17;1.17597712365e-10;2.44446088472e-14;3.24040797793e-12;1.97589941959e-07;2.02999901669e-17;-2.27290445926e-17;4.52589108784e-17;-2.29917631964e-19;-5.53022467189e-17;2.02999901669e-17;1.97589247762e-07;9.46765254796e-22;-8.32460163354e-18;6.84372295893e-18;5.22974814112e-17;-2.27290445926e-17;9.46765241822e-22;1.97589247762e-07;-9.46872713349e-18;-1.00162794184e-10;1.17597712365e-10;4.52589108784e-17;-8.32460163354e-18;-9.46872713362e-18;1.86217197824e-05
59099000000;25;59099000000;map;base_link;1.7263941659;-0.00860972229079;-0.000334664813575;7.58180377562e-09;-1.1465496536e-08;0.0017736651194;0.999998427055;3.65954585142e-07;8.69580860248e-14;2.49233750005e-13;2.3672104215e-17;9.54595365969e-16;-8.34271394351e-12;8.69580860247e-14;3.63628818716e-07;6.30793265813e-11;3.36554694944e-14;-9.85186161137e-14;4.02522108097e-11;2.49233750005e-13;6.30793265813e-11;2.5916059756e-08;7.02064438631e-12;-2.38416452808e-11;1.11003445373e-14;2.3672104215e-17;3.36554694944e-14;7.02064438631e-12;2.86266045102e-08;5.58666279936e-16;-3.55245645501e-15;9.54595365969e-16;-9.85186161137e-14;-2.38416452808e-11;5.58666279789e-16;2.86266033551e-08;-3.58203925911e-15;-8.34271394351e-12;4.02522108097e-11;1.11003445373e-14;-3.55245645501e-15;-3.58203925912e-15;3.22308273943e-07;0.0114802310639;0.00110455287843;3.62133225905e-07;-2.4497624931e-11;3.41046722631e-11;-0.000195520723177;3.3586598895e-05;-2.75222228295e-10;7.40676582777e-14;-1.29968211698e-18;8.3947693088e-18;-1.04518243072e-10;-2.75222228295e-10;3.35087586506e-05;2.1268100557e-11;-3.63641210731e-16;9.27876513497e-16;1.21505821076e-10;7.40676582777e-14;2.1268100557e-11;4.80262962971e-07;1.71763554639e-17;-5.01568412888e-17;1.08385067914e-15;-1.29968211698e-18;-3.63641210731e-16;1.71763554639e-17;4.80259360038e-07;1.21161610668e-21;4.22031950474e-17;8.3947693088e-18;9.27876513497e-16;-5.01568412888e-17;1.21161610709e-21;4.80259360038e-07;4.186445219e-17;-1.04518243072e-10;1.21505821076e-10;1.08385067914e-15;4.22031950474e-17;4.18644521871e-17;2.97296769337e-05
59099000000;26;59099000000;map;base_link;1.7263941659;-0.00860972229138;-0.000326211025421;8.4586956637e-09;-1.48167708579e-08;0.0017736651194;0.999998427055;1.82977292571e-07;4.3479043158e-14;1.24616950105e-13;1.18360592477e-17;4.77297906053e-16;-4.17135697176e-12;4.3479043158e-14;1.81814409357e-07;3.1538950083e-11;1.68277631232e-14;-4.92593926074e-14;2.01261054047e-11;1.24616950105e-13;3.1538950083e-11;2.52610109338e-08;6.657793433e-12;-2.26094260095e-11;5.55009540217e-15;1.18360592477e-17;1.68277631232e-14;6.657793433e-12;2.78295719149e-08;6.7394081631e-16;-1.77623205331e-15;4.77297906053e-16;-4.92593926074e-14;-2.26094260095e-11;6.7394081617e-16;2.78295703719e-08;-1.79102345202e-15;-4.17135697176e-12;2.01261054047e-11;5.55009540217e-15;-1.77623205331e-15;-1.79102345203e-15;1.61154136971e-07;0.0114802306808;0.00110447127499;4.11178886279e-07;-2.8383494405e-11;4.86347771681e-11;-0.000195520728687;2.38403545532e-05;-1.87537736735e-10;2.61479851902e-14;-2.54386899419e-19;1.16870028681e-17;-1.44815535809e-10;-1.87537736735e-10;2.37872720468e-05;7.43642237841e-12;-1.23736034697e-16;3.18950729524e-16;5.91202798461e-10;2.61479851902e-14;7.43642237841e-12;3.2444410114e-07;1.85105319009e-17;-5.77848068716e-17;3.85766155099e-16;-2.54386899419e-19;-1.23736034697e-16;1.85105319009e-17;3.24442463666e-07;1.94613224916e-21;-8.24636151322e-18;1.16870028681e-17;3.18950729524e-16;-5.77848068716e-17;1.94613224887e-21;3.24442463666e-07;-8.15478547266e-18;-1.44815535809e-10;5.91202798461e-10;3.85766155099e-16;-8.24636151322e-18;-8.15478547365e-18;2.16235814645e-05
59099000000;27;59099000000;map;base_link;1.7263941659;-0.00860972229158;-0.000318173849807;9.23752130769e-09;-1.78159160236e-08;0.0017736651194;0.999998427055;9.14886462855e-08;2.17395215976e-14;6.2308493734e-14;5.9180312779e-18;2.38649008776e-16;-2.08567848588e-12;2.17395215976e-14;9.09072046781e-08;1.57692976317e-11;8.41388971974e-15;-2.4629721077e-14;1.00630527023e-11;6.2308493734e-14;1.57692976317e-11;2.46384331852e-08;6.32237931583e-12;-2.14703812147e-11;2.7750285806e-15;5.9180312779e-18;8.41388971974e-15;6.32237931583e-12;2.70758848213e-08;7.69786657683e-16;-8.88116975829e-16;2.38649008776e-16;-2.4629721077e-14;-2.14703812147e-11;7.69786657552e-16;2.70758829534e-08;-8.95512674889e-16;-2.08567848588e-12;1.00630527023e-11;2.7750285806e-15;-8.88116975829e-16;-8.95512674892e-16;8.05770684857e-08;0.0114802303167;0.0011043936952;4.29999384368e-07;-3.13588692491e-11;6.00791299685e-11;-0.000195520733925;1.89672323824e-05;-1.43695619752e-10;1.09230307066e-14;6.57351076298e-20;1.27837343947e-17;-1.64964182186e-10;-1.43695619752e-10;1.89265287174e-05;3.04040755972e-12;-4.94842285852e-17;1.31368517535e-16;8.26051285301e-10;1.09230307066e-14;3.04040755972e-12;2.44966109466e-07;1.80079646262e-17;-5.76074007701e-17;1.63341681505e-16;6.57351076298e-20;-4.94842285852e-17;1.80079646262e-17;2.4496518029e-07;2.34716738172e-21;-1.98448127925e-17;1.27837343947e-17;1.31368517535e-16;-5.76074007701e-17;2.34716738132e-21;2.4496518029e-07;-1.9679772792e-17;-1.64964182186e-10;8.26051285301e-10;1.63341681505e-16;-1.98448127925e-17;-1.96797727924e-17;1.757053373e-05
59211000000;28;59211000000;map;base_link;1.72833866009;-0.00847216393764;-0.000299090365702;1.1165736102e-08;-2.99372705804e-08;0.00176177355993;0.999998448076;3.45535191406e-07;2.11232237851e-15;9.90439711829e-13;2.86468738633e-16;-1.30139698307e-15;-1.34654282396e-11;2.11232237845e-15;3.44406115385e-07;-2.434108945e-11;6.41809833015e-15;-1.8855645283e-14;1.15266114766e-10;9.90439711829e-13;-2.434108945e-11;2.65432292235e-08;8.33319203015e-12;-4.94961546321e-11;-1.01805882996e-15;2.86468738633e-16;6.41809833015e-15;8.33319203015e-12;2.86057773393e-08;1.62736868793e-15;-9.57053109923e-15;-1.30139698307e-15;-1.8855645283e-14;-4.94961546321e-11;1.62736868783e-15;2.8605770401e-08;-5.10818916084e-15;-1.34654282396e-11;1.15266114766e-10;-1.01805882996e-15;-9.57053109923e-15;-5.10818916085e-15;3.0058708323e-07;0.0165300447623;0.00117769532511;4.01789498023e-07;-4.22937422945e-11;1.09602390889e-10;-0.000208175690344;3.05103366936e-05;-1.57405595387e-10;2.18787268272e-13;-3.48892661206e-18;3.58309969577e-17;-1.86666984626e-10;-1.57405595387e-10;3.04659752856e-05;-2.47247196165e-13;-8.91535240454e-17;2.21775271187e-16;1.0043912112e-09;2.18787268272e-13;-2.47247196165e-13;4.78988483024e-07;2.78229260245e-17;-1.52381255765e-16;-1.85993560052e-16;-3.48892661206e-18;-8.91535240454e-17;2.78229260245e-17;4.78984224095e-07;5.24539568075e-21;1.33404904414e-16;3.58309969577e-17;2.21775271187e-16;-1.52381255765e-16;5.24539569904e-21;4.78984224095e-07;6.78005019036e-17;-1.86666984626e-10;1.0043912112e-09;-1.85993560052e-16;1.33404904414e-16;6.78005019025e-17;2.67358000491e-05
59211000000;29;59211000000;map;base_link;1.72833866009;-0.00847216393762;-0.000291357210615;1.20136797792e-08;-3.59122369694e-08;0.00176177355993;0.999998448076;1.72767595703e-07;1.0561616369e-15;4.95210565844e-13;1.4323475464e-16;-6.50700666092e-16;-6.73271411982e-12;1.05616163687e-15;1.72203057693e-07;-1.21705199609e-11;3.20905231011e-15;-9.427829788e-15;5.76330573829e-11;4.95210565844e-13;-1.21705199609e-11;2.58563865978e-08;7.89798381223e-12;-4.69111692692e-11;-5.09015704584e-16;1.4323475464e-16;3.20905231011e-15;7.89798381223e-12;2.78097438165e-08;1.89772224977e-15;-4.78528177289e-15;-6.50700666092e-16;-9.427829788e-15;-4.69111692692e-11;1.89772224968e-15;2.78097351906e-08;-2.5541027077e-15;-6.73271411982e-12;5.76330573829e-11;-5.09015704584e-16;-4.78528177289e-15;-2.5541027077e-15;1.50293541615e-07;0.0165300445582;0.00117764006599;4.47717900436e-07;-4.69759079624e-11;1.41362350465e-10;-0.000208175698198;2.21186105485e-05;-9.93297351073e-11;7.48887992556e-14;-1.04395951104e-18;2.42755333448e-17;-2.06298528834e-10;-9.93297351073e-11;2.20905957835e-05;1.42538726309e-13;-3.44546043485e-17;7.08344498673e-17;1.5660164733e-09;7.48887992556e-14;1.42538726309e-13;3.23861856793e-07;3.02145743872e-17;-1.72417390322e-16;-2.73080371365e-17;-1.04395951104e-18;-3.44546043485e-17;3.02145743872e-17;3.23859918294e-07;7.83771945607e-21;-3.30730705727e-17;2.42755333448e-17;7.08344498673e-17;-1.72417390322e-16;7.83771946332e-21;3.23859918294e-07;-1.59673507885e-17;-2.06298528834e-10;1.5660164733e-09;-2.73080371365e-17;-3.30730705727e-17;-1.59673507889e-17;1.9911756229e-05
59211000000;30;59211000000;map;base_link;1.72833866009;-0.00847216393761;-0.000284013916028;1.27606154496e-08;-4.12399550046e-08;0.00176177355993;0.999998448076;8.63837978515e-08;5.28080875608e-16;2.47602970359e-13;7.16174903324e-17;-3.25350975944e-16;-3.36635705991e-12;5.28080875593e-16;8.61015288463e-08;-6.08525381599e-12;1.60452689041e-15;-4.71391639608e-15;2.88165286914e-11;2.47602970359e-13;-6.08525381599e-12;2.52044327412e-08;7.49600824175e-12;-4.45235769343e-11;-2.54504439445e-16;7.16174903324e-17;1.60452689041e-15;7.49600824175e-12;2.70570458766e-08;2.1209472041e-15;-2.39264491726e-15;-3.25350975944e-16;-4.71391639608e-15;-4.45235769343e-11;2.12094720402e-15;2.70570358463e-08;-1.27705337298e-15;-3.36635705991e-12;2.88165286914e-11;-2.54504439445e-16;-2.39264491726e-15;-1.27705337298e-15;7.51467708074e-08;0.0165300443645;0.00117758759226;4.64471508015e-07;-5.04495273087e-11;1.65961549602e-10;-0.000208175705656;1.7922747476e-05;-7.02918631273e-11;2.91219117916e-14;-2.75722140379e-19;2.05685250569e-17;-2.16114300946e-10;-7.02918631273e-11;1.79029060167e-05;2.62555174061e-13;-1.89884809705e-17;3.39144386833e-17;1.84682910211e-09;2.91219117916e-14;2.62555174061e-13;2.44633984903e-07;2.94799141884e-17;-1.708153004e-16;2.19438293035e-17;-2.75722140379e-19;-1.89884809705e-17;2.94799141884e-17;2.44632884076e-07;9.17640961713e-21;-7.01608571733e-17;2.05685250569e-17;3.39144386833e-17;-1.708153004e-16;9.17640962029e-21;2.44632884076e-07;-3.49198382988e-17;-2.16114300946e-10;1.84682910211e-09;2.19438293035e-17;-7.01608571733e-17;-3.4919838299e-17;1.64997343189e-05
59211000000;31;59211000000;map;base_link;1.72833866009;-0.00847216393761;-0.000277031698227;1.34183612826e-08;-4.59941158521e-08;0.00176177355993;0.999998448076;4.31918989258e-08;2.64040446476e-16;1.23800800688e-13;3.58087834169e-17;-1.6267570679e-16;-1.68317852996e-12;2.64040446468e-16;4.30507644231e-08;-3.04262508338e-12;8.02263649513e-16;-2.35695856488e-15;1.44082643457e-11;1.23800800688e-13;-3.04262508338e-12;2.45846411203e-08;7.12396503971e-12;-4.23137733393e-11;-1.27251209577e-16;3.58087834169e-17;8.02263649513e-16;7.12396503971e-12;2.63441092598e-08;2.30428977996e-15;-1.19632364957e-15;-1.6267570679e-16;-2.35695856488e-15;-4.23137733393e-11;2.30428977988e-15;2.6344098065e-08;-6.38527283011e-16;-1.68317852996e-12;1.44082643457e-11;-1.27251209577e-16;-1.19632364957e-15;-6.38527283012e-16;3.75733854037e-08;0.0165300441803;0.00117753769852;4.69650614828e-07;-5.32557273568e-11;1.8646664208e-10;-0.000208175712748;1.58248159398e-05;-5.57729825176e-11;1.24791266035e-14;-4.55633671726e-21;1.91180124216e-17;-2.21022187009e-10;-5.57729825176e-11;1.58090611183e-05;3.02177108249e-13;-1.48760964557e-17;2.95035776276e-17;1.98723541438e-09;1.24791266035e-14;3.02177108249e-13;1.96550825852e-07;2.81479202981e-17;-1.64471838125e-16;3.88554648945e-17;-4.55633671726e-21;-1.48760964557e-17;2.81479202981e-17;1.96550118844e-07;1.00306194437e-20;-7.34681581926e-17;1.91180124216e-17;2.95035776276e-17;-1.64471838125e-16;1.00306194454e-20;1.96550118844e-07;-3.68683761096e-17;-2.21022187009e-10;1.98723541438e-09;3.88554648945e-17;-7.34681581926e-17;-3.68683761097e-17;1.47937233639e-05
59371000000;32;59371000000;map;base_link;1.73204620079;-0.00822832639603;-0.000275961498942;1.17518059423e-08;-3.68067881125e-08;0.00173817135988;0.999998489379;4.9959000132e-07;-7.9061062723e-15;1.38111664835e-15;-3.94514452965e-17;7.52725851206e-16;-1.58013038969e-11;-7.90610627172e-15;4.98835125693e-07;4.65811603416e-10;1.69034432983e-13;-1.59469555375e-12;1.76296035825e-10;1.38111664835e-15;4.65811603416e-10;2.93279028289e-08;9.56331570408e-12;-9.06596213593e-11;1.76045009234e-13;-3.94514452965e-17;1.69034432983e-13;9.56331570408e-12;3.11097539127e-08;5.3817284371e-15;-3.58984338558e-14;7.52725851206e-16;-1.59469555375e-12;-9.06596213593e-11;5.3817284371e-15;3.11097123769e-08;-1.09961164199e-14;-1.58013038969e-11;1.76296035825e-10;1.76045009234e-13;-3.58984338558e-14;-1.09961164199e-14;4.20042805577e-07;0.023710447718;0.00146392189534;-8.43771137787e-08;-3.84640148365e-11;1.25188400477e-10;-0.000286041141207;3.5532204833e-05;-9.04710411444e-11;1.61510115773e-13;-4.8270901342e-18;6.11014628072e-17;-2.4576248451e-10;-9.04710411444e-11;3.55064678276e-05;5.13988275207e-11;-1.54913341323e-15;1.42367152562e-14;2.2609212807e-09;1.61510115773e-13;5.13988275207e-11;3.26599122374e-07;2.72667440509e-17;-2.55350812692e-16;1.23207896823e-14;-4.8270901342e-18;-1.54913341323e-15;2.72667440509e-17;3.26597562853e-07;1.27852879183e-20;3.39862171387e-16;6.11014628072e-17;1.42367152562e-14;-2.55350812692e-16;1.27852879338e-20;3.26597562853e-07;9.93825591227e-17;-2.4576248451e-10;2.2609212807e-09;1.23207896823e-14;3.39862171387e-16;9.93825591208e-17;2.99240710513e-05
59371000000;33;59371000000;map;base_link;1.73204620079;-0.00822832639618;-0.000268098862588;1.26216797888e-08;-4.71135753792e-08;0.00173817135988;0.999998489379;2.4979500066e-07;-3.95304771213e-15;6.91161244013e-16;-1.97257613964e-17;3.76363306243e-16;-7.90065194842e-12;-3.95304771184e-15;2.49417562833e-07;2.32904270001e-10;8.45173339953e-14;-7.97348868072e-13;8.81480179078e-11;6.91161244013e-16;2.32904270001e-10;2.84919130609e-08;9.01868969654e-12;-8.54966020553e-11;8.80219672327e-14;-1.97257613964e-17;8.45173339953e-14;9.01868969654e-12;3.01709693994e-08;5.810725206e-15;-1.79492366147e-14;3.76363306243e-16;-7.97348868072e-13;-8.54966020553e-11;5.81072520599e-15;3.01709233581e-08;-5.49806421894e-15;-7.90065194842e-12;8.81480179078e-11;8.80219672327e-14;-1.79492366147e-14;-5.49806421896e-15;2.10021402789e-07;0.0237104475971;0.00146389710588;3.49654393333e-08;-4.18466378822e-11;1.64889015788e-10;-0.000286041147644;2.65187895516e-05;-5.03272640644e-11;6.14547116798e-14;-1.73956758633e-18;3.27377282476e-17;-1.89713366327e-10;-5.03272640645e-11;2.65045372197e-05;1.94731935368e-11;-6.08179825037e-16;5.44433003317e-15;2.01651024649e-09;6.14547116798e-14;1.94731935368e-11;2.46192645942e-07;2.64209502047e-17;-2.50547239126e-16;4.66985868125e-15;-1.73956758633e-18;-6.08179825037e-16;2.64209502047e-17;2.46191760787e-07;1.57637960995e-20;2.55472275592e-17;3.27377282476e-17;5.44433003317e-15;-2.50547239126e-16;1.57637961088e-20;2.46191760787e-07;8.46973704483e-18;-1.89713366327e-10;2.01651024649e-09;4.66985868125e-15;2.55472275592e-17;8.46973704409e-18;2.33271813736e-05
59489000000;34;59489000000;map;base_link;1.7361743997;-0.0080214425684;-0.000244782427862;1.46617583882e-08;-8.20770604171e-08;0.00171815495068;0.999998523971;6.46362924877e-07;-1.2978381188e-13;4.90373620814e-13;1.19733665881e-16;-2.24667750941e-15;-4.21245037783e-11;-1.2978381188e-13;6.45701083027e-07;2.40965078446e-10;8.72679854912e-14;-8.52450604811e-13;6.07293639017e-10;4.90373620814e-13;2.40965078446e-10;3.32426014256e-08;1.09870306765e-11;-1.32834905327e-10;1.25815857361e-13;1.19733665881e-16;8.72679854912e-14;1.09870306765e-11;3.46889928612e-08;1.00839946281e-14;-4.91316406086e-14;-2.24667750941e-15;-8.52450604811e-13;-1.32834905327e-10;1.00839946281e-14;3.46888911892e-08;-1.28828563998e-14;-4.21245037783e-11;6.07293639017e-10;1.25815857361e-13;-4.91316406086e-14;-1.28828563998e-14;5.28605235077e-07;0.0325134253881;0.00162237681524;2.77105713028e-07;-5.52820621122e-11;3.11794247519e-10;-0.000320927725343;3.79156331654e-05;-5.52791334906e-11;6.70140589802e-14;-3.67102880572e-18;6.06370359221e-17;-1.735935184e-10;-5.52791334906e-11;3.79003246569e-05;6.59406811044e-12;-7.61376167196e-16;7.49992279162e-15;2.03163866541e-09;6.70140589802e-14;6.59406811044e-12;3.2432335147e-07;3.99108384847e-17;-4.89077291075e-16;3.93576461868e-15;-3.67102880572e-18;-7.61376167196e-16;3.99108384847e-17;3.24321445274e-07;3.46819799717e-20;5.5582732702e-16;6.06370359221e-17;7.49992279162e-15;-4.89077291075e-16;3.46819799907e-20;3.24321445274e-07;1.37845339317e-16;-1.735935184e-10;2.03163866541e-09;3.93576461868e-15;5.5582732702e-16;1.37845339317e-16;3.18026363982e-05
59489000000;35;59489000000;map;base_link;1.7361743997;-0.00802144256855;-0.000236907243767;1.54096349001e-08;-9.4003086498e-08;0.00171815495068;0.999998523971;3.23181462438e-07;-6.48919073778e-14;2.45185215712e-13;5.98669571694e-17;-1.12334058767e-15;-2.10622518891e-11;-6.48919073776e-14;3.22850541514e-07;1.20482328056e-10;4.36340381745e-14;-4.26225766709e-13;3.03646819508e-10;2.45185215712e-13;1.20482328056e-10;3.21727957891e-08;1.02889049017e-11;-1.24394484866e-10;6.29076955579e-14;5.98669571694e-17;4.36340381745e-14;1.02889049017e-11;3.35257790583e-08;1.06600193901e-14;-2.45658546751e-14;-1.12334058767e-15;-4.26225766709e-13;-1.24394484866e-10;1.06600193901e-14;3.35256693263e-08;-6.4414370194e-15;-2.10622518891e-11;3.03646819508e-10;6.29076955579e-14;-2.45658546751e-14;-6.4414370194e-15;2.64302617538e-07;0.0325134250433;0.00162227021999;3.12019534199e-07;-5.91504257258e-11;3.72714114997e-10;-0.000320927687267;2.71059252139e-05;-3.42706329879e-11;2.70449438863e-14;-9.99375160954e-19;2.55298144926e-17;-3.28025128291e-10;-3.4270632988e-11;2.70965615113e-05;2.97855230712e-12;-1.93416478642e-16;1.84993088001e-15;4.79419879232e-09;2.70449438863e-14;2.97855230712e-12;2.44897222208e-07;3.94034313873e-17;-4.86704071465e-16;1.32247744174e-15;-9.99375160954e-19;-1.93416478642e-16;3.94034313873e-17;2.4489613775e-07;4.13437143281e-20;7.94056193311e-17;2.55298144926e-17;1.84993088001e-15;-4.86704071465e-16;4.13437143389e-20;2.44896137749e-07;2.0178276411e-17;-3.28025128291e-10;4.79419879232e-09;1.32247744174e-15;7.94056193311e-17;2.0178276411e-17;2.35864432483e-05
59489000000;36;59489000000;map;base_link;1.7361743997;-0.00802144256862;-0.000229523023474;1.60368900615e-08;-1.04301537193e-07;0.00171815495068;0.999998523971;1.61590731219e-07;-3.24459539069e-14;1.22592139294e-13;2.99335195468e-17;-5.61670886205e-16;-1.05311259446e-11;-3.24459539068e-14;1.61425270757e-07;6.02411019822e-11;2.1817033015e-14;-2.13113026818e-13;1.51823409754e-10;1.22592139294e-13;6.02411019822e-11;3.11698043183e-08;9.65526183454e-12;-1.16733653598e-10;3.14537792814e-14;2.99335195468e-17;2.1817033015e-14;9.65526183454e-12;3.24381302752e-08;1.10752307684e-14;-1.22829374227e-14;-5.61670886205e-16;-2.13113026818e-13;-1.16733653598e-10;1.10752307685e-14;3.24380145264e-08;-3.22072110567e-15;-1.05311259446e-11;1.51823409754e-10;3.14537792814e-14;-1.22829374227e-14;-3.22072110568e-15;1.32151308769e-07;0.0325134247201;0.00162217027022;3.28050227664e-07;-6.20118901597e-11;4.20463659916e-10;-0.000320927651564;2.17010712381e-05;-2.37666599758e-11;1.24777896606e-14;-5.6557664082e-20;1.29345760564e-17;-4.05240933137e-10;-2.37666599758e-11;2.16946798527e-05;1.65548687331e-12;4.78466609455e-18;-1.07443653185e-16;6.17547888641e-09;1.24777896606e-14;1.65548687331e-12;1.96720725682e-07;3.7494790586e-17;-4.6501728952e-16;3.76118958628e-16;-5.6557664082e-20;4.78466609455e-18;3.7494790586e-17;1.96720027657e-07;4.4601116825e-20;-7.03364831639e-17;1.29345760564e-17;-1.07443653185e-16;-4.6501728952e-16;4.46011168318e-20;1.96720027656e-07;-1.70419583389e-17;-4.05240933137e-10;6.17547888641e-09;3.76118958628e-16;-7.03364831639e-17;-1.70419583389e-17;1.94783466734e-05
