%time;field.header.seq;field.header.stamp;field.header.frame_id;field.child_frame_id;field.pose.pose.position.x;field.pose.pose.position.y;field.pose.pose.position.z;field.pose.pose.orientation.x;field.pose.pose.orientation.y;field.pose.pose.orientation.z;field.pose.pose.orientation.w;field.pose.covariance0;field.pose.covariance1;field.pose.covariance2;field.pose.covariance3;field.pose.covariance4;field.pose.covariance5;field.pose.covariance6;field.pose.covariance7;field.pose.covariance8;field.pose.covariance9;field.pose.covariance10;field.pose.covariance11;field.pose.covariance12;field.pose.covariance13;field.pose.covariance14;field.pose.covariance15;field.pose.covariance16;field.pose.covariance17;field.pose.covariance18;field.pose.covariance19;field.pose.covariance20;field.pose.covariance21;field.pose.covariance22;field.pose.covariance23;field.pose.covariance24;field.pose.covariance25;field.pose.covariance26;field.pose.covariance27;field.pose.covariance28;field.pose.covariance29;field.pose.covariance30;field.pose.covariance31;field.pose.covariance32;field.pose.covariance33;field.pose.covariance34;field.pose.covariance35;field.twist.twist.linear.x;field.twist.twist.linear.y;field.twist.twist.linear.z;field.twist.twist.angular.x;field.twist.twist.angular.y;field.twist.twist.angular.z;field.twist.covariance0;field.twist.covariance1;field.twist.covariance2;field.twist.covariance3;field.twist.covariance4;field.twist.covariance5;field.twist.covariance6;field.twist.covariance7;field.twist.covariance8;field.twist.covariance9;field.twist.covariance10;field.twist.covariance11;field.twist.covariance12;field.twist.covariance13;field.twist.covariance14;field.twist.covariance15;field.twist.covariance16;field.twist.covariance17;field.twist.covariance18;field.twist.covariance19;field.twist.covariance20;field.twist.covariance21;field.twist.covariance22;field.twist.covariance23;field.twist.covariance24;field.twist.covariance25;field.twist.covariance26;field.twist.covariance27;field.twist.covariance28;field.twist.covariance29;field.twist.covariance30;field.twist.covariance31;field.twist.covariance32;field.twist.covariance33;field.twist.covariance34;field.twist.covariance35
58169000000;2832;58169000000;odom;base_link;0.000194504792256;4.54392011084e-08;0.0;0.0;0.0;0.000124741756528;0.99999999222;2.89478373348;-7.8257728117e-12;0.0;0.0;0.0;-6.82369013346e-08;-7.82577281172e-12;2.89478376638;0.0;0.0;0.0;0.000284928576256;0.0;0.0;9.98153276781e-07;-2.9859316446e-28;-8.09091858424e-20;0.0;0.0;0.0;-2.9859316446e-28;9.96316749061e-07;1.5901027676e-35;0.0;0.0;0.0;-8.09091858424e-20;-1.59284408025e-35;9.96316749061e-07;0.0;-6.82369013346e-08;0.000284928576256;0.0;0.0;0.0;3.47217248728;2.64731892135e-06;0.0;0.0;0.0;0.0;4.07612261194e-07;0.00050622947584;0.0;0.0;0.0;0.0;0.0;0.0;0.00050622947584;0.0;0.0;0.0;0.0;0.0;0.0;9.97233744246e-07;-1.2180439823e-32;-4.88226045128e-29;0.0;0.0;0.0;-1.2180439823e-32;9.89070770402e-07;3.06442239214e-37;0.0;0.0;0.0;-4.88226045128e-29;-3.06442239214e-37;9.89070770402e-07;0.0;0.0;0.0;0.0;0.0;0.0;0.000178927429417
58189000000;2833;58189000000;odom;base_link;0.00019455773855;4.54524104655e-08;0.0;0.0;0.0;0.000124747173218;0.999999992219;2.89578415626;-7.83315185191e-12;0.0;0.0;0.0;-6.8282770408e-08;-7.83315185193e-12;2.89578418918;0.0;0.0;0.0;0.000285112430581;0.0;0.0;9.98153276781e-07;-4.36932565361e-28;-8.0908893809e-20;0.0;0.0;0.0;-4.36932565361e-28;9.96316749061e-07;-4.28293960187e-35;0.0;0.0;0.0;-8.0908893809e-20;4.27922401189e-35;9.96316749061e-07;0.0;-6.8282770408e-08;0.000285112430581;0.0;0.0;0.0;3.47337249922;2.64730936972e-06;0.0;0.0;0.0;0.0;5.96461650552e-07;0.000506229475841;0.0;0.0;0.0;0.0;0.0;0.0;0.000506229475841;0.0;0.0;0.0;0.0;0.0;0.0;9.97233744246e-07;-1.21809248636e-32;-4.88224282925e-29;0.0;0.0;0.0;-1.21809248636e-32;9.89070770402e-07;-4.21635881293e-37;0.0;0.0;0.0;-4.88224282925e-29;4.21635881293e-37;9.89070770402e-07;0.0;0.0;0.0;0.0;0.0;0.0;0.000178927429417
58209000000;2834;58209000000;odom;base_link;0.000194610684652;4.54656203567e-08;0.0;0.0;0.0;0.000124752032273;0.999999992218;2.89678457903;-7.8405358895e-12;0.0;0.0;0.0;-6.83286571883e-08;-7.84053588952e-12;2.89678461199;0.0;0.0;0.0;0.000285296347778;0.0;0.0;9.98153276781e-07;-3.18778253489e-28;-8.09086020704e-20;0.0;0.0;0.0;-3.18778253489e-28;9.96316749061e-07;3.73632985112e-35;0.0;0.0;0.0;-8.09086020704e-20;-3.73912827084e-35;9.96316749061e-07;0.0;-6.83286571883e-08;0.000285296347778;0.0;0.0;0.0;3.47457251116;2.64729982843e-06;0.0;0.0;0.0;0.0;4.3517058208e-07;0.000506229475841;0.0;0.0;0.0;0.0;0.0;0.0;0.000506229475841;0.0;0.0;0.0;0.0;0.0;0.0;9.97233744246e-07;-1.21813549236e-32;-4.88222522501e-29;0.0;0.0;0.0;-1.21813549236e-32;9.89070770402e-07;1.10390957128e-37;0.0;0.0;0.0;-4.88222522501e-29;-1.10390957128e-37;9.89070770402e-07;0.0;0.0;0.0;0.0;0.0;0.0;0.000178927429417
58229000000;2835;58229000000;odom;base_link;0.000194663630564;4.54788306988e-08;0.0;0.0;0.0;0.000124756825318;0.999999992218;2.89778500181;-7.84792490263e-12;0.0;0.0;0.0;-6.8374561387e-08;-7.84792490264e-12;2.8977850348;0.0;0.0;0.0;0.000285480327849;0.0;0.0;9.98153276781e-07;-3.63009867815e-28;-8.09083106485e-20;0.0;0.0;0.0;-3.63009867815e-28;9.96316749061e-07;2.1445897476e-35;0.0;0.0;0.0;-8.09083106485e-20;-2.14777644651e-35;9.96316749061e-07;0.0;-6.8374561387e-08;0.000285480327849;0.0;0.0;0.0;3.4757725231;2.64729029411e-06;0.0;0.0;0.0;0.0;4.95553535009e-07;0.00050622947584;0.0;0.0;0.0;0.0;0.0;0.0;0.00050622947584;0.0;0.0;0.0;0.0;0.0;0.0;9.97233744246e-07;-1.21817789965e-32;-4.88220763988e-29;0.0;0.0;0.0;-1.21817789965e-32;9.89070770402e-07;4.21269357515e-37;0.0;0.0;0.0;-4.88220763988e-29;-4.21269357515e-37;9.89070770402e-07;0.0;0.0;0.0;0.0;0.0;0.0;0.000178927429417
58249000000;2836;58249000000;odom;base_link;0.000194716576285;4.54920415128e-08;0.0;0.0;0.0;0.000124761997478;0.999999992217;2.89878542458;-7.85531889926e-12;0.0;0.0;0.0;-6.84204830791e-08;-7.85531889928e-12;2.8987854576;0.0;0.0;0.0;0.000285664370792;0.0;0.0;9.98153276781e-07;-3.83490903377e-28;-8.09080194395e-20;0.0;0.0;0.0;-3.83490903377e-28;9.96316749061e-07;-3.0560769252e-38;0.0;0.0;0.0;-8.09080194395e-20;-3.10403587233e-39;9.96316749061e-07;0.0;-6.84204830791e-08;0.000285664370792;0.0;0.0;0.0;3.47697253504;2.64728076509e-06;0.0;0.0;0.0;0.0;5.23513998181e-07;0.000506229475841;0.0;0.0;0.0;0.0;0.0;0.0;0.000506229475841;0.0;0.0;0.0;0.0;0.0;0.0;9.97233744246e-07;-1.21822405138e-32;-4.88219006759e-29;0.0;0.0;0.0;-1.21822405138e-32;9.89070770402e-07;1.59223079401e-37;0.0;0.0;0.0;-4.88219006759e-29;-1.59223079401e-37;9.89070770402e-07;0.0;0.0;0.0;0.0;0.0;0.0;0.000178927429417
58269000000;2837;58269000000;odom;base_link;0.000393079675488;9.49645577332e-08;0.0;0.0;0.0;0.000124765821942;0.999999992217;2.89978584736;-7.86271788362e-12;0.0;0.0;0.0;-6.84664222934e-08;-7.86271788364e-12;2.89978588041;0.0;0.0;0.0;0.000285848476609;0.0;0.0;9.98153276781e-07;-2.33768492626e-28;-8.09077283915e-20;0.0;0.0;0.0;-2.33768492626e-28;9.96316749061e-07;1.07522379976e-35;0.0;0.0;0.0;-8.09077283915e-20;-1.07727593252e-35;9.96316749061e-07;0.0;-6.84664222934e-08;0.000285848476609;0.0;0.0;0.0;3.47817254698;0.0067270946178;0.0;0.0;0.0;0.0;-2.35134609329e-07;0.00050622947584;0.0;0.0;0.0;0.0;0.0;0.0;0.00050622947584;0.0;0.0;0.0;0.0;0.0;0.0;9.97233744246e-07;-1.21825689528e-32;-4.88217250503e-29;0.0;0.0;0.0;-1.21825689528e-32;9.89070770402e-07;1.02469999465e-37;0.0;0.0;0.0;-4.88217250503e-29;-1.02469999465e-37;9.89070770402e-07;0.0;0.0;0.0;0.0;0.0;0.0;0.000178927429417
58289000000;2838;58289000000;odom;base_link;0.00152045748477;3.75908206637e-07;0.0;0.0;0.0;0.000123559377225;0.999999992367;2.90078627013;-4.26548630388e-11;0.0;0.0;0.0;-1.85790011126e-07;-4.26548630388e-11;2.90078644432;0.0;0.0;0.0;0.000756752529841;0.0;0.0;9.98153276781e-07;3.233184582e-22;-2.07575439128e-16;0.0;0.0;0.0;3.233184582e-22;9.96316749061e-07;3.63428497899e-29;0.0;0.0;0.0;-2.07575439128e-16;3.63459318137e-29;9.96316749061e-07;0.0;-1.85790011126e-07;0.000756752529841;0.0;0.0;0.0;3.47937255892;0.0404480872979;0.0;0.0;0.0;0.0;-0.000172286146147;0.000506229475841;0.0;0.0;0.0;0.0;0.0;0.0;0.000506229475841;0.0;0.0;0.0;0.0;0.0;0.0;9.97233744246e-07;-3.09504322698e-29;-1.25256098339e-25;0.0;0.0;0.0;-3.09504322698e-29;9.89070770402e-07;-1.33437853035e-35;0.0;0.0;0.0;-1.25256098339e-25;-1.39750574093e-35;9.89070770402e-07;0.0;0.0;0.0;0.0;0.0;0.0;0.000178927429417
58309000000;2839;58309000000;odom;base_link;0.00371252773852;9.18321971559e-07;0.0;0.0;0.0;0.000122682789162;0.999999992474;2.90178669291;-9.14088860953e-10;0.0;0.0;0.0;-8.84061230729e-07;-9.14088860953e-10;2.9017904044;0.0;0.0;0.0;0.00358910977023;0.0;0.0;9.98153276781e-07;5.70796263345e-22;-1.24807083349e-15;0.0;0.0;0.0;5.70796263345e-22;9.96316749061e-07;3.85783140653e-28;0.0;0.0;0.0;-1.24807083349e-15;3.85784467888e-28;9.96316749061e-07;0.0;-8.84061230729e-07;0.00358910977023;0.0;0.0;0.0;3.48057257086;0.0876787455293;0.0;0.0;0.0;0.0;-5.06141780696e-05;0.00050622947584;0.0;0.0;0.0;0.0;0.0;0.0;0.00050622947584;0.0;0.0;0.0;0.0;0.0;0.0;9.97233744246e-07;-1.84776960256e-28;-7.53116476212e-25;0.0;0.0;0.0;-1.84776960256e-28;9.89070770402e-07;-4.86997041897e-34;0.0;0.0;0.0;-7.53116476212e-25;-4.87518958313e-34;9.89070770402e-07;0.0;0.0;0.0;0.0;0.0;0.0;0.000178927429417
58329000000;2840;58329000000;odom;base_link;0.00703699051849;1.73599200266e-06;0.0;0.0;0.0;0.000122387492548;0.999999992511;2.90278711568;-6.68325314429e-09;0.0;0.0;0.0;-2.38986973401e-06;-6.68325314429e-09;2.902814328;0.0;0.0;0.0;0.00973071465975;0.0;0.0;9.98153276782e-07;4.95487757531e-22;-2.70530767013e-15;0.0;0.0;0.0;4.95487757531e-22;9.96316749061e-07;7.25883291535e-28;0.0;0.0;0.0;-2.70530767013e-15;7.25883762577e-28;9.96316749061e-07;0.0;-2.38986973401e-06;0.00973071465975;0.0;0.0;0.0;3.4817725828;0.141660206045;0.0;0.0;0.0;0.0;-2.02710238721e-05;0.000506229475841;0.0;0.0;0.0;0.0;0.0;0.0;0.000506229475841;0.0;0.0;0.0;0.0;0.0;0.0;9.97233744246e-07;-3.99573967824e-28;-1.63244884015e-24;0.0;0.0;0.0;-3.99573967824e-28;9.89070770402e-07;-2.28506745447e-33;0.0;0.0;0.0;-1.63244884015e-24;-2.28489478442e-33;9.89070770402e-07;0.0;0.0;0.0;0.0;0.0;0.0;0.000178927429417
58349000000;2841;58349000000;odom;base_link;0.0115276982901;2.83710291399e-06;0.0;0.0;0.0;0.000122270673927;0.999999992525;2.90378753846;-2.72068151998e-08;0.0;0.0;0.0;-4.81876396858e-06;-2.72068151998e-08;2.90389852062;0.0;0.0;0.0;0.0196566512366;0.0;0.0;9.98153276783e-07;3.12428713817e-22;-4.37068165257e-15;0.0;0.0;0.0;3.12428713817e-22;9.96316749061e-07;7.39465480129e-28;0.0;0.0;0.0;-4.37068165257e-15;7.39465522757e-28;9.96316749061e-07;0.0;-4.81876396858e-06;0.0196566512366;0.0;0.0;0.0;3.48297259474;0.199012772507;0.0;0.0;0.0;0.0;-7.91290604832e-06;0.00050622947584;0.0;0.0;0.0;0.0;0.0;0.0;0.00050622947584;0.0;0.0;0.0;0.0;0.0;0.0;9.97233744246e-07;-6.44942009456e-28;-2.63737625515e-24;0.0;0.0;0.0;-6.44942009456e-28;9.89070770402e-07;-5.95937962618e-33;0.0;0.0;0.0;-2.63737625515e-24;-5.95921577938e-33;9.89070770402e-07;0.0;0.0;0.0;0.0;0.0;0.0;0.000178927429417
58369000000;2842;58369000000;odom;base_link;0.0172015781234;4.22624167476e-06;0.0;0.0;0.0;0.000122223515252;0.999999992531;2.90478796125;-7.94082978188e-08;0.0;0.0;0.0;-8.22944083999e-06;-7.94082978188e-08;2.90511223142;0.0;0.0;0.0;0.0336055497072;0.0;0.0;9.98153276786e-07;1.83682174006e-22;-6.13988383326e-15;0.0;0.0;0.0;1.83682174006e-22;9.96316749061e-07;6.10722508315e-28;0.0;0.0;0.0;-6.13988383326e-15;6.10722465669e-28;9.96316749061e-07;0.0;-8.22944083999e-06;0.0336055497072;0.0;0.0;0.0;3.48417260668;0.258046493839;0.0;0.0;0.0;0.0;-3.31198027283e-06;0.000506229475841;0.0;0.0;0.0;0.0;0.0;0.0;0.000506229475841;0.0;0.0;0.0;0.0;0.0;0.0;9.97233744246e-07;-9.05662403379e-28;-3.7049561508e-24;0.0;0.0;0.0;-9.05662403379e-28;9.89070770402e-07;-1.17561233225e-32;0.0;0.0;0.0;-3.7049561508e-24;-1.17560485076e-32;9.89070770402e-07;0.0;0.0;0.0;0.0;0.0;0.0;0.000178927429417
58389000000;2843;58389000000;odom;base_link;0.0240670935625;5.90590304384e-06;0.0;0.0;0.0;0.000122203308;0.999999992533;2.90578838405;-1.87749439162e-07;0.0;0.0;0.0;-1.26518067739e-05;-1.87749439162e-07;2.90655556531;0.0;0.0;0.0;0.0516977668491;0.0;0.0;9.9815327679e-07;1.04502131638e-22;-7.96075791586e-15;0.0;0.0;0.0;1.04502131638e-22;9.96316749061e-07;4.50500885883e-28;0.0;0.0;0.0;-7.96075791586e-15;4.50500907176e-28;9.96316749061e-07;0.0;-1.26518067739e-05;0.0516977668491;0.0;0.0;0.0;3.48537261862;0.31791637026;0.0;0.0;0.0;0.0;-1.45351787755e-06;0.000506229475841;0.0;0.0;0.0;0.0;0.0;0.0;0.000506229475841;0.0;0.0;0.0;0.0;0.0;0.0;9.97233744246e-07;-1.17405828523e-27;-4.80371614209e-24;0.0;0.0;0.0;-1.17405828523e-27;9.89070770402e-07;-1.97602971205e-32;0.0;0.0;0.0;-4.80371614209e-24;-1.97600741891e-32;9.89070770402e-07;0.0;0.0;0.0;0.0;0.0;0.0;0.000178927429417
58409000000;2844;58409000000;odom;base_link;0.0321284759364;7.87740437548e-06;0.0;0.0;0.0;0.000122195604103;0.999999992534;2.90678880688;-3.8435745528e-07;0.0;0.0;0.0;-1.81011642438e-05;-3.8435745528e-07;2.90835999519;0.0;0.0;0.0;0.0739945021061;0.0;0.0;9.98153276795e-07;4.17481810968e-23;-9.80722634056e-15;0.0;0.0;0.0;4.17481810968e-23;9.96316749061e-07;2.21719873662e-28;0.0;0.0;0.0;-9.80722634056e-15;2.21719830695e-28;9.96316749061e-07;0.0;-1.81011642438e-05;0.0739945021061;0.0;0.0;0.0;3.48657263056;0.378199915903;0.0;0.0;0.0;0.0;-4.72066796859e-07;0.00050622947584;0.0;0.0;0.0;0.0;0.0;0.0;0.00050622947584;0.0;0.0;0.0;0.0;0.0;0.0;9.97233744246e-07;-1.44628692519e-27;-5.91792039151e-24;0.0;0.0;0.0;-1.44628692519e-27;9.89070770402e-07;-2.99876954059e-32;0.0;0.0;0.0;-5.91792039151e-24;-2.9987273679e-32;9.89070770402e-07;0.0;0.0;0.0;0.0;0.0;0.0;0.000178927429417
58429000000;2845;58429000000;odom;base_link;0.0413706355069;1.01372352921e-05;0.0;0.0;0.0;0.000122192917724;0.999999992534;2.90778922973;-7.09039075545e-07;0.0;0.0;0.0;-2.45855187133e-05;-7.09039075545e-07;2.91068840888;0.0;0.0;0.0;0.1005273685;0.0;0.0;9.98153276801e-07;1.89072057693e-23;-1.16662520801e-14;0.0;0.0;0.0;1.89072057693e-23;9.96316749061e-07;1.19447438131e-28;0.0;0.0;0.0;-1.16662520801e-14;1.19447462105e-28;9.96316749061e-07;0.0;-2.45855187133e-05;0.1005273685;0.0;0.0;0.0;3.4877726425;0.438102530741;0.0;0.0;0.0;0.0;-3.9188164987e-08;0.00050622947584;0.0;0.0;0.0;0.0;0.0;0.0;0.00050622947584;0.0;0.0;0.0;0.0;0.0;0.0;9.97233744246e-07;-1.72040316163e-27;-7.03970203787e-24;0.0;0.0;0.0;-1.72040316163e-27;9.89070770402e-07;-4.24325120826e-32;0.0;0.0;0.0;-7.03970203787e-24;-4.24322626099e-32;9.89070770402e-07;0.0;0.0;0.0;0.0;0.0;0.0;0.000178927429417
58460000000;2846;58460000000;odom;base_link;0.0562401459186;1.37848780561e-05;0.0;0.0;0.0;0.000123783134399;0.999999992339;2.90934005773;-1.56791798718e-06;0.0;0.0;0.0;-3.65862041965e-05;-1.56791798718e-06;2.91574465918;0.0;0.0;0.0;0.149446567086;0.0;0.0;4.9962207008e-07;-9.17890369805e-21;-5.91686844327e-15;0.0;0.0;0.0;-9.17890369805e-21;4.99245844078e-07;-1.43705494051e-25;0.0;0.0;0.0;-5.91686844327e-15;-1.43705494238e-25;4.99245844077e-07;0.0;-3.65862041965e-05;0.149446567086;0.0;0.0;0.0;3.48963266638;0.475087173328;0.0;0.0;0.0;0.0;7.15738887164e-05;0.000790086217522;0.0;0.0;0.0;0.0;0.0;0.0;0.000790086217522;0.0;0.0;0.0;0.0;0.0;0.0;4.99433745189e-07;-3.53750379605e-27;-1.42684685971e-23;0.0;0.0;0.0;-3.53750379605e-27;4.97757627729e-07;-2.1631613933e-31;0.0;0.0;0.0;-1.42684685971e-23;-2.16315894272e-31;4.97757627729e-07;0.0;0.0;0.0;0.0;0.0;0.0;9.99957495085e-10
58480000000;2847;58480000000;odom;base_link;0.0662573610733;1.62678291623e-05;0.0;0.0;0.0;0.000124391503569;0.999999992263;2.9103404807;-2.36205083186e-06;0.0;0.0;0.0;-4.49641169656e-05;-2.36205083186e-06;2.91996637127;0.0;0.0;0.0;0.18323865786;0.0;0.0;4.99622070081e-07;-4.8057310401e-21;-6.12878808237e-15;0.0;0.0;0.0;-4.8057310401e-21;4.99245844078e-07;-7.79336239243e-26;0.0;0.0;0.0;-6.12878808237e-15;-7.79336240104e-26;4.99245844077e-07;0.0;-4.49641169656e-05;0.18323865786;0.0;0.0;0.0;3.49083267832;0.492086694894;0.0;0.0;0.0;0.0;2.84060679762e-05;0.000790086217522;0.0;0.0;0.0;0.0;0.0;0.0;0.000790086217522;0.0;0.0;0.0;0.0;0.0;0.0;4.99433745189e-07;-3.68013575367e-27;-1.47795158502e-23;0.0;0.0;0.0;-3.68013575367e-27;4.97757627729e-07;-2.33097915095e-31;0.0;0.0;0.0;-1.47795158502e-23;-2.33098076679e-31;4.97757627729e-07;0.0;0.0;0.0;0.0;0.0;0.0;9.99957495085e-10
58500000000;2848;58500000000;odom;base_link;0.0762658944481;1.87590723844e-05;0.0;0.0;0.0;0.000124635581922;0.999999992233;2.91134090372;-3.34703376994e-06;0.0;0.0;0.0;-5.35925081626e-05;-3.34703376994e-06;2.92494961559;0.0;0.0;0.0;0.217901363355;0.0;0.0;4.99622070081e-07;-1.94018140753e-21;-6.23417108507e-15;0.0;0.0;0.0;-1.94018140753e-21;4.99245844078e-07;-3.2004565627e-26;0.0;0.0;0.0;-6.23417108507e-15;-3.2004565541e-26;4.99245844077e-07;0.0;-5.35925081626e-05;0.217901363355;0.0;0.0;0.0;3.49203269026;0.500530160868;0.0;0.0;0.0;0.0;1.23381929844e-05;0.000790086217522;0.0;0.0;0.0;0.0;0.0;0.0;0.000790086217522;0.0;0.0;0.0;0.0;0.0;0.0;4.99433745189e-07;-3.74868561078e-27;-1.50336484833e-23;0.0;0.0;0.0;-3.74868561078e-27;4.97757627729e-07;-2.415231413e-31;0.0;0.0;0.0;-1.50336484833e-23;-2.41523296807e-31;4.97757627729e-07;0.0;0.0;0.0;0.0;0.0;0.0;9.99957495085e-10
58509000000;2849;58509000000;odom;base_link;0.0807357813392;1.98733357607e-05;0.0;0.0;0.0;0.000124691103788;0.999999992226;2.91179092161;-3.85215254064e-06;0.0;0.0;0.0;-5.75238887093e-05;-3.85215254064e-06;2.92743913415;0.0;0.0;0.0;0.233672864537;0.0;0.0;9.98153276815e-07;-1.70310307664e-21;-1.53371093923e-14;0.0;0.0;0.0;-1.70310307664e-21;9.96316749061e-07;-1.41449276616e-26;0.0;0.0;0.0;-1.53371093923e-14;-1.41449278116e-26;9.9631674906e-07;0.0;-5.75238887093e-05;0.233672864537;0.0;0.0;0.0;3.49257269026;0.501541683201;0.0;0.0;0.0;0.0;1.22876206919e-05;0.00050622947584;0.0;0.0;0.0;0.0;0.0;0.0;0.00050622947584;0.0;0.0;0.0;0.0;0.0;0.0;9.97233744246e-07;-2.30800796705e-27;-9.25478731778e-24;0.0;0.0;0.0;-2.30800796705e-27;9.89070770402e-07;-7.48375486382e-32;0.0;0.0;0.0;-9.25478731778e-24;-7.48372584835e-32;9.89070770402e-07;0.0;0.0;0.0;0.0;0.0;0.0;0.000178927429417
58540000000;2850;58540000000;odom;base_link;0.0962721125983;2.37491994362e-05;0.0;0.0;0.0;0.000124790011649;0.999999992214;2.9133417499;-5.87738443845e-06;0.0;0.0;0.0;-7.11573839635e-05;-5.87738443845e-06;2.93715649228;0.0;0.0;0.0;0.288323590487;0.0;0.0;4.99622070082e-07;-3.84982826496e-22;-6.31177677825e-15;0.0;0.0;0.0;-3.84982826496e-22;4.99245844078e-07;-6.42959956114e-27;0.0;0.0;0.0;-6.31177677825e-15;-6.42959953241e-27;4.99245844077e-07;0.0;-7.11573839635e-05;0.288323590487;0.0;0.0;0.0;3.49443271414;0.506723302157;0.0;0.0;0.0;0.0;2.44214860362e-06;0.000790086217522;0.0;0.0;0.0;0.0;0.0;0.0;0.000790086217522;0.0;0.0;0.0;0.0;0.0;0.0;4.99433745189e-07;-3.79904900117e-27;-1.52207957532e-23;0.0;0.0;0.0;-3.79904900117e-27;4.97757627729e-07;-2.47814321779e-31;0.0;0.0;0.0;-1.52207957532e-23;-2.47814049314e-31;4.97757627729e-07;0.0;0.0;0.0;0.0;0.0;0.0;9.99957495085e-10
58549000000;2851;58549000000;odom;base_link;0.100705584434;2.48557765725e-05;0.0;0.0;0.0;0.000124801001317;0.999999992212;2.91379176783;-6.54995134102e-06;0.0;0.0;0.0;-7.51448372822e-05;-6.54995134102e-06;2.94031600415;0.0;0.0;0.0;0.304300242676;0.0;0.0;9.98153276816e-07;-3.41252463354e-22;-1.55259392047e-14;0.0;0.0;0.0;-3.41252463354e-22;9.96316749061e-07;-2.86912738437e-27;0.0;0.0;0.0;-1.55259392047e-14;-2.86912742736e-27;9.9631674906e-07;0.0;-7.51448372822e-05;0.304300242676;0.0;0.0;0.0;3.49497271414;0.504585115386;0.0;0.0;0.0;0.0;2.43171239151e-06;0.00050622947584;0.0;0.0;0.0;0.0;0.0;0.0;0.00050622947584;0.0;0.0;0.0;0.0;0.0;0.0;9.97233744246e-07;-2.33846001615e-27;-9.36873194276e-24;0.0;0.0;0.0;-2.33846001615e-27;9.89070770402e-07;-7.67583972226e-32;0.0;0.0;0.0;-9.36873194276e-24;-7.67589098107e-32;9.89070770402e-07;0.0;0.0;0.0;0.0;0.0;0.0;0.000178927429417
58580000000;2852;58580000000;odom;base_link;0.116273454945;2.87418849806e-05;0.0;0.0;0.0;0.000124824298944;0.999999992209;2.91534259626;-9.14098425274e-06;0.0;0.0;0.0;-8.88619343872e-05;-9.14098425274e-06;2.95229804102;0.0;0.0;0.0;0.359252152495;0.0;0.0;4.99622070082e-07;-9.22492747235e-23;-6.32949002492e-15;0.0;0.0;0.0;-9.22492747235e-23;4.99245844078e-07;-1.54497918462e-27;0.0;0.0;0.0;-6.32949002492e-15;-1.54497919184e-27;4.99245844077e-07;0.0;-8.88619343872e-05;0.359252152495;0.0;0.0;0.0;3.49683273802;0.508107271336;0.0;0.0;0.0;0.0;1.06616748329e-06;0.000790086217522;0.0;0.0;0.0;0.0;0.0;0.0;0.000790086217522;0.0;0.0;0.0;0.0;0.0;0.0;4.99433745189e-07;-3.81053607026e-27;-1.52635115317e-23;0.0;0.0;0.0;-3.81053607026e-27;4.97757627729e-07;-2.49261621667e-31;0.0;0.0;0.0;-1.52635115317e-23;-2.49262001608e-31;4.97757627729e-07;0.0;0.0;0.0;0.0;0.0;0.0;9.99957495085e-10
58600000000;2853;58600000000;odom;base_link;0.126273586737;3.12385035968e-05;0.0;0.0;0.0;0.000124834174304;0.999999992208;2.91634301951;-1.10448897607e-05;0.0;0.0;0.0;-9.77310595547e-05;-1.10448897607e-05;2.96095828551;0.0;0.0;0.0;0.39477783927;0.0;0.0;4.99622070082e-07;-7.38795335432e-23;-6.33170563686e-15;0.0;0.0;0.0;-7.38795335432e-23;4.99245844078e-07;-1.23775821658e-27;0.0;0.0;0.0;-6.33170563686e-15;-1.23775821309e-27;4.99245844077e-07;0.0;-9.77310595547e-05;0.39477783927;0.0;0.0;0.0;3.49803274996;0.508266257695;0.0;0.0;0.0;0.0;7.54090326679e-07;0.000790086217522;0.0;0.0;0.0;0.0;0.0;0.0;0.000790086217522;0.0;0.0;0.0;0.0;0.0;0.0;4.99433745189e-07;-3.81217467942e-27;-1.52688545267e-23;0.0;0.0;0.0;-3.81217467942e-27;4.97757627729e-07;-2.49456268838e-31;0.0;0.0;0.0;-1.52688545267e-23;-2.49455958799e-31;4.97757627729e-07;0.0;0.0;0.0;0.0;0.0;0.0;9.99957495085e-10
58620000000;2854;58620000000;odom;base_link;0.136273585063;3.3735264385e-05;0.0;0.0;0.0;0.000124841591262;0.999999992207;2.9173434428;-1.31294839152e-05;0.0;0.0;0.0;-0.00010660544049;-1.31294839152e-05;2.97034197368;0.0;0.0;0.0;0.430321985769;0.0;0.0;4.99622070082e-07;-5.22514707758e-23;-6.33226941674e-15;0.0;0.0;0.0;-5.22514707758e-23;4.99245844078e-07;-8.75485317196e-28;0.0;0.0;0.0;-6.33226941674e-15;-8.75485299347e-28;4.99245844077e-07;0.0;-0.00010660544049;0.430321985769;0.0;0.0;0.0;3.4992327619;0.508292818223;0.0;0.0;0.0;0.0;7.08697057484e-07;0.000790086217522;0.0;0.0;0.0;0.0;0.0;0.0;0.000790086217522;0.0;0.0;0.0;0.0;0.0;0.0;4.99433745189e-07;-3.81272013661e-27;-1.52702141049e-23;0.0;0.0;0.0;-3.81272013661e-27;4.97757627729e-07;-2.4951401034e-31;0.0;0.0;0.0;-1.52702141049e-23;-2.49513966942e-31;4.97757627729e-07;0.0;0.0;0.0;0.0;0.0;0.0;9.99957495085e-10
58640000000;2855;58640000000;odom;base_link;0.146273517741;3.62321509051e-05;0.0;0.0;0.0;0.000124847775469;0.999999992207;2.91834386614;-1.53944828846e-05;0.0;0.0;0.0;-0.000115483277987;-1.53944828846e-05;2.9804479515;0.0;0.0;0.0;0.465877896109;0.0;0.0;4.99622070082e-07;-4.90957875395e-23;-6.33201403136e-15;0.0;0.0;0.0;-4.90957875395e-23;4.99245844078e-07;-8.22577933194e-28;0.0;0.0;0.0;-6.33201403136e-15;-8.22577940129e-28;4.99245844077e-07;0.0;-0.000115483277987;0.465877896109;0.0;0.0;0.0;3.50043277384;0.508253824175;0.0;0.0;0.0;0.0;3.47450676126e-07;0.000790086217522;0.0;0.0;0.0;0.0;0.0;0.0;0.000790086217522;0.0;0.0;0.0;0.0;0.0;0.0;4.99433745189e-07;-3.81277895726e-27;-1.52695982542e-23;0.0;0.0;0.0;-3.81277895726e-27;4.97757627729e-07;-2.49507660692e-31;0.0;0.0;0.0;-1.52695982542e-23;-2.49507597324e-31;4.97757627729e-07;0.0;0.0;0.0;0.0;0.0;0.0;9.99957495085e-10
58660000000;2856;58660000000;odom;base_link;0.156273418664;3.87291325814e-05;0.0;0.0;0.0;0.000124850759807;0.999999992206;2.91934428953;-1.78397015793e-05;0.0;0.0;0.0;-0.000124363603456;-1.78397015793e-05;2.99127549326;0.0;0.0;0.0;0.501442263216;0.0;0.0;4.99622070082e-07;-2.40775483523e-23;-6.33135577178e-15;0.0;0.0;0.0;-2.40775483523e-23;4.99245844078e-07;-4.03366596529e-28;0.0;0.0;0.0;-6.33135577178e-15;-4.03366610778e-28;4.99245844077e-07;0.0;-0.000124363603456;0.501442263216;0.0;0.0;0.0;3.50163278578;0.508182706318;0.0;0.0;0.0;0.0;1.50881671128e-07;0.000790086217522;0.0;0.0;0.0;0.0;0.0;0.0;0.000790086217522;0.0;0.0;0.0;0.0;0.0;0.0;4.99433745189e-07;-3.81246086557e-27;-1.52680108664e-23;0.0;0.0;0.0;-3.81246086557e-27;4.97757627729e-07;-2.49460849405e-31;0.0;0.0;0.0;-1.52680108664e-23;-2.49461148805e-31;4.97757627729e-07;0.0;0.0;0.0;0.0;0.0;0.0;9.99957495085e-10
58689000000;2857;58689000000;odom;base_link;0.170700783403;4.23317600512e-05;0.0;0.0;0.0;0.000124856254871;0.999999992205;2.92079473102;-2.17087286733e-05;0.0;0.0;0.0;-0.000137254882742;-2.17087286733e-05;3.00827048982;0.0;0.0;0.0;0.553068566831;0.0;0.0;9.98153276816e-07;-8.76707544005e-23;-1.55647510659e-14;0.0;0.0;0.0;-8.76707544005e-23;9.96316749061e-07;-7.38926542543e-28;0.0;0.0;0.0;-1.55647510659e-14;-7.38926558432e-28;9.9631674906e-07;0.0;-0.000137254882742;0.553068566831;0.0;0.0;0.0;3.50337279772;0.505161292247;0.0;0.0;0.0;0.0;6.22429110075e-07;0.00050622947584;0.0;0.0;0.0;0.0;0.0;0.0;0.00050622947584;0.0;0.0;0.0;0.0;0.0;0.0;9.97233744246e-07;-2.34533878514e-27;-9.39215229341e-24;0.0;0.0;0.0;-2.34533878514e-27;9.89070770402e-07;-7.71771549032e-32;0.0;0.0;0.0;-9.39215229341e-24;-7.71764533588e-32;9.89070770402e-07;0.0;0.0;0.0;0.0;0.0;0.0;0.000178927429417
58709000000;2858;58709000000;odom;base_link;0.180701526187;4.48291257537e-05;0.0;0.0;0.0;0.000124860953133;0.999999992205;2.92179515452;-2.45952421713e-05;0.0;0.0;0.0;-0.000146139590062;-2.45952421713e-05;3.02086489577;0.0;0.0;0.0;0.588647939829;0.0;0.0;9.98153276816e-07;-5.64960741892e-23;-1.5561438827e-14;0.0;0.0;0.0;-5.64960741892e-23;9.96316749061e-07;-4.76080046555e-28;0.0;0.0;0.0;-1.5561438827e-14;-4.76080019485e-28;9.9631674906e-07;0.0;-0.000146139590062;0.588647939829;0.0;0.0;0.0;3.50457280966;0.505100480929;0.0;0.0;0.0;0.0;4.0129592676e-07;0.00050622947584;0.0;0.0;0.0;0.0;0.0;0.0;0.00050622947584;0.0;0.0;0.0;0.0;0.0;0.0;9.97233744246e-07;-2.34492791791e-27;-9.39015365154e-24;0.0;0.0;0.0;-2.34492791791e-27;9.89070770402e-07;-7.71472761334e-32;0.0;0.0;0.0;-9.39015365154e-24;-7.71468793341e-32;9.89070770402e-07;0.0;0.0;0.0;0.0;0.0;0.0;0.000178927429417
58729000000;2859;58729000000;odom;base_link;0.190702280374;4.73265848406e-05;0.0;0.0;0.0;0.000124865989239;0.999999992204;2.92279557806;-2.76617108069e-05;0.0;0.0;0.0;-0.000155026032264;-2.76617108069e-05;3.03417970579;0.0;0.0;0.0;0.624232961594;0.0;0.0;9.98153276816e-07;-7.67540944436e-23;-1.5558043227e-14;0.0;0.0;0.0;-7.67540944436e-23;9.96316749061e-07;-6.46641771944e-28;0.0;0.0;0.0;-1.5558043227e-14;-6.46641750621e-28;9.9631674906e-07;0.0;-0.000155026032264;0.624232961594;0.0;0.0;0.0;3.5057728216;0.505038408707;0.0;0.0;0.0;0.0;5.45201028055e-07;0.00050622947584;0.0;0.0;0.0;0.0;0.0;0.0;0.00050622947584;0.0;0.0;0.0;0.0;0.0;0.0;9.97233744246e-07;-2.34451086524e-27;-9.38810470693e-24;0.0;0.0;0.0;-2.34451086524e-27;9.89070770402e-07;-7.71162014158e-32;0.0;0.0;0.0;-9.38810470693e-24;-7.71163130569e-32;9.89070770402e-07;0.0;0.0;0.0;0.0;0.0;0.0;0.000178927429417
58740000000;2860;58740000000;odom;base_link;0.196272939531;4.87177566059e-05;0.0;0.0;0.0;0.000124868724005;0.999999992204;2.92334598351;-2.94208921052e-05;0.0;0.0;0.0;-0.000159903164429;-2.94208921052e-05;3.04179368092;0.0;0.0;0.0;0.643762427066;0.0;0.0;4.99622070082e-07;-3.79479218976e-23;-6.32758023012e-15;0.0;0.0;0.0;-3.79479218976e-23;4.99245844078e-07;-6.35355248037e-28;0.0;0.0;0.0;-6.32758023012e-15;-6.35355244546e-28;4.99245844077e-07;0.0;-0.000159903164429;0.643762427066;0.0;0.0;0.0;3.50643283354;0.507808742373;0.0;0.0;0.0;0.0;4.38248591007e-07;0.000790086217522;0.0;0.0;0.0;0.0;0.0;0.0;0.000790086217522;0.0;0.0;0.0;0.0;0.0;0.0;4.99433745189e-07;-3.81072934421e-27;-1.52589061503e-23;0.0;0.0;0.0;-3.81072934421e-27;4.97757627729e-07;-2.4919945063e-31;0.0;0.0;0.0;-1.52589061503e-23;-2.49199251401e-31;4.97757627729e-07;0.0;0.0;0.0;0.0;0.0;0.0;9.99957495085e-10
58760000000;2861;58760000000;odom;base_link;0.206272817966;5.12151511973e-05;0.0;0.0;0.0;0.000124873106564;0.999999992203;2.92434640712;-3.27660637245e-05;0.0;0.0;0.0;-0.000168792450113;-3.27660637245e-05;3.05622409341;0.0;0.0;0.0;0.679356642123;0.0;0.0;4.99622070082e-07;-3.03391584893e-23;-6.3265842197e-15;0.0;0.0;0.0;-3.03391584893e-23;4.99245844078e-07;-5.07883117066e-28;0.0;0.0;0.0;-6.3265842197e-15;-5.07883113675e-28;4.99245844077e-07;0.0;-0.000168792450113;0.679356642123;0.0;0.0;0.0;3.50763284548;0.507711617337;0.0;0.0;0.0;0.0;4.4109945215e-07;0.000790086217522;0.0;0.0;0.0;0.0;0.0;0.0;0.000790086217522;0.0;0.0;0.0;0.0;0.0;0.0;4.99433745189e-07;-3.81025460595e-27;-1.52565042706e-23;0.0;0.0;0.0;-3.81025460595e-27;4.97757627729e-07;-2.4912842139e-31;0.0;0.0;0.0;-1.52565042706e-23;-2.49129074121e-31;4.97757627729e-07;0.0;0.0;0.0;0.0;0.0;0.0;9.99957495085e-10
58789000000;2862;58789000000;odom;base_link;0.220704531847;5.48195341273e-05;0.0;0.0;0.0;0.000124879694521;0.999999992203;2.92579684894;-3.79405627854e-05;0.0;0.0;0.0;-0.000181695797288;-3.79405627854e-05;3.07844493322;0.0;0.0;0.0;0.731021591864;0.0;0.0;9.98153276816e-07;-6.57208170037e-23;-1.55478474522e-14;0.0;0.0;0.0;-6.57208170037e-23;9.96316749061e-07;-5.53326665254e-28;0.0;0.0;0.0;-1.55478474522e-14;-5.5332671866e-28;9.9631674906e-07;0.0;-0.000181695797288;0.731021591864;0.0;0.0;0.0;3.50937285742;0.504852573712;0.0;0.0;0.0;0.0;4.67189618033e-07;0.00050622947584;0.0;0.0;0.0;0.0;0.0;0.0;0.00050622947584;0.0;0.0;0.0;0.0;0.0;0.0;9.97233744246e-07;-2.34323154277e-27;-9.38195245428e-24;0.0;0.0;0.0;-2.34323154277e-27;9.89070770402e-07;-7.7023443698e-32;0.0;0.0;0.0;-9.38195245428e-24;-7.70233628083e-32;9.89070770402e-07;0.0;0.0;0.0;0.0;0.0;0.0;0.000178927429417
58809000000;2863;58809000000;odom;base_link;0.230705269038;5.73173679665e-05;0.0;0.0;0.0;0.000124886261875;0.999999992202;2.92679727266;-4.17265804368e-05;0.0;0.0;0.0;-0.000190589214606;-4.17265804368e-05;3.0946398221;0.0;0.0;0.0;0.766629113993;0.0;0.0;9.98153276816e-07;-1.03422592149e-22;-1.55445054788e-14;0.0;0.0;0.0;-1.03422592149e-22;9.96316749061e-07;-8.70560552815e-28;0.0;0.0;0.0;-1.55445054788e-14;-8.70560536678e-28;9.9631674906e-07;0.0;-0.000190589214606;0.766629113993;0.0;0.0;0.0;3.51057286936;0.504791718095;0.0;0.0;0.0;0.0;7.35174731888e-07;0.00050622947584;0.0;0.0;0.0;0.0;0.0;0.0;0.00050622947584;0.0;0.0;0.0;0.0;0.0;0.0;9.97233744246e-07;-2.34285141309e-27;-9.37993586709e-24;0.0;0.0;0.0;-2.34285141309e-27;9.89070770402e-07;-7.6995047373e-32;0.0;0.0;0.0;-9.37993586709e-24;-7.69948329785e-32;9.89070770402e-07;0.0;0.0;0.0;0.0;0.0;0.0;0.000178927429417
58829000000;2864;58829000000;odom;base_link;0.240705998027;5.98153393984e-05;0.0;0.0;0.0;0.000124893969536;0.999999992201;2.92779769642;-4.56924693481e-05;0.0;0.0;0.0;-0.000199484568478;-4.56924693481e-05;3.11155441896;0.0;0.0;0.0;0.802242397351;0.0;0.0;9.98153276816e-07;-1.09975341684e-22;-1.55412016034e-14;0.0;0.0;0.0;-1.09975341684e-22;9.96316749061e-07;-9.25525373963e-28;0.0;0.0;0.0;-1.55412016034e-14;-9.25525363296e-28;9.9631674906e-07;0.0;-0.000199484568478;0.802242397351;0.0;0.0;0.0;3.5117728813;0.504731563993;0.0;0.0;0.0;0.0;7.81900950585e-07;0.00050622947584;0.0;0.0;0.0;0.0;0.0;0.0;0.00050622947584;0.0;0.0;0.0;0.0;0.0;0.0;9.97233744246e-07;-2.34249822393e-27;-9.37794226873e-24;0.0;0.0;0.0;-2.34249822393e-27;9.89070770402e-07;-7.69668654704e-32;0.0;0.0;0.0;-9.37794226873e-24;-7.69671441624e-32;9.89070770402e-07;0.0;0.0;0.0;0.0;0.0;0.0;0.000178927429417
58849000000;2865;58849000000;odom;base_link;0.250706718596;6.23134643385e-05;0.0;0.0;0.0;0.000124901901176;0.9999999922;2.92879812023;-4.98382314326e-05;0.0;0.0;0.0;-0.000208381933866;-4.98382314326e-05;3.12918861675;0.0;0.0;0.0;0.83786151372;0.0;0.0;9.98153276816e-07;-1.11603281139e-22;-1.5537937302e-14;0.0;0.0;0.0;-1.11603281139e-22;9.96316749061e-07;-9.39029000062e-28;0.0;0.0;0.0;-1.5537937302e-14;-9.39028978637e-28;9.9631674906e-07;0.0;-0.000208381933866;0.83786151372;0.0;0.0;0.0;3.51297289324;0.504672134267;0.0;0.0;0.0;0.0;7.93638016984e-07;0.00050622947584;0.0;0.0;0.0;0.0;0.0;0.0;0.00050622947584;0.0;0.0;0.0;0.0;0.0;0.0;9.97233744246e-07;-2.34215498316e-27;-9.37597254967e-24;0.0;0.0;0.0;-2.34215498316e-27;9.89070770402e-07;-7.69392275515e-32;0.0;0.0;0.0;-9.37597254967e-24;-7.69392539023e-32;9.89070770402e-07;0.0;0.0;0.0;0.0;0.0;0.0;0.000178927429417
58869000000;2866;58869000000;odom;base_link;0.26070743069;6.48117373534e-05;0.0;0.0;0.0;0.000124907195908;0.999999992199;2.92979854408;-5.41638537467e-05;0.0;0.0;0.0;-0.000217281310411;-5.41638537467e-05;3.14754231511;0.0;0.0;0.0;0.87348653624;0.0;0.0;9.98153276816e-07;-5.79478593995e-23;-1.55347130546e-14;0.0;0.0;0.0;-5.79478593995e-23;9.96316749061e-07;-4.87477723064e-28;0.0;0.0;0.0;-1.55347130546e-14;-4.87477728396e-28;9.9631674906e-07;0.0;-0.000217281310411;0.87348653624;0.0;0.0;0.0;3.51417290518;0.504613435667;0.0;0.0;0.0;0.0;4.12324810636e-07;0.00050622947584;0.0;0.0;0.0;0.0;0.0;0.0;0.00050622947584;0.0;0.0;0.0;0.0;0.0;0.0;9.97233744246e-07;-2.34176780158e-27;-9.37402699975e-24;0.0;0.0;0.0;-2.34176780158e-27;9.89070770402e-07;-7.6910680716e-32;0.0;0.0;0.0;-9.37402699975e-24;-7.69108358192e-32;9.89070770402e-07;0.0;0.0;0.0;0.0;0.0;0.0;0.000178927429417
58889000000;2867;58889000000;odom;base_link;0.270708134332;6.73101006476e-05;0.0;0.0;0.0;0.000124910594174;0.999999992199;2.93079896798;-5.86692761689e-05;0.0;0.0;0.0;-0.000226182512383;-5.86692761689e-05;3.16661541984;0.0;0.0;0.0;0.909117538278;0.0;0.0;9.98153276816e-07;-4.30904371726e-23;-1.55315288472e-14;0.0;0.0;0.0;-4.30904371726e-23;9.96316749061e-07;-3.62414766299e-28;0.0;0.0;0.0;-1.55315288472e-14;-3.62414766153e-28;9.9631674906e-07;0.0;-0.000226182512383;0.909117538278;0.0;0.0;0.0;3.51537291712;0.504555466945;0.0;0.0;0.0;0.0;3.06755778985e-07;0.00050622947584;0.0;0.0;0.0;0.0;0.0;0.0;0.00050622947584;0.0;0.0;0.0;0.0;0.0;0.0;9.97233744246e-07;-2.34135118794e-27;-9.37210561045e-24;0.0;0.0;0.0;-2.34135118794e-27;9.89070770402e-07;-7.68809134393e-32;0.0;0.0;0.0;-9.37210561045e-24;-7.68806901999e-32;9.89070770402e-07;0.0;0.0;0.0;0.0;0.0;0.0;0.000178927429417
58909000000;2868;58909000000;odom;base_link;0.280708829588;6.98085347859e-05;0.0;0.0;0.0;0.000124916357569;0.999999992198;2.93179939193;-6.3354468076e-05;0.0;0.0;0.0;-0.000235085488865;-6.3354468076e-05;3.18640784271;0.0;0.0;0.0;0.944754592868;0.0;0.0;9.98153276816e-07;-9.69493576397e-23;-1.55283844216e-14;0.0;0.0;0.0;-9.69493576397e-23;9.96316749061e-07;-8.15223609984e-28;0.0;0.0;0.0;-1.55283844216e-14;-8.15223609968e-28;9.9631674906e-07;0.0;-0.000235085488865;0.944754592868;0.0;0.0;0.0;3.51657292906;0.50449822291;0.0;0.0;0.0;0.0;6.89898710344e-07;0.00050622947584;0.0;0.0;0.0;0.0;0.0;0.0;0.00050622947584;0.0;0.0;0.0;0.0;0.0;0.0;9.97233744246e-07;-2.34098558445e-27;-9.37020822596e-24;0.0;0.0;0.0;-2.34098558445e-27;9.89070770402e-07;-7.68533534233e-32;0.0;0.0;0.0;-9.37020822596e-24;-7.68534987148e-32;9.89070770402e-07;0.0;0.0;0.0;0.0;0.0;0.0;0.000178927429417
58929000000;2869;58929000000;odom;base_link;0.290709516542;7.23070839929e-05;0.0;0.0;0.0;0.00012492066227;0.999999992197;2.93279981591;-6.82194602379e-05;0.0;0.0;0.0;-0.000243990413888;-6.82194602379e-05;3.2069195012;0.0;0.0;0.0;0.980397772431;0.0;0.0;9.98153276816e-07;-4.43672624213e-23;-1.55252794007e-14;0.0;0.0;0.0;-4.43672624213e-23;9.96316749061e-07;-3.73007587557e-28;0.0;0.0;0.0;-1.55252794007e-14;-3.73007609278e-28;9.9631674906e-07;0.0;-0.000243990413888;0.980397772431;0.0;0.0;0.0;3.517772941;0.504441696459;0.0;0.0;0.0;0.0;3.15959621982e-07;0.00050622947584;0.0;0.0;0.0;0.0;0.0;0.0;0.00050622947584;0.0;0.0;0.0;0.0;0.0;0.0;9.97233744246e-07;-2.34059791057e-27;-9.36833461871e-24;0.0;0.0;0.0;-2.34059791057e-27;9.89070770402e-07;-7.68253071483e-32;0.0;0.0;0.0;-9.36833461871e-24;-7.68254279433e-32;9.89070770402e-07;0.0;0.0;0.0;0.0;0.0;0.0;0.000178927429417
58949000000;2870;58949000000;odom;base_link;0.300710195287;7.48057119068e-05;0.0;0.0;0.0;0.000124925542107;0.999999992197;2.93380023995;-7.32642089727e-05;0.0;0.0;0.0;-0.000252897176957;-7.32642089727e-05;3.22815031839;0.0;0.0;0.0;1.01604714865;0.0;0.0;9.98153276816e-07;-7.86339348805e-23;-1.5522213351e-14;0.0;0.0;0.0;-7.86339348805e-23;9.96316749061e-07;-6.60951957867e-28;0.0;0.0;0.0;-1.5522213351e-14;-6.60951941652e-28;9.9631674906e-07;0.0;-0.000252897176957;1.01604714865;0.0;0.0;0.0;3.51897295294;0.504385879589;0.0;0.0;0.0;0.0;5.59846042699e-07;0.00050622947584;0.0;0.0;0.0;0.0;0.0;0.0;0.00050622947584;0.0;0.0;0.0;0.0;0.0;0.0;9.97233744246e-07;-2.34022718817e-27;-9.36648452718e-24;0.0;0.0;0.0;-2.34022718817e-27;9.89070770402e-07;-7.67975713838e-32;0.0;0.0;0.0;-9.36648452718e-24;-7.67982476174e-32;9.89070770402e-07;0.0;0.0;0.0;0.0;0.0;0.0;0.000178927429417
58980000000;2871;58980000000;odom;base_link;0.316271594911;7.86938355444e-05;0.0;0.0;0.0;0.000124931716005;0.999999992196;2.93535106978;-8.14329874858e-05;0.0;0.0;0.0;-0.000266696784079;-8.14329874858e-05;3.262455946;0.0;0.0;0.0;1.07127752024;0.0;0.0;4.99622070082e-07;-2.30636390062e-23;-6.31630077496e-15;0.0;0.0;0.0;-2.30636390062e-23;4.99245844078e-07;-3.85462029079e-28;0.0;0.0;0.0;-6.31630077496e-15;-3.85461996818e-28;4.99245844077e-07;0.0;-0.000266696784079;1.07127752024;0.0;0.0;0.0;3.52083297682;0.506710902009;0.0;0.0;0.0;0.0;4.64037536209e-07;0.000790086217522;0.0;0.0;0.0;0.0;0.0;0.0;0.000790086217522;0.0;0.0;0.0;0.0;0.0;0.0;4.99433745189e-07;-3.80583699353e-27;-1.52317057364e-23;0.0;0.0;0.0;-3.80583699353e-27;4.97757627729e-07;-2.48435776835e-31;0.0;0.0;0.0;-1.52317057364e-23;-2.48435483826e-31;4.97757627729e-07;0.0;0.0;0.0;0.0;0.0;0.0;9.99957495085e-10
59000000000;2872;59000000000;odom;base_link;0.326271494312;8.11924912864e-05;0.0;0.0;0.0;0.000124936121508;0.999999992195;2.93635149392;-8.69359769498e-05;0.0;0.0;0.0;-0.000275608486892;-8.69359769498e-05;3.28551983222;0.0;0.0;0.0;1.10694348691;0.0;0.0;4.99622070082e-07;-3.20666943415e-23;-6.31543384574e-15;0.0;0.0;0.0;-3.20666943415e-23;4.99245844078e-07;-5.3585628111e-28;0.0;0.0;0.0;-6.31543384574e-15;-5.35856300715e-28;4.99245844077e-07;0.0;-0.000275608486892;1.10694348691;0.0;0.0;0.0;3.52203298876;0.506626557014;0.0;0.0;0.0;0.0;3.71835832993e-07;0.000790086217522;0.0;0.0;0.0;0.0;0.0;0.0;0.000790086217522;0.0;0.0;0.0;0.0;0.0;0.0;4.99433745189e-07;-3.80546570651e-27;-1.5229615136e-23;0.0;0.0;0.0;-3.80546570651e-27;4.97757627729e-07;-2.48377044196e-31;0.0;0.0;0.0;-1.5229615136e-23;-2.48377157449e-31;4.97757627729e-07;0.0;0.0;0.0;0.0;0.0;0.0;9.99957495085e-10
59020000000;2873;59020000000;odom;base_link;0.336271395396;8.36912305632e-05;0.0;0.0;0.0;0.000124940972286;0.999999992195;2.93735191812;-9.26187043134e-05;0.0;0.0;0.0;-0.000284522096589;-9.26187043134e-05;3.30930266305;0.0;0.0;0.0;1.14261589232;0.0;0.0;4.99622070082e-07;-2.56959088828e-23;-6.31457781399e-15;0.0;0.0;0.0;-2.56959088828e-23;4.99245844078e-07;-4.29337923638e-28;0.0;0.0;0.0;-6.31457781399e-15;-4.29337929059e-28;4.99245844077e-07;0.0;-0.000284522096589;1.14261589232;0.0;0.0;0.0;3.5232330007;0.506543272273;0.0;0.0;0.0;0.0;8.33221027056e-07;0.000790086217522;0.0;0.0;0.0;0.0;0.0;0.0;0.000790086217522;0.0;0.0;0.0;0.0;0.0;0.0;4.99433745189e-07;-3.80505591566e-27;-1.52275508148e-23;0.0;0.0;0.0;-3.80505591566e-27;4.97757627729e-07;-2.48316583309e-31;0.0;0.0;0.0;-1.52275508148e-23;-2.48316611998e-31;4.97757627729e-07;0.0;0.0;0.0;0.0;0.0;0.0;9.99957495085e-10
59040000000;2874;59040000000;odom;base_link;0.346271298144;8.61900900739e-05;0.0;0.0;0.0;0.000124948774767;0.999999992194;2.93835234235;-9.84812085666e-05;0.0;0.0;0.0;-0.000293437759629;-9.84812085666e-05;3.33380438539;0.0;0.0;0.0;1.17829480448;0.0;0.0;4.99622070082e-07;-5.75448166596e-23;-6.31373254387e-15;0.0;0.0;0.0;-5.75448166596e-23;4.99245844078e-07;-9.61354007865e-28;0.0;0.0;0.0;-6.31373254387e-15;-9.61354025756e-28;4.99245844077e-07;0.0;-0.000293437759629;1.17829480448;0.0;0.0;0.0;3.52443301264;0.506461034546;0.0;0.0;0.0;0.0;6.24210216484e-07;0.000790086217522;0.0;0.0;0.0;0.0;0.0;0.0;0.000790086217522;0.0;0.0;0.0;0.0;0.0;0.0;4.99433745189e-07;-3.80483508858e-27;-1.52255124453e-23;0.0;0.0;0.0;-3.80483508858e-27;4.97757627729e-07;-2.48269065333e-31;0.0;0.0;0.0;-1.52255124453e-23;-2.48269541015e-31;4.97757627729e-07;0.0;0.0;0.0;0.0;0.0;0.0;9.99957495085e-10
59060000000;2875;59060000000;odom;base_link;0.356271202537;8.86890957288e-05;0.0;0.0;0.0;0.000124955519274;0.999999992193;2.93935276664;-0.000104523522473;0.0;0.0;0.0;-0.000302355585417;-0.000104523522473;3.35902495118;0.0;0.0;0.0;1.21398029054;0.0;0.0;4.99622070082e-07;-4.31093026867e-23;-6.31289790079e-15;0.0;0.0;0.0;-4.31093026867e-23;4.99245844078e-07;-7.20096534553e-28;0.0;0.0;0.0;-6.31289790079e-15;-7.20096516597e-28;4.99245844077e-07;0.0;-0.000302355585417;1.21398029054;0.0;0.0;0.0;3.52563302458;0.506379830731;0.0;0.0;0.0;0.0;8.32068324986e-07;0.000790086217522;0.0;0.0;0.0;0.0;0.0;0.0;0.000790086217522;0.0;0.0;0.0;0.0;0.0;0.0;4.99433745189e-07;-3.80450588895e-27;-1.52234997029e-23;0.0;0.0;0.0;-3.80450588895e-27;4.97757627729e-07;-2.48214952752e-31;0.0;0.0;0.0;-1.52234997029e-23;-2.48214766644e-31;4.97757627729e-07;0.0;0.0;0.0;0.0;0.0;0.0;9.99957495085e-10
59080000000;2876;59080000000;odom;base_link;0.366271108559;9.1188246856e-05;0.0;0.0;0.0;0.000124962647573;0.999999992192;2.94035319096;-0.000110745650274;0.0;0.0;0.0;-0.000311275588719;-0.000110745650274;3.38496431735;0.0;0.0;0.0;1.24967241685;0.0;0.0;4.99622070082e-07;-5.74494288702e-23;-6.31207375172e-15;0.0;0.0;0.0;-5.74494288702e-23;4.99245844078e-07;-9.59508292561e-28;0.0;0.0;0.0;-6.31207375172e-15;-9.59508285619e-28;4.99245844077e-07;0.0;-0.000311275588719;1.24967241685;0.0;0.0;0.0;3.52683303652;0.506299647874;0.0;0.0;0.0;0.0;3.54441605816e-07;0.000790086217522;0.0;0.0;0.0;0.0;0.0;0.0;0.000790086217522;0.0;0.0;0.0;0.0;0.0;0.0;4.99433745189e-07;-3.80427795026e-27;-1.52215122668e-23;0.0;0.0;0.0;-3.80427795026e-27;4.97757627729e-07;-2.48167179824e-31;0.0;0.0;0.0;-1.52215122668e-23;-2.48167024505e-31;4.97757627729e-07;0.0;0.0;0.0;0.0;0.0;0.0;9.99957495085e-10
59100000000;2877;59100000000;odom;base_link;0.376271016191;9.3687516836e-05;0.0;0.0;0.0;0.000124966788018;0.999999992192;2.94135361534;-0.000117147564016;0.0;0.0;0.0;-0.000320197692598;-0.000117147564016;3.41162244573;0.0;0.0;0.0;1.28537124895;0.0;0.0;4.99622070082e-07;-2.44806134266e-23;-6.31125996515e-15;0.0;0.0;0.0;-2.44806134266e-23;4.99245844078e-07;-4.08817350005e-28;0.0;0.0;0.0;-6.31125996515e-15;-4.08817346606e-28;4.99245844077e-07;0.0;-0.000320197692598;1.28537124895;0.0;0.0;0.0;3.52803304846;0.506220473173;0.0;0.0;0.0;0.0;5.98287804197e-07;0.000790086217522;0.0;0.0;0.0;0.0;0.0;0.0;0.000790086217522;0.0;0.0;0.0;0.0;0.0;0.0;4.99433745189e-07;-3.80385874912e-27;-1.52195498199e-23;0.0;0.0;0.0;-3.80385874912e-27;4.97757627729e-07;-2.48108284724e-31;0.0;0.0;0.0;-1.52195498199e-23;-2.48108377828e-31;4.97757627729e-07;0.0;0.0;0.0;0.0;0.0;0.0;9.99957495085e-10
59120000000;2878;59120000000;odom;base_link;0.386270925418;9.61868815139e-05;0.0;0.0;0.0;0.000124971965498;0.999999992191;2.94235403975;-0.000123729235958;0.0;0.0;0.0;-0.000329121827313;-0.000123729235958;3.43899930296;0.0;0.0;0.0;1.32107685158;0.0;0.0;4.99622070082e-07;-4.13027244453e-23;-6.31045641122e-15;0.0;0.0;0.0;-4.13027244453e-23;4.99245844078e-07;-6.89652678953e-28;0.0;0.0;0.0;-6.31045641122e-15;-6.89652677136e-28;4.99245844077e-07;0.0;-0.000329121827313;1.32107685158;0.0;0.0;0.0;3.5292330604;0.506142293987;0.0;0.0;0.0;0.0;2.75833875351e-07;0.000790086217522;0.0;0.0;0.0;0.0;0.0;0.0;0.000790086217522;0.0;0.0;0.0;0.0;0.0;0.0;4.99433745189e-07;-3.8035748322e-27;-1.5217612049e-23;0.0;0.0;0.0;-3.8035748322e-27;4.97757627729e-07;-2.48058016739e-31;0.0;0.0;0.0;-1.5217612049e-23;-2.48057591387e-31;4.97757627729e-07;0.0;0.0;0.0;0.0;0.0;0.0;9.99957495085e-10
59140000000;2879;59140000000;odom;base_link;0.396270836224;9.868633362e-05;0.0;0.0;0.0;0.00012497453151;0.999999992191;2.94335446422;-0.000130490659237;0.0;0.0;0.0;-0.000338047983116;-0.000130490659237;3.46709486044;0.0;0.0;0.0;1.35678928869;0.0;0.0;4.99622070082e-07;-1.90501531253e-23;-6.30966296161e-15;0.0;0.0;0.0;-1.90501531253e-23;4.99245844078e-07;-3.18050139397e-28;0.0;0.0;0.0;-6.30966296161e-15;-3.18050140345e-28;4.99245844077e-07;0.0;-0.000338047983116;1.35678928869;0.0;0.0;0.0;3.53043307234;0.506065097829;0.0;0.0;0.0;0.0;1.9954467599e-07;0.000790086217522;0.0;0.0;0.0;0.0;0.0;0.0;0.000790086217522;0.0;0.0;0.0;0.0;0.0;0.0;4.99433745189e-07;-3.80315579612e-27;-1.52156986447e-23;0.0;0.0;0.0;-3.80315579612e-27;4.97757627729e-07;-2.47999825904e-31;0.0;0.0;0.0;-1.52156986447e-23;-2.48000174942e-31;4.97757627729e-07;0.0;0.0;0.0;0.0;0.0;0.0;9.99957495085e-10
59160000000;2880;59160000000;odom;base_link;0.406270748593;0.000101185832863;0.0;0.0;0.0;0.000124977696764;0.99999999219;2.94435488872;-0.000137431780868;0.0;0.0;0.0;-0.000346976032803;-0.000137431780868;3.49590909425;0.0;0.0;0.0;1.39250862347;0.0;0.0;4.99622070082e-07;-1.37845502462e-23;-6.30887948965e-15;0.0;0.0;0.0;-1.37845502462e-23;4.99245844078e-07;-2.30110150067e-28;0.0;0.0;0.0;-6.30887948965e-15;-2.30110156476e-28;4.99245844077e-07;0.0;-0.000346976032803;1.39250862347;0.0;0.0;0.0;3.53163308428;0.505988872365;0.0;0.0;0.0;0.0;6.7487252234e-07;0.000790086217522;0.0;0.0;0.0;0.0;0.0;0.0;0.000790086217522;0.0;0.0;0.0;0.0;0.0;0.0;4.99433745189e-07;-3.80273836749e-27;-1.52138093015e-23;0.0;0.0;0.0;-3.80273836749e-27;4.97757627729e-07;-2.47941371413e-31;0.0;0.0;0.0;-1.52138093015e-23;-2.47941641042e-31;4.97757627729e-07;0.0;0.0;0.0;0.0;0.0;0.0;9.99957495085e-10
59180000000;2881;59180000000;odom;base_link;0.416270662512;0.0001036854191;0.0;0.0;0.0;0.000124984449643;0.999999992189;2.94535531328;-0.000144552657825;0.0;0.0;0.0;-0.000355906132241;-0.000144552657825;3.52544198503;0.0;0.0;0.0;1.4282349183;0.0;0.0;4.99622070082e-07;-4.65682818151e-23;-6.30810587021e-15;0.0;0.0;0.0;-4.65682818151e-23;4.99245844078e-07;-7.77284734976e-28;0.0;0.0;0.0;-6.30810587021e-15;-7.77284735027e-28;4.99245844077e-07;0.0;-0.000355906132241;1.4282349183;0.0;0.0;0.0;3.53283309622;0.50591360542;0.0;0.0;0.0;0.0;6.81175168096e-07;0.000790086217522;0.0;0.0;0.0;0.0;0.0;0.0;0.000790086217522;0.0;0.0;0.0;0.0;0.0;0.0;4.99433745189e-07;-3.80251329261e-27;-1.52119437177e-23;0.0;0.0;0.0;-3.80251329261e-27;4.97757627729e-07;-2.47896494335e-31;0.0;0.0;0.0;-1.52119437177e-23;-2.47896623124e-31;4.97757627729e-07;0.0;0.0;0.0;0.0;0.0;0.0;9.99957495085e-10
59200000000;2882;59200000000;odom;base_link;0.426270577966;0.000106185141207;0.0;0.0;0.0;0.000124991856009;0.999999992189;2.94635573787;-0.000151853367679;0.0;0.0;0.0;-0.000364838470535;-0.000151853367679;3.55569351796;0.0;0.0;0.0;1.46396823483;0.0;0.0;4.99622070082e-07;-4.69967521569e-23;-6.30734197972e-15;0.0;0.0;0.0;-4.69967521569e-23;4.99245844078e-07;-7.84341461603e-28;0.0;0.0;0.0;-6.30734197972e-15;-7.8434147587e-28;4.99245844077e-07;0.0;-0.000364838470535;1.46396823483;0.0;0.0;0.0;3.53403310816;0.505839284966;0.0;0.0;0.0;0.0;9.26888965134e-07;0.000790086217522;0.0;0.0;0.0;0.0;0.0;0.0;0.000790086217522;0.0;0.0;0.0;0.0;0.0;0.0;4.99433745189e-07;-3.80226016337e-27;-1.52101015952e-23;0.0;0.0;0.0;-3.80226016337e-27;4.97757627729e-07;-2.4784972758e-31;0.0;0.0;0.0;-1.52101015952e-23;-2.4784987668e-31;4.97757627729e-07;0.0;0.0;0.0;0.0;0.0;0.0;9.99957495085e-10
59220000000;2883;59220000000;odom;base_link;0.436270494943;0.000108685024134;0.0;0.0;0.0;0.000124999663029;0.999999992188;2.94735616251;-0.000159333960201;0.0;0.0;0.0;-0.000373773152095;-0.000159333960201;3.58666368266;0.0;0.0;0.0;1.49970863395;0.0;0.0;4.99622070082e-07;-6.39346857993e-23;-6.30658769618e-15;0.0;0.0;0.0;-6.39346857993e-23;4.99245844078e-07;-1.06689559446e-27;0.0;0.0;0.0;-6.30658769618e-15;-1.06689561607e-27;4.99245844077e-07;0.0;-0.000373773152095;1.49970863395;0.0;0.0;0.0;3.5352331201;0.505765899128;0.0;0.0;0.0;0.0;3.40779030408e-07;0.000790086217522;0.0;0.0;0.0;0.0;0.0;0.0;0.000790086217522;0.0;0.0;0.0;0.0;0.0;0.0;4.99433745189e-07;-3.80210563532e-27;-1.52082826398e-23;0.0;0.0;0.0;-3.80210563532e-27;4.97757627729e-07;-2.47809918817e-31;0.0;0.0;0.0;-1.52082826398e-23;-2.47809847885e-31;4.97757627729e-07;0.0;0.0;0.0;0.0;0.0;0.0;9.99957495085e-10
59249000000;2884;59249000000;odom;base_link;0.450719458751;0.000112297345551;0.0;0.0;0.0;0.000125005651984;0.999999992187;2.94880660584;-0.000170507383899;0.0;0.0;0.0;-0.000386740547204;-0.000170507383899;3.63287527486;0.0;0.0;0.0;1.55157762529;0.0;0.0;9.98153276816e-07;-6.8539141388e-23;-1.54805868857e-14;0.0;0.0;0.0;-6.8539141388e-23;9.96316749061e-07;-5.74556937197e-28;0.0;0.0;0.0;-1.54805868857e-14;-5.74556969022e-28;9.9631674906e-07;0.0;-0.000386740547204;1.55157762529;0.0;0.0;0.0;3.53697313204;0.503628086048;0.0;0.0;0.0;0.0;4.89234848723e-07;0.00050622947584;0.0;0.0;0.0;0.0;0.0;0.0;0.00050622947584;0.0;0.0;0.0;0.0;0.0;0.0;9.97233744246e-07;-2.3354480488e-27;-9.34136661352e-24;0.0;0.0;0.0;-2.3354480488e-27;9.89070770402e-07;-7.64347255557e-32;0.0;0.0;0.0;-9.34136661352e-24;-7.64349883248e-32;9.89070770402e-07;0.0;0.0;0.0;0.0;0.0;0.0;0.000178927429417
59269000000;2885;59269000000;odom;base_link;0.460720019535;0.000114797639861;0.0;0.0;0.0;0.000125009932211;0.999999992186;2.94980703059;-0.000178428603068;0.0;0.0;0.0;-0.000395680432837;-0.000178428603068;3.66560636178;0.0;0.0;0.0;1.58733523104;0.0;0.0;9.98153276816e-07;-5.59126360537e-23;-1.54780827023e-14;0.0;0.0;0.0;-5.59126360537e-23;9.96316749061e-07;-4.68637681862e-28;0.0;0.0;0.0;-1.54780827023e-14;-4.6863771388e-28;9.9631674906e-07;0.0;-0.000395680432837;1.58733523104;0.0;0.0;0.0;3.53817314398;0.503582499333;0.0;0.0;0.0;0.0;3.9920387877e-07;0.00050622947584;0.0;0.0;0.0;0.0;0.0;0.0;0.00050622947584;0.0;0.0;0.0;0.0;0.0;0.0;9.97233744246e-07;-2.33515019333e-27;-9.33985555896e-24;0.0;0.0;0.0;-2.33515019333e-27;9.89070770402e-07;-7.64135669264e-32;0.0;0.0;0.0;-9.33985555896e-24;-7.64135936092e-32;9.89070770402e-07;0.0;0.0;0.0;0.0;0.0;0.0;0.000178927429417
59289000000;2886;59289000000;odom;base_link;0.470720573753;0.000117298016993;0.0;0.0;0.0;0.000125014476871;0.999999992186;2.95080745539;-0.000186529627142;0.0;0.0;0.0;-0.000404622445037;-0.000186529627142;3.69905606612;0.0;0.0;0.0;1.62310012868;0.0;0.0;9.98153276816e-07;-6.66493840764e-23;-1.54756100113e-14;0.0;0.0;0.0;-6.66493840764e-23;9.96316749061e-07;-5.58536747763e-28;0.0;0.0;0.0;-1.54756100113e-14;-5.58536801369e-28;9.9631674906e-07;0.0;-0.000404622445037;1.62310012868;0.0;0.0;0.0;3.53937315592;0.503537486084;0.0;0.0;0.0;0.0;4.75885736321e-07;0.00050622947584;0.0;0.0;0.0;0.0;0.0;0.0;0.00050622947584;0.0;0.0;0.0;0.0;0.0;0.0;9.97233744246e-07;-2.3348620734e-27;-9.33836350723e-24;0.0;0.0;0.0;-2.3348620734e-27;9.89070770402e-07;-7.639174064e-32;0.0;0.0;0.0;-9.33836350723e-24;-7.63915258428e-32;9.89070770402e-07;0.0;0.0;0.0;0.0;0.0;0.0;0.000178927429417
59300000000;2887;59300000000;odom;base_link;0.476270177836;0.000118685578727;0.0;0.0;0.0;0.000125016787804;0.999999992185;2.95135786153;-0.000191054527799;0.0;0.0;0.0;-0.000409533543794;-0.000191054527799;3.71773060333;0.0;0.0;0.0;1.6427422484;0.0;0.0;4.99622070082e-07;-3.29981377359e-23;-6.30366424361e-15;0.0;0.0;0.0;-3.29981377359e-23;4.99245844078e-07;-5.50393703058e-28;0.0;0.0;0.0;-6.30366424361e-15;-5.50393685154e-28;4.99245844077e-07;0.0;-0.000409533543794;1.6427422484;0.0;0.0;0.0;3.54003316786;0.505481469557;0.0;0.0;0.0;0.0;3.51664966099e-07;0.000790086217522;0.0;0.0;0.0;0.0;0.0;0.0;0.000790086217522;0.0;0.0;0.0;0.0;0.0;0.0;4.99433745189e-07;-3.80082878085e-27;-1.52012327318e-23;0.0;0.0;0.0;-3.80082878085e-27;4.97757627729e-07;-2.47612200061e-31;0.0;0.0;0.0;-1.52012327318e-23;-2.47612055184e-31;4.97757627729e-07;0.0;0.0;0.0;0.0;0.0;0.0;9.99957495085e-10
59329000000;2888;59329000000;odom;base_link;0.490721662854;0.000122299020615;0.0;0.0;0.0;0.000125022023915;0.999999992185;2.95280830512;-0.000203271137493;0.0;0.0;0.0;-0.00042251290933;-0.000203271137493;3.76811136633;0.0;0.0;0.0;1.69465202934;0.0;0.0;9.98153276816e-07;-5.18169906264e-23;-1.54707575296e-14;0.0;0.0;0.0;-5.18169906264e-23;9.96316749061e-07;-4.34102453757e-28;0.0;0.0;0.0;-1.54707575296e-14;-4.34102421781e-28;9.9631674906e-07;0.0;-0.00042251290933;1.69465202934;0.0;0.0;0.0;3.5417731798;0.503449151302;0.0;0.0;0.0;0.0;3.70124171755e-07;0.00050622947584;0.0;0.0;0.0;0.0;0.0;0.0;0.00050622947584;0.0;0.0;0.0;0.0;0.0;0.0;9.97233744246e-07;-2.33427073772e-27;-9.335435461e-24;0.0;0.0;0.0;-2.33427073772e-27;9.89070770402e-07;-7.63480404226e-32;0.0;0.0;0.0;-9.335435461e-24;-7.63484236821e-32;9.89070770402e-07;0.0;0.0;0.0;0.0;0.0;0.0;0.000178927429417
59340000000;2889;59340000000;odom;base_link;0.496270028117;0.000123686356357;0.0;0.0;0.0;0.000125024218673;0.999999992184;2.95335871131;-0.000207993707378;0.0;0.0;0.0;-0.000427426537851;-0.000207993707378;3.78757589946;0.0;0.0;0.0;1.71430308061;0.0;0.0;4.99622070082e-07;-2.56588527477e-23;-6.30225709617e-15;0.0;0.0;0.0;-2.56588527477e-23;4.99245844078e-07;-4.27882281532e-28;0.0;0.0;0.0;-6.30225709617e-15;-4.27882274313e-28;4.99245844077e-07;0.0;-0.000427426537851;1.71430308061;0.0;0.0;0.0;3.54243319174;0.505344564399;0.0;0.0;0.0;0.0;4.34608635506e-07;0.000790086217522;0.0;0.0;0.0;0.0;0.0;0.0;0.000790086217522;0.0;0.0;0.0;0.0;0.0;0.0;4.99433745189e-07;-3.80019186895e-27;-1.51978393948e-23;0.0;0.0;0.0;-3.80019186895e-27;4.97757627729e-07;-2.47515664385e-31;0.0;0.0;0.0;-1.51978393948e-23;-2.47515101638e-31;4.97757627729e-07;0.0;0.0;0.0;0.0;0.0;0.0;9.99957495085e-10
59369000000;2890;59369000000;odom;base_link;0.510722726766;0.000127300325518;0.0;0.0;0.0;0.000125030297987;0.999999992184;2.95480915503;-0.000220731962398;0.0;0.0;0.0;-0.000440411942769;-0.000220731962398;3.84004129428;0.0;0.0;0.0;1.76623377964;0.0;0.0;9.98153276816e-07;-5.61954665605e-23;-1.54660263366e-14;0.0;0.0;0.0;-5.61954665605e-23;9.96316749061e-07;-4.7064043489e-28;0.0;0.0;0.0;-1.54660263366e-14;-4.70640477388e-28;9.9631674906e-07;0.0;-0.000440411942769;1.76623377964;0.0;0.0;0.0;3.54417320368;0.503363025219;0.0;0.0;0.0;0.0;4.0148490564e-07;0.00050622947584;0.0;0.0;0.0;0.0;0.0;0.0;0.00050622947584;0.0;0.0;0.0;0.0;0.0;0.0;9.97233744246e-07;-2.33371141287e-27;-9.33258060179e-24;0.0;0.0;0.0;-2.33371141287e-27;9.89070770402e-07;-7.63072304892e-32;0.0;0.0;0.0;-9.33258060179e-24;-7.63072194189e-32;9.89070770402e-07;0.0;0.0;0.0;0.0;0.0;0.0;0.000178927429417
59389000000;2891;59389000000;odom;base_link;0.520723249495;0.000129801100827;0.0;0.0;0.0;0.0001250349349;0.999999992183;2.95580958005;-0.000229732169926;0.0;0.0;0.0;-0.000449364742633;-0.000229732169926;3.87708429806;0.0;0.0;0.0;1.80203598678;0.0;0.0;9.98153276816e-07;-6.83027906173e-23;-1.54637052743e-14;0.0;0.0;0.0;-6.83027906173e-23;9.96316749061e-07;-5.71952236623e-28;0.0;0.0;0.0;-1.54637052743e-14;-5.7195224718e-28;9.9631674906e-07;0.0;-0.000449364742633;1.80203598678;0.0;0.0;0.0;3.54537321562;0.503320773169;0.0;0.0;0.0;0.0;4.880106416e-07;0.00050622947584;0.0;0.0;0.0;0.0;0.0;0.0;0.00050622947584;0.0;0.0;0.0;0.0;0.0;0.0;9.97233744246e-07;-2.33344780968e-27;-9.33118004469e-24;0.0;0.0;0.0;-2.33344780968e-27;9.89070770402e-07;-7.62865721579e-32;0.0;0.0;0.0;-9.33118004469e-24;-7.62870918385e-32;9.89070770402e-07;0.0;0.0;0.0;0.0;0.0;0.0;0.000178927429417
59409000000;2892;59409000000;odom;base_link;0.530723766187;0.000132301958658;0.0;0.0;0.0;0.000125036448207;0.999999992183;2.95681000512;-0.000238912263115;0.0;0.0;0.0;-0.000458319751604;-0.000238912263115;3.91484603174;0.0;0.0;0.0;1.83784582102;0.0;0.0;9.98153276816e-07;-6.61631499649e-25;-1.54614134049e-14;0.0;0.0;0.0;-6.61631499649e-25;9.96316749061e-07;-5.54713756442e-30;0.0;0.0;0.0;-1.54614134049e-14;-5.54712422345e-30;9.9631674906e-07;0.0;-0.000458319751604;1.83784582102;0.0;0.0;0.0;3.54657322756;0.503279052739;0.0;0.0;0.0;0.0;4.87853237394e-09;0.00050622947584;0.0;0.0;0.0;0.0;0.0;0.0;0.00050622947584;0.0;0.0;0.0;0.0;0.0;0.0;9.97233744246e-07;-2.33312969529e-27;-9.32979710289e-24;0.0;0.0;0.0;-2.33312969529e-27;9.89070770402e-07;-7.62651543405e-32;0.0;0.0;0.0;-9.32979710289e-24;-7.62652861361e-32;9.89070770402e-07;0.0;0.0;0.0;0.0;0.0;0.0;0.000178927429417
59429000000;2893;59429000000;odom;base_link;0.540724276928;0.000134802846352;0.0;0.0;0.0;0.000125041151123;0.999999992182;2.95781043023;-0.000248272160006;0.0;0.0;0.0;-0.000467276795586;-0.000248272160006;3.95332652755;0.0;0.0;0.0;1.87366333587;0.0;0.0;9.98153276816e-07;-9.36242005478e-23;-1.54591503615e-14;0.0;0.0;0.0;-9.36242005478e-23;9.96316749061e-07;-7.83748568296e-28;0.0;0.0;0.0;-1.54591503615e-14;-7.83748573495e-28;9.9631674906e-07;0.0;-0.000467276795586;1.87366333587;0.0;0.0;0.0;3.5477732395;0.503237857254;0.0;0.0;0.0;0.0;6.69044751058e-07;0.00050622947584;0.0;0.0;0.0;0.0;0.0;0.0;0.00050622947584;0.0;0.0;0.0;0.0;0.0;0.0;9.97233744246e-07;-2.33287647806e-27;-9.32843155512e-24;0.0;0.0;0.0;-2.33287647806e-27;9.89070770402e-07;-7.62467623783e-32;0.0;0.0;0.0;-9.32843155512e-24;-7.62465567614e-32;9.89070770402e-07;0.0;0.0;0.0;0.0;0.0;0.0;0.000178927429417
59449000000;2894;59449000000;odom;base_link;0.550724781801;0.000137303848092;0.0;0.0;0.0;0.000125048899654;0.999999992181;2.95881085539;-0.000257812034184;0.0;0.0;0.0;-0.000476236187341;-0.000257812034184;3.9925258214;0.0;0.0;0.0;1.90948858419;0.0;0.0;9.98153276816e-07;-1.14200066316e-22;-1.54569157821e-14;0.0;0.0;0.0;-1.14200066316e-22;9.96316749061e-07;-9.55865826819e-28;0.0;0.0;0.0;-1.54569157821e-14;-9.55865826802e-28;9.9631674906e-07;0.0;-0.000476236187341;1.90948858419;0.0;0.0;0.0;3.54897325144;0.50319718012;0.0;0.0;0.0;0.0;8.1615518637e-07;0.00050622947584;0.0;0.0;0.0;0.0;0.0;0.0;0.00050622947584;0.0;0.0;0.0;0.0;0.0;0.0;9.97233744246e-07;-2.33268432901e-27;-9.32708318279e-24;0.0;0.0;0.0;-2.33268432901e-27;9.89070770402e-07;-7.62293993925e-32;0.0;0.0;0.0;-9.32708318279e-24;-7.62294461711e-32;9.89070770402e-07;0.0;0.0;0.0;0.0;0.0;0.0;0.000178927429417
59480000000;2895;59480000000;odom;base_link;0.566269549148;0.000141191677908;0.0;0.0;0.0;0.000125057961035;0.99999999218;2.96036168696;-0.00027294687563;0.0;0.0;0.0;-0.000490121015977;-0.00027294687563;4.0546742561;0.0;0.0;0.0;1.96500473111;0.0;0.0;4.99622070082e-07;-3.59417982213e-23;-6.29760340178e-15;0.0;0.0;0.0;-3.59417982213e-23;4.99245844078e-07;-5.98916187656e-28;0.0;0.0;0.0;-6.29760340178e-15;-5.98916198516e-28;4.99245844077e-07;0.0;-0.000490121015977;1.96500473111;0.0;0.0;0.0;3.55083327532;0.504891791126;0.0;0.0;0.0;0.0;5.58070204679e-07;0.000790086217522;0.0;0.0;0.0;0.0;0.0;0.0;0.000790086217522;0.0;0.0;0.0;0.0;0.0;0.0;4.99433745189e-07;-3.79841273867e-27;-1.51866170074e-23;0.0;0.0;0.0;-3.79841273867e-27;4.97757627729e-07;-2.47216337e-31;0.0;0.0;0.0;-1.51866170074e-23;-2.47216450749e-31;4.97757627729e-07;0.0;0.0;0.0;0.0;0.0;0.0;9.99957495085e-10
59500000000;2896;59500000000;odom;base_link;0.576269486327;0.000143692865321;0.0;0.0;0.0;0.000125063371508;0.99999999218;2.96136211223;-0.000282945820481;0.0;0.0;0.0;-0.00049908665764;-0.000282945820481;4.09570650211;0.0;0.0;0.0;2.00085028022;0.0;0.0;4.99622070082e-07;-3.84330428798e-23;-6.29697161895e-15;0.0;0.0;0.0;-3.84330428798e-23;4.99245844078e-07;-6.40364806062e-28;0.0;0.0;0.0;-6.29697161895e-15;-6.40364806111e-28;4.99245844077e-07;0.0;-0.00049908665764;2.00085028022;0.0;0.0;0.0;3.55203328726;0.504830322506;0.0;0.0;0.0;0.0;4.93017998317e-07;0.000790086217522;0.0;0.0;0.0;0.0;0.0;0.0;0.000790086217522;0.0;0.0;0.0;0.0;0.0;0.0;4.99433745189e-07;-3.79820362592e-27;-1.51850934626e-23;0.0;0.0;0.0;-3.79820362592e-27;4.97757627729e-07;-2.4717843084e-31;0.0;0.0;0.0;-1.51850934626e-23;-2.47178663298e-31;4.97757627729e-07;0.0;0.0;0.0;0.0;0.0;0.0;9.99957495085e-10
59520000000;2897;59520000000;odom;base_link;0.586269424881;0.00014619415777;0.0;0.0;0.0;0.000125068114208;0.999999992179;2.96236253755;-0.000293124808974;0.0;0.0;0.0;-0.000508054654609;-0.000293124808974;4.13745771159;0.0;0.0;0.0;2.03670374104;0.0;0.0;4.99622070082e-07;-3.39499100844e-23;-6.29634778444e-15;0.0;0.0;0.0;-3.39499100844e-23;4.99245844078e-07;-5.65611556008e-28;0.0;0.0;0.0;-6.29634778444e-15;-5.6561156664e-28;4.99245844077e-07;0.0;-0.000508054654609;2.03670374104;0.0;0.0;0.0;3.5532332992;0.504769627108;0.0;0.0;0.0;0.0;4.20507909649e-07;0.000790086217522;0.0;0.0;0.0;0.0;0.0;0.0;0.000790086217522;0.0;0.0;0.0;0.0;0.0;0.0;4.99433745189e-07;-3.79797184096e-27;-1.51835890852e-23;0.0;0.0;0.0;-3.79797184096e-27;4.97757627729e-07;-2.47138718095e-31;0.0;0.0;0.0;-1.51835890852e-23;-2.47138959518e-31;4.97757627729e-07;0.0;0.0;0.0;0.0;0.0;0.0;9.99957495085e-10
