%time;field.header.seq;field.header.stamp;field.header.frame_id;field.pose.pose.position.x;field.pose.pose.position.y;field.pose.pose.position.z;field.pose.pose.orientation.x;field.pose.pose.orientation.y;field.pose.pose.orientation.z;field.pose.pose.orientation.w;field.pose.covariance0;field.pose.covariance1;field.pose.covariance2;field.pose.covariance3;field.pose.covariance4;field.pose.covariance5;field.pose.covariance6;field.pose.covariance7;field.pose.covariance8;field.pose.covariance9;field.pose.covariance10;field.pose.covariance11;field.pose.covariance12;field.pose.covariance13;field.pose.covariance14;field.pose.covariance15;field.pose.covariance16;field.pose.covariance17;field.pose.covariance18;field.pose.covariance19;field.pose.covariance20;field.pose.covariance21;field.pose.covariance22;field.pose.covariance23;field.pose.covariance24;field.pose.covariance25;field.pose.covariance26;field.pose.covariance27;field.pose.covariance28;field.pose.covariance29;field.pose.covariance30;field.pose.covariance31;field.pose.covariance32;field.pose.covariance33;field.pose.covariance34;field.pose.covariance35
243245000000;20;243245000000;map;3.79421282896;-0.045387021711;0.0;0.0;0.0;0.00177163220878;0.999998430658;0.000852999756587;-0.000250771597771;0.0;0.0;0.0;0.0;-0.000250771597771;0.00130786059787;0.0;0.0;0.0;0.0;0.0;0.0;0.0;0.0;0.0;0.0;0.0;0.0;0.0;0.0;0.0;0.0;0.0;0.0;0.0;0.0;0.0;0.0;0.0;0.0;0.0;0.0;0.0;0.000453856394231
243647000000;21;243647000000;map;3.99324993987;-0.0431579987145;0.0;0.0;0.0;0.00211657985388;0.999997760042;0.000950901532885;-0.000314139491908;0.0;0.0;0.0;0.0;-0.000314139491908;0.0012529101038;0.0;0.0;0.0;0.0;0.0;0.0;0.0;0.0;0.0;0.0;0.0;0.0;0.0;0.0;0.0;0.0;0.0;0.0;0.0;0.0;0.0;0.0;0.0;0.0;0.0;0.0;0.0;0.000376844357407
244051000000;22;244051000000;map;4.19387799799;-0.0319987265121;0.0;0.0;0.0;0.00167072233414;0.999998604342;0.000795810663558;-0.00037112582735;0.0;0.0;0.0;0.0;-0.00037112582735;0.00104412864218;0.0;0.0;0.0;0.0;0.0;0.0;0.0;0.0;0.0;0.0;0.0;0.0;0.0;0.0;0.0;0.0;0.0;0.0;0.0;0.0;0.0;0.0;0.0;0.0;0.0;0.0;0.0;0.000407329339777
244460000000;23;244460000000;map;4.40225844791;-0.0332420071681;0.0;0.0;0.0;-0.00150572277673;0.999998866399;0.00108925632905;-0.000293191678285;0.0;0.0;0.0;0.0;-0.000293191678285;0.00101464937316;0.0;0.0;0.0;0.0;0.0;0.0;0.0;0.0;0.0;0.0;0.0;0.0;0.0;0.0;0.0;0.0;0.0;0.0;0.0;0.0;0.0;0.0;0.0;0.0;0.0;0.0;0.0;0.000375007528513
244879000000;24;244879000000;map;4.61379072259;-0.0375750140524;0.0;0.0;0.0;-0.00141093100039;0.999999004636;0.000861930396706;-0.000134441996549;0.0;0.0;0.0;0.0;-0.000134441996549;0.00123094592552;0.0;0.0;0.0;0.0;0.0;0.0;0.0;0.0;0.0;0.0;0.0;0.0;0.0;0.0;0.0;0.0;0.0;0.0;0.0;0.0;0.0;0.0;0.0;0.0;0.0;0.0;0.0;0.000539297681897
245282000000;25;245282000000;map;4.82254538906;-0.0357284626333;0.0;0.0;0.0;-0.000692432033851;0.999999760269;0.0011508881912;-6.79830970561e-05;0.0;0.0;0.0;0.0;-6.79830970561e-05;0.00137832034886;0.0;0.0;0.0;0.0;0.0;0.0;0.0;0.0;0.0;0.0;0.0;0.0;0.0;0.0;0.0;0.0;0.0;0.0;0.0;0.0;0.0;0.0;0.0;0.0;0.0;0.0;0.0;0.000464963482679
245684000000;26;245684000000;map;5.02451774475;-0.028965465966;0.0;0.0;0.0;0.00141554295411;0.999998998119;0.00128601268548;-0.000120340600218;0.0;0.0;0.0;0.0;-0.000120340600218;0.00117032328836;0.0;0.0;0.0;0.0;0.0;0.0;0.0;0.0;0.0;0.0;0.0;0.0;0.0;0.0;0.0;0.0;0.0;0.0;0.0;0.0;0.0;0.0;0.0;0.0;0.0;0.0;0.0;0.00041206480619
246086000000;27;246086000000;map;5.22782080453;-0.0290851003943;0.0;0.0;0.0;0.0013348696892;0.999999109061;0.00180293069301;-0.000176021066003;0.0;0.0;0.0;0.0;-0.000176021066003;0.00100938049138;0.0;0.0;0.0;0.0;0.0;0.0;0.0;0.0;0.0;0.0;0.0;0.0;0.0;0.0;0.0;0.0;0.0;0.0;0.0;0.0;0.0;0.0;0.0;0.0;0.0;0.0;0.0;0.000451182735549
246487000000;28;246487000000;map;5.42960677135;-0.0313733688338;0.0;0.0;0.0;0.000598954151451;0.999999820627;0.00234361619574;8.31053991605e-05;0.0;0.0;0.0;0.0;8.31053991605e-05;0.000854813171862;0.0;0.0;0.0;0.0;0.0;0.0;0.0;0.0;0.0;0.0;0.0;0.0;0.0;0.0;0.0;0.0;0.0;0.0;0.0;0.0;0.0;0.0;0.0;0.0;0.0;0.0;0.0;0.000481109123888
246889000000;29;246889000000;map;5.63519182592;-0.0382350025654;0.0;0.0;0.0;0.00224860381327;0.999997471887;0.00261235817771;0.000462296708199;0.0;0.0;0.0;0.0;0.000462296708199;0.000686202054926;0.0;0.0;0.0;0.0;0.0;0.0;0.0;0.0;0.0;0.0;0.0;0.0;0.0;0.0;0.0;0.0;0.0;0.0;0.0;0.0;0.0;0.0;0.0;0.0;0.0;0.0;0.0;0.000357335399586
247291000000;30;247291000000;map;5.83331344431;-0.0332046119607;0.0;0.0;0.0;0.001168533287;0.999999317265;0.00192557779732;4.33403319675e-05;0.0;0.0;0.0;0.0;4.33403319675e-05;0.00068598348845;0.0;0.0;0.0;0.0;0.0;0.0;0.0;0.0;0.0;0.0;0.0;0.0;0.0;0.0;0.0;0.0;0.0;0.0;0.0;0.0;0.0;0.0;0.0;0.0;0.0;0.0;0.0;0.000408929312788
247692000000;31;247692000000;map;6.02902291381;-0.0354325819896;0.0;0.0;0.0;0.00142247281473;0.999998988285;0.00152629900513;0.000127326009587;0.0;0.0;0.0;0.0;0.000127326009587;0.000831622626613;0.0;0.0;0.0;0.0;0.0;0.0;0.0;0.0;0.0;0.0;0.0;0.0;0.0;0.0;0.0;0.0;0.0;0.0;0.0;0.0;0.0;0.0;0.0;0.0;0.0;0.0;0.0;0.000470025312878
248094000000;32;248094000000;map;6.23097914685;-0.0266421026126;0.0;0.0;0.0;0.00367675097204;0.999993240728;0.00183719632604;5.49349329635e-05;0.0;0.0;0.0;0.0;5.49349329635e-05;0.000901217755616;0.0;0.0;0.0;0.0;0.0;0.0;0.0;0.0;0.0;0.0;0.0;0.0;0.0;0.0;0.0;0.0;0.0;0.0;0.0;0.0;0.0;0.0;0.0;0.0;0.0;0.0;0.0;0.000709596425555
248501000000;33;248501000000;map;6.43648558692;-0.0285693875088;0.0;0.0;0.0;0.000725351054316;0.999999736933;0.00176660790736;0.00012678433869;0.0;0.0;0.0;0.0;0.00012678433869;0.000949230288514;0.0;0.0;0.0;0.0;0.0;0.0;0.0;0.0;0.0;0.0;0.0;0.0;0.0;0.0;0.0;0.0;0.0;0.0;0.0;0.0;0.0;0.0;0.0;0.0;0.0;0.0;0.0;0.000871148318969
248921000000;34;248921000000;map;6.63983061951;-0.0299692181023;0.0;0.0;0.0;-0.0010082856877;0.99999949168;0.00187970967671;6.39816876411e-05;0.0;0.0;0.0;0.0;6.39816876412e-05;0.000743451790922;0.0;0.0;0.0;0.0;0.0;0.0;0.0;0.0;0.0;0.0;0.0;0.0;0.0;0.0;0.0;0.0;0.0;0.0;0.0;0.0;0.0;0.0;0.0;0.0;0.0;0.0;0.0;0.000737420475599
249322000000;35;249322000000;map;6.83734163773;-0.0291538695034;0.0;0.0;0.0;0.00261997958032;0.999996567848;0.00206075701733;0.000325594208351;0.0;0.0;0.0;0.0;0.000325594208351;0.0012551704922;0.0;0.0;0.0;0.0;0.0;0.0;0.0;0.0;0.0;0.0;0.0;0.0;0.0;0.0;0.0;0.0;0.0;0.0;0.0;0.0;0.0;0.0;0.0;0.0;0.0;0.0;0.0;0.000668598476407
249726000000;36;249726000000;map;7.0499255522;-0.0318422240648;0.0;0.0;0.0;0.00295511394192;0.999995633641;0.00266080717957;0.000437739648485;0.0;0.0;0.0;0.0;0.000437739648485;0.00100648332744;0.0;0.0;0.0;0.0;0.0;0.0;0.0;0.0;0.0;0.0;0.0;0.0;0.0;0.0;0.0;0.0;0.0;0.0;0.0;0.0;0.0;0.0;0.0;0.0;0.0;0.0;0.0;0.000730609298265
250127000000;37;250127000000;map;7.25752602796;-0.0272819188615;0.0;0.0;0.0;0.00157252148232;0.999998763587;0.00257760264563;0.000188995917655;0.0;0.0;0.0;0.0;0.000188995917655;0.0010670170908;0.0;0.0;0.0;0.0;0.0;0.0;0.0;0.0;0.0;0.0;0.0;0.0;0.0;0.0;0.0;0.0;0.0;0.0;0.0;0.0;0.0;0.0;0.0;0.0;0.0;0.0;0.0;0.000789873239631
250531000000;38;250531000000;map;7.46356559285;-0.0274019031712;0.0;0.0;0.0;0.000264577119019;0.999999964999;0.00245993337843;0.000203313021848;0.0;0.0;0.0;0.0;0.000203313021848;0.000624737581591;0.0;0.0;0.0;0.0;0.0;0.0;0.0;0.0;0.0;0.0;0.0;0.0;0.0;0.0;0.0;0.0;0.0;0.0;0.0;0.0;0.0;0.0;0.0;0.0;0.0;0.0;0.0;0.000490792686901
250951000000;39;250951000000;map;7.68433949665;-0.0265152309039;0.0;0.0;0.0;-0.000998992842212;0.999999501007;0.00308795953325;0.000436022402614;0.0;0.0;0.0;0.0;0.000436022402614;0.00076779123659;0.0;0.0;0.0;0.0;0.0;0.0;0.0;0.0;0.0;0.0;0.0;0.0;0.0;0.0;0.0;0.0;0.0;0.0;0.0;0.0;0.0;0.0;0.0;0.0;0.0;0.0;0.0;0.000603659584937
251352000000;40;251352000000;map;7.88984244379;-0.0284537786167;0.0;0.0;0.0;-0.00054780345345;0.999999849956;0.00306620784383;0.000528090879228;0.0;0.0;0.0;0.0;0.000528090879228;0.000322922876858;0.0;0.0;0.0;0.0;0.0;0.0;0.0;0.0;0.0;0.0;0.0;0.0;0.0;0.0;0.0;0.0;0.0;0.0;0.0;0.0;0.0;0.0;0.0;0.0;0.0;0.0;0.0;0.000550905670644
251772000000;41;251772000000;map;8.07877746913;-0.0277681569346;0.0;0.0;0.0;0.00114263034542;0.999999347198;0.0037206895822;0.000253797754497;0.0;0.0;0.0;0.0;0.000253797754497;0.000369403457457;0.0;0.0;0.0;0.0;0.0;0.0;0.0;0.0;0.0;0.0;0.0;0.0;0.0;0.0;0.0;0.0;0.0;0.0;0.0;0.0;0.0;0.0;0.0;0.0;0.0;0.0;0.0;0.000616350678887
252173000000;42;252173000000;map;8.28227943503;-0.028610580718;0.0;0.0;0.0;-5.96398442859e-05;0.999999998222;0.00352258250531;0.000145419812817;0.0;0.0;0.0;0.0;0.000145419812817;0.000393634709891;0.0;0.0;0.0;0.0;0.0;0.0;0.0;0.0;0.0;0.0;0.0;0.0;0.0;0.0;0.0;0.0;0.0;0.0;0.0;0.0;0.0;0.0;0.0;0.0;0.0;0.0;0.0;0.000397872379896
252593000000;43;252593000000;map;8.49004235768;-0.0309356012942;0.0;0.0;0.0;0.000627827638943;0.999999802916;0.00420729402121;0.000272226458004;0.0;0.0;0.0;0.0;0.000272226458004;0.000470213455443;0.0;0.0;0.0;0.0;0.0;0.0;0.0;0.0;0.0;0.0;0.0;0.0;0.0;0.0;0.0;0.0;0.0;0.0;0.0;0.0;0.0;0.0;0.0;0.0;0.0;0.0;0.0;0.000536954174087
252997000000;44;252997000000;map;8.70903538967;-0.0352365665133;0.0;0.0;0.0;-0.00100968783723;0.999999490265;0.00512391415641;0.000307505196075;0.0;0.0;0.0;0.0;0.000307505196075;0.000376675460358;0.0;0.0;0.0;0.0;0.0;0.0;0.0;0.0;0.0;0.0;0.0;0.0;0.0;0.0;0.0;0.0;0.0;0.0;0.0;0.0;0.0;0.0;0.0;0.0;0.0;0.0;0.0;0.000185959977151
253398000000;45;253398000000;map;8.91352490236;-0.0325407416054;0.0;0.0;0.0;0.00218776545585;0.999997606838;0.00502637394595;0.00040095109802;0.0;0.0;0.0;0.0;0.00040095109802;0.000394843283242;0.0;0.0;0.0;0.0;0.0;0.0;0.0;0.0;0.0;0.0;0.0;0.0;0.0;0.0;0.0;0.0;0.0;0.0;0.0;0.0;0.0;0.0;0.0;0.0;0.0;0.0;0.0;0.000231158223835
253800000000;46;253800000000;map;9.14351346259;-0.0330543432401;0.0;0.0;0.0;0.00148085487308;0.999998903534;0.00409269363124;0.000506281963606;0.0;0.0;0.0;0.0;0.000506281963606;0.000496078821806;0.0;0.0;0.0;0.0;0.0;0.0;0.0;0.0;0.0;0.0;0.0;0.0;0.0;0.0;0.0;0.0;0.0;0.0;0.0;0.0;0.0;0.0;0.0;0.0;0.0;0.0;0.0;0.000147238935157
254205000000;47;254205000000;map;9.38804137543;-0.026051754579;0.0;0.0;0.0;0.000190722423141;0.999999981812;0.000509767919667;-0.000226703513016;0.0;0.0;0.0;0.0;-0.000226703513016;0.00025542841233;0.0;0.0;0.0;0.0;0.0;0.0;0.0;0.0;0.0;0.0;0.0;0.0;0.0;0.0;0.0;0.0;0.0;0.0;0.0;0.0;0.0;0.0;0.0;0.0;0.0;0.0;0.0;0.000288847214947
254624000000;48;254624000000;map;9.60211786627;-0.0227224916482;0.0;0.0;0.0;0.000824476233455;0.999999660119;0.000644818068182;-0.00023454809354;0.0;0.0;0.0;0.0;-0.00023454809354;0.000157406761017;0.0;0.0;0.0;0.0;0.0;0.0;0.0;0.0;0.0;0.0;0.0;0.0;0.0;0.0;0.0;0.0;0.0;0.0;0.0;0.0;0.0;0.0;0.0;0.0;0.0;0.0;0.0;0.000421845344744
255025000000;49;255025000000;map;9.80139769636;-0.0212275399554;0.0;0.0;0.0;0.000830475895948;0.999999655155;0.000859615303014;-0.000195010313252;0.0;0.0;0.0;0.0;-0.000195010313252;0.000131211674845;0.0;0.0;0.0;0.0;0.0;0.0;0.0;0.0;0.0;0.0;0.0;0.0;0.0;0.0;0.0;0.0;0.0;0.0;0.0;0.0;0.0;0.0;0.0;0.0;0.0;0.0;0.0;0.000509943473098
255429000000;50;255429000000;map;9.99835539273;-0.0207561396485;0.0;0.0;0.0;-0.00245323696103;0.99999699081;0.000868846774679;-0.000170260196225;0.0;0.0;0.0;0.0;-0.000170260196225;0.000166757309136;0.0;0.0;0.0;0.0;0.0;0.0;0.0;0.0;0.0;0.0;0.0;0.0;0.0;0.0;0.0;0.0;0.0;0.0;0.0;0.0;0.0;0.0;0.0;0.0;0.0;0.0;0.0;0.000434791779589
255834000000;51;255834000000;map;10.211518754;-0.0249925106848;0.0;0.0;0.0;0.00110195673704;0.999999392845;0.000823911040698;-0.000175493245978;0.0;0.0;0.0;0.0;-0.000175493245978;0.000248675618712;0.0;0.0;0.0;0.0;0.0;0.0;0.0;0.0;0.0;0.0;0.0;0.0;0.0;0.0;0.0;0.0;0.0;0.0;0.0;0.0;0.0;0.0;0.0;0.0;0.0;0.0;0.0;0.000264928089179
256242000000;52;256242000000;map;10.4181580725;-0.0248085937008;0.0;0.0;0.0;0.00422188670519;0.999991087797;0.000967492898397;-0.000252206117969;0.0;0.0;0.0;0.0;-0.000252206117969;0.000321864844185;0.0;0.0;0.0;0.0;0.0;0.0;0.0;0.0;0.0;0.0;0.0;0.0;0.0;0.0;0.0;0.0;0.0;0.0;0.0;0.0;0.0;0.0;0.0;0.0;0.0;0.0;0.0;0.000181928095902
256643000000;53;256643000000;map;10.6257447504;-0.0267179261637;0.0;0.0;0.0;0.00166742249643;0.99999860985;0.00145035021501;-0.000345644803587;0.0;0.0;0.0;0.0;-0.000345644803587;0.000355467268208;0.0;0.0;0.0;0.0;0.0;0.0;0.0;0.0;0.0;0.0;0.0;0.0;0.0;0.0;0.0;0.0;0.0;0.0;0.0;0.0;0.0;0.0;0.0;0.0;0.0;0.0;0.0;0.000226346508323
257046000000;54;257046000000;map;10.8277014698;-0.0219015639864;0.0;0.0;0.0;0.00302274768928;0.999995431488;0.00144740496833;-0.000438469653014;0.0;0.0;0.0;0.0;-0.000438469653014;0.000446386252183;0.0;0.0;0.0;0.0;0.0;0.0;0.0;0.0;0.0;0.0;0.0;0.0;0.0;0.0;0.0;0.0;0.0;0.0;0.0;0.0;0.0;0.0;0.0;0.0;0.0;0.0;0.0;0.000260332297505
257449000000;55;257449000000;map;11.0249623725;-0.0194791796592;0.0;0.0;0.0;0.00198261208566;0.999998034623;0.00145010566899;-0.000430513112477;0.0;0.0;0.0;0.0;-0.000430513112477;0.000548508191442;0.0;0.0;0.0;0.0;0.0;0.0;0.0;0.0;0.0;0.0;0.0;0.0;0.0;0.0;0.0;0.0;0.0;0.0;0.0;0.0;0.0;0.0;0.0;0.0;0.0;0.0;0.0;0.000359179627905
257856000000;56;257856000000;map;11.2369824849;-0.0167905554379;0.0;0.0;0.0;0.00295517855802;0.99999563345;0.00160738888685;-0.000282322208126;0.0;0.0;0.0;0.0;-0.000282322208126;0.000487237205394;0.0;0.0;0.0;0.0;0.0;0.0;0.0;0.0;0.0;0.0;0.0;0.0;0.0;0.0;0.0;0.0;0.0;0.0;0.0;0.0;0.0;0.0;0.0;0.0;0.0;0.0;0.0;0.000670956464696
258257000000;57;258257000000;map;11.4349188611;-0.0148699812904;0.0;0.0;0.0;0.000939179077965;0.999999558971;0.00133442213408;-0.000278894420808;0.0;0.0;0.0;0.0;-0.000278894420808;0.00054491459789;0.0;0.0;0.0;0.0;0.0;0.0;0.0;0.0;0.0;0.0;0.0;0.0;0.0;0.0;0.0;0.0;0.0;0.0;0.0;0.0;0.0;0.0;0.0;0.0;0.0;0.0;0.0;0.000646537474904
258660000000;58;258660000000;map;11.6334322954;-0.0139626986521;0.0;0.0;0.0;0.000322117497117;0.99999994812;0.000927094432797;-0.00035556131161;0.0;0.0;0.0;0.0;-0.00035556131161;0.000535466070596;0.0;0.0;0.0;0.0;0.0;0.0;0.0;0.0;0.0;0.0;0.0;0.0;0.0;0.0;0.0;0.0;0.0;0.0;0.0;0.0;0.0;0.0;0.0;0.0;0.0;0.0;0.0;0.000294768979874
259065000000;59;259065000000;map;11.836399941;-0.0110619673423;0.0;0.0;0.0;-0.00100319920222;0.999999496796;0.0011002685915;-0.000476922173022;0.0;0.0;0.0;0.0;-0.000476922173022;0.000509149775922;0.0;0.0;0.0;0.0;0.0;0.0;0.0;0.0;0.0;0.0;0.0;0.0;0.0;0.0;0.0;0.0;0.0;0.0;0.0;0.0;0.0;0.0;0.0;0.0;0.0;0.0;0.0;0.000353179826817
259468000000;60;259468000000;map;12.0385811822;-0.0114962563619;0.0;0.0;0.0;-0.00125459708214;0.999999212993;0.00129986504669;-0.000408377017577;0.0;0.0;0.0;0.0;-0.000408377017577;0.000506455843037;0.0;0.0;0.0;0.0;0.0;0.0;0.0;0.0;0.0;0.0;0.0;0.0;0.0;0.0;0.0;0.0;0.0;0.0;0.0;0.0;0.0;0.0;0.0;0.0;0.0;0.0;0.0;0.000374059562203
259870000000;61;259870000000;map;12.2379148867;-0.0119032429839;0.0;0.0;0.0;-0.000716885770481;0.999999743037;0.00135721176122;-0.000338089839124;0.0;0.0;0.0;0.0;-0.000338089839124;0.000657106526285;0.0;0.0;0.0;0.0;0.0;0.0;0.0;0.0;0.0;0.0;0.0;0.0;0.0;0.0;0.0;0.0;0.0;0.0;0.0;0.0;0.0;0.0;0.0;0.0;0.0;0.0;0.0;0.000533739701057
260270000000;62;260270000000;map;12.4402602868;-0.0112008321706;0.0;0.0;0.0;0.00121126826577;0.999999266414;0.00128651765149;-0.000345278886791;0.0;0.0;0.0;0.0;-0.000345278886791;0.000752875514723;0.0;0.0;0.0;0.0;0.0;0.0;0.0;0.0;0.0;0.0;0.0;0.0;0.0;0.0;0.0;0.0;0.0;0.0;0.0;0.0;0.0;0.0;0.0;0.0;0.0;0.0;0.0;0.000646116344646
260677000000;63;260677000000;map;12.6435792402;-0.0161391021411;0.0;0.0;0.0;-0.00207354616969;0.999997850201;0.00144309415128;-0.000427473767956;0.0;0.0;0.0;0.0;-0.000427473767956;0.00105788511989;0.0;0.0;0.0;0.0;0.0;0.0;0.0;0.0;0.0;0.0;0.0;0.0;0.0;0.0;0.0;0.0;0.0;0.0;0.0;0.0;0.0;0.0;0.0;0.0;0.0;0.0;0.0;0.000669043071975
261085000000;64;261085000000;map;12.8430241018;-0.0188311436436;0.0;0.0;0.0;-0.000427113878447;0.999999908787;0.00198730790092;-0.000709456010567;0.0;0.0;0.0;0.0;-0.000709456010567;0.00129481795823;0.0;0.0;0.0;0.0;0.0;0.0;0.0;0.0;0.0;0.0;0.0;0.0;0.0;0.0;0.0;0.0;0.0;0.0;0.0;0.0;0.0;0.0;0.0;0.0;0.0;0.0;0.0;0.00081819476512
261486000000;65;261486000000;map;13.0411174084;-0.0178831492541;0.0;0.0;0.0;-0.000300344968107;0.999999954896;0.00239157946865;-0.000640273340754;0.0;0.0;0.0;0.0;-0.000640273340754;0.00138686280265;0.0;0.0;0.0;0.0;0.0;0.0;0.0;0.0;0.0;0.0;0.0;0.0;0.0;0.0;0.0;0.0;0.0;0.0;0.0;0.0;0.0;0.0;0.0;0.0;0.0;0.0;0.0;0.000663835962428
261904000000;66;261904000000;map;13.2582216272;-0.0148734497596;0.0;0.0;0.0;-0.000458256609721;0.999999895;0.00196231143522;-0.000531464057695;0.0;0.0;0.0;0.0;-0.000531464057695;0.00158044336422;0.0;0.0;0.0;0.0;0.0;0.0;0.0;0.0;0.0;0.0;0.0;0.0;0.0;0.0;0.0;0.0;0.0;0.0;0.0;0.0;0.0;0.0;0.0;0.0;0.0;0.0;0.0;0.000770980657197
262309000000;67;262309000000;map;13.4726104005;-0.0139284247907;0.0;0.0;0.0;-0.00189155424876;0.99999821101;0.00208247608566;-0.000393074426667;0.0;0.0;0.0;0.0;-0.000393074426667;0.00161753506901;0.0;0.0;0.0;0.0;0.0;0.0;0.0;0.0;0.0;0.0;0.0;0.0;0.0;0.0;0.0;0.0;0.0;0.0;0.0;0.0;0.0;0.0;0.0;0.0;0.0;0.0;0.0;0.000507883077459
262712000000;68;262712000000;map;13.675495108;-0.00962620909743;0.0;0.0;0.0;-0.00226821581987;0.999997427595;0.00220652540901;-0.000574399604286;0.0;0.0;0.0;0.0;-0.000574399604286;0.00139794526013;0.0;0.0;0.0;0.0;0.0;0.0;0.0;0.0;0.0;0.0;0.0;0.0;0.0;0.0;0.0;0.0;0.0;0.0;0.0;0.0;0.0;0.0;0.0;0.0;0.0;0.0;0.0;0.000705750203552
263133000000;69;263133000000;map;13.8877693617;-0.0109551618651;0.0;0.0;0.0;0.000903242278172;0.999999592077;0.00228133063663;-0.000781525623332;0.0;0.0;0.0;0.0;-0.000781525623332;0.00165589300169;0.0;0.0;0.0;0.0;0.0;0.0;0.0;0.0;0.0;0.0;0.0;0.0;0.0;0.0;0.0;0.0;0.0;0.0;0.0;0.0;0.0;0.0;0.0;0.0;0.0;0.0;0.0;0.000688388066461
263534000000;70;263534000000;map;14.0896036393;-0.00973261748324;0.0;0.0;0.0;0.000120086972211;0.99999999279;0.0018413576143;-0.000261275022708;0.0;0.0;0.0;0.0;-0.000261275022708;0.00152109863771;0.0;0.0;0.0;0.0;0.0;0.0;0.0;0.0;0.0;0.0;0.0;0.0;0.0;0.0;0.0;0.0;0.0;0.0;0.0;0.0;0.0;0.0;0.0;0.0;0.0;0.0;0.0;0.000624649367136
263937000000;71;263937000000;map;14.2894754659;-0.0173469029285;0.0;0.0;0.0;-0.00175974624042;0.999998451645;0.00156299911305;0.000231224233351;0.0;0.0;0.0;0.0;0.000231224233351;0.00100420646879;0.0;0.0;0.0;0.0;0.0;0.0;0.0;0.0;0.0;0.0;0.0;0.0;0.0;0.0;0.0;0.0;0.0;0.0;0.0;0.0;0.0;0.0;0.0;0.0;0.0;0.0;0.0;0.000446159003737
264341000000;72;264341000000;map;14.4915811508;-0.017174277188;0.0;0.0;0.0;-0.00164141944401;0.99999865287;0.00159895356524;0.000300355489945;0.0;0.0;0.0;0.0;0.000300355489945;0.00100797681048;0.0;0.0;0.0;0.0;0.0;0.0;0.0;0.0;0.0;0.0;0.0;0.0;0.0;0.0;0.0;0.0;0.0;0.0;0.0;0.0;0.0;0.0;0.0;0.0;0.0;0.0;0.0;0.000695199130144
264759000000;73;264759000000;map;14.6970987245;-0.0151030942828;0.0;0.0;0.0;-0.00070134270638;0.999999754059;0.00223305240041;0.000132507521833;0.0;0.0;0.0;0.0;0.000132507521833;0.00109658232743;0.0;0.0;0.0;0.0;0.0;0.0;0.0;0.0;0.0;0.0;0.0;0.0;0.0;0.0;0.0;0.0;0.0;0.0;0.0;0.0;0.0;0.0;0.0;0.0;0.0;0.0;0.0;0.000676547988634
265161000000;74;265161000000;map;14.892497796;-0.0153244759759;0.0;0.0;0.0;-0.000304559974396;0.999999953622;0.00181355543813;-0.000109005176725;0.0;0.0;0.0;0.0;-0.000109005176725;0.000993908296013;0.0;0.0;0.0;0.0;0.0;0.0;0.0;0.0;0.0;0.0;0.0;0.0;0.0;0.0;0.0;0.0;0.0;0.0;0.0;0.0;0.0;0.0;0.0;0.0;0.0;0.0;0.0;0.000911053115584
265564000000;75;265564000000;map;15.1050701937;-0.0154925712671;0.0;0.0;0.0;-0.00137593286305;0.999999053404;0.00181604180051;0.000297227749132;0.0;0.0;0.0;0.0;0.000297227749132;0.000837610446748;0.0;0.0;0.0;0.0;0.0;0.0;0.0;0.0;0.0;0.0;0.0;0.0;0.0;0.0;0.0;0.0;0.0;0.0;0.0;0.0;0.0;0.0;0.0;0.0;0.0;0.0;0.0;0.00060556297771
265976000000;76;265976000000;map;15.3086943028;-0.0204850825731;0.0;0.0;0.0;-0.000638283700756;0.999999796297;0.00205622331345;0.000752219054372;0.0;0.0;0.0;0.0;0.000752219054372;0.00133955955591;0.0;0.0;0.0;0.0;0.0;0.0;0.0;0.0;0.0;0.0;0.0;0.0;0.0;0.0;0.0;0.0;0.0;0.0;0.0;0.0;0.0;0.0;0.0;0.0;0.0;0.0;0.0;0.000670487854696
266385000000;77;266385000000;map;15.5223699116;-0.0195893339901;0.0;0.0;0.0;-0.000589199819463;0.999999826422;0.00189448443626;0.000817812167002;0.0;0.0;0.0;0.0;0.000817812167002;0.0010488156146;0.0;0.0;0.0;0.0;0.0;0.0;0.0;0.0;0.0;0.0;0.0;0.0;0.0;0.0;0.0;0.0;0.0;0.0;0.0;0.0;0.0;0.0;0.0;0.0;0.0;0.0;0.0;0.000744301659865
266786000000;78;266786000000;map;15.7261658281;-0.0153875884654;0.0;0.0;0.0;-0.000954362736449;0.999999544596;0.00205203606839;0.000530939692466;0.0;0.0;0.0;0.0;0.000530939692466;0.00117722787833;0.0;0.0;0.0;0.0;0.0;0.0;0.0;0.0;0.0;0.0;0.0;0.0;0.0;0.0;0.0;0.0;0.0;0.0;0.0;0.0;0.0;0.0;0.0;0.0;0.0;0.0;0.0;0.000816630316033
267206000000;79;267206000000;map;15.9454762866;-0.0231094533877;0.0;0.0;0.0;-0.0010091884267;0.999999490769;0.00144288826121;0.00099594012743;0.0;0.0;0.0;0.0;0.00099594012743;0.00117291302663;0.0;0.0;0.0;0.0;0.0;0.0;0.0;0.0;0.0;0.0;0.0;0.0;0.0;0.0;0.0;0.0;0.0;0.0;0.0;0.0;0.0;0.0;0.0;0.0;0.0;0.0;0.0;0.000577157274631
267612000000;80;267612000000;map;16.1551342919;-0.0259854070862;0.0;0.0;0.0;-0.00475138165772;0.999988712122;0.00111481489859;0.00064996775656;0.0;0.0;0.0;0.0;0.00064996775656;0.000956622001666;0.0;0.0;0.0;0.0;0.0;0.0;0.0;0.0;0.0;0.0;0.0;0.0;0.0;0.0;0.0;0.0;0.0;0.0;0.0;0.0;0.0;0.0;0.0;0.0;0.0;0.0;0.0;0.00071813850642
268013000000;81;268013000000;map;16.3556644569;-0.0282746378658;0.0;0.0;0.0;-0.00340485000022;0.999994203481;0.00108946179489;0.000682768867712;0.0;0.0;0.0;0.0;0.000682768867712;0.00118507922454;0.0;0.0;0.0;0.0;0.0;0.0;0.0;0.0;0.0;0.0;0.0;0.0;0.0;0.0;0.0;0.0;0.0;0.0;0.0;0.0;0.0;0.0;0.0;0.0;0.0;0.0;0.0;0.000751884050053
268413000000;82;268413000000;map;16.5572643152;-0.0302951764274;0.0;0.0;0.0;-0.00110779565575;0.999999386394;0.000949496966427;0.000567481049002;0.0;0.0;0.0;0.0;0.000567481049002;0.00132395387343;0.0;0.0;0.0;0.0;0.0;0.0;0.0;0.0;0.0;0.0;0.0;0.0;0.0;0.0;0.0;0.0;0.0;0.0;0.0;0.0;0.0;0.0;0.0;0.0;0.0;0.0;0.0;0.000695171326507
268820000000;83;268820000000;map;16.7601406658;-0.0330302071996;0.0;0.0;0.0;-0.0029113796213;0.999995761925;0.000700402812129;0.000367784195529;0.0;0.0;0.0;0.0;0.000367784195529;0.00153735150989;0.0;0.0;0.0;0.0;0.0;0.0;0.0;0.0;0.0;0.0;0.0;0.0;0.0;0.0;0.0;0.0;0.0;0.0;0.0;0.0;0.0;0.0;0.0;0.0;0.0;0.0;0.0;0.000963862750843
269224000000;84;269224000000;map;16.9626171157;-0.0405328232262;0.0;0.0;0.0;-0.00355352125687;0.999993686223;0.000811456701399;0.00024797233895;0.0;0.0;0.0;0.0;0.00024797233895;0.00153858867572;0.0;0.0;0.0;0.0;0.0;0.0;0.0;0.0;0.0;0.0;0.0;0.0;0.0;0.0;0.0;0.0;0.0;0.0;0.0;0.0;0.0;0.0;0.0;0.0;0.0;0.0;0.0;0.00079359908867
269634000000;85;269634000000;map;17.1690797371;-0.0329923367081;0.0;0.0;0.0;0.000686758879362;0.999999764181;0.00104657936271;0.000282624506693;0.0;0.0;0.0;0.0;0.000282624506693;0.00218597783457;0.0;0.0;0.0;0.0;0.0;0.0;0.0;0.0;0.0;0.0;0.0;0.0;0.0;0.0;0.0;0.0;0.0;0.0;0.0;0.0;0.0;0.0;0.0;0.0;0.0;0.0;0.0;0.000986188258345
270054000000;86;270054000000;map;17.3767809168;-0.0280227285383;0.0;0.0;0.0;0.00455402601355;0.99998963037;0.000704546258248;-0.000425082735881;0.0;0.0;0.0;0.0;-0.000425082735881;0.00174484925268;0.0;0.0;0.0;0.0;0.0;0.0;0.0;0.0;0.0;0.0;0.0;0.0;0.0;0.0;0.0;0.0;0.0;0.0;0.0;0.0;0.0;0.0;0.0;0.0;0.0;0.0;0.0;0.000855005016034
270455000000;87;270455000000;map;17.5744442515;-0.0271388508164;0.0;0.0;0.0;0.00287448924124;0.999995868647;0.000781627276979;-0.00044580471204;0.0;0.0;0.0;0.0;-0.00044580471204;0.00201253497802;0.0;0.0;0.0;0.0;0.0;0.0;0.0;0.0;0.0;0.0;0.0;0.0;0.0;0.0;0.0;0.0;0.0;0.0;0.0;0.0;0.0;0.0;0.0;0.0;0.0;0.0;0.0;0.000751896428126
270870000000;88;270870000000;map;17.7788826888;-0.0315446458181;0.0;0.0;0.0;0.00129342920858;0.99999916352;0.000704406238071;-0.000358055673532;0.0;0.0;0.0;0.0;-0.000358055673532;0.00180356197121;0.0;0.0;0.0;0.0;0.0;0.0;0.0;0.0;0.0;0.0;0.0;0.0;0.0;0.0;0.0;0.0;0.0;0.0;0.0;0.0;0.0;0.0;0.0;0.0;0.0;0.0;0.0;0.000609909086418
271271000000;89;271271000000;map;17.9788739133;-0.0454348969945;0.0;0.0;0.0;-0.0012452295355;0.999999224701;0.00045947804756;-0.000462606049716;0.0;0.0;0.0;0.0;-0.000462606049716;0.00153731094554;0.0;0.0;0.0;0.0;0.0;0.0;0.0;0.0;0.0;0.0;0.0;0.0;0.0;0.0;0.0;0.0;0.0;0.0;0.0;0.0;0.0;0.0;0.0;0.0;0.0;0.0;0.0;0.000479615290281
271685000000;90;271685000000;map;18.1884013346;-0.0467366229893;0.0;0.0;0.0;-0.000391356096659;0.99999992342;0.000563357491615;-0.000241028411383;0.0;0.0;0.0;0.0;-0.000241028411383;0.000891904084864;0.0;0.0;0.0;0.0;0.0;0.0;0.0;0.0;0.0;0.0;0.0;0.0;0.0;0.0;0.0;0.0;0.0;0.0;0.0;0.0;0.0;0.0;0.0;0.0;0.0;0.0;0.0;0.00045967464543
272116000000;91;272116000000;map;18.4026275395;-0.0445539752268;0.0;0.0;0.0;-0.000376502730911;0.999999929123;0.000496715026941;-0.000219372874984;0.0;0.0;0.0;0.0;-0.000219372874984;0.0010094041872;0.0;0.0;0.0;0.0;0.0;0.0;0.0;0.0;0.0;0.0;0.0;0.0;0.0;0.0;0.0;0.0;0.0;0.0;0.0;0.0;0.0;0.0;0.0;0.0;0.0;0.0;0.0;0.000338191045465
272524000000;92;272524000000;map;18.6137255505;-0.0378389625838;0.0;0.0;0.0;-0.00206533922672;0.999997867185;0.000923192797472;-0.000580059858663;0.0;0.0;0.0;0.0;-0.000580059858663;0.00140236168983;0.0;0.0;0.0;0.0;0.0;0.0;0.0;0.0;0.0;0.0;0.0;0.0;0.0;0.0;0.0;0.0;0.0;0.0;0.0;0.0;0.0;0.0;0.0;0.0;0.0;0.0;0.0;0.000377715197467
272926000000;93;272926000000;map;18.8161396287;-0.0435928564511;0.0;0.0;0.0;-0.000502713746044;0.999999873639;0.00115263824642;-0.000638477918626;0.0;0.0;0.0;0.0;-0.000638477918626;0.00137505279313;0.0;0.0;0.0;0.0;0.0;0.0;0.0;0.0;0.0;0.0;0.0;0.0;0.0;0.0;0.0;0.0;0.0;0.0;0.0;0.0;0.0;0.0;0.0;0.0;0.0;0.0;0.0;0.000570297244674
273331000000;94;273331000000;map;19.0202897425;-0.0414511771707;0.0;0.0;0.0;0.000676722636136;0.999999771023;0.00123382949778;-0.00062800667958;0.0;0.0;0.0;0.0;-0.00062800667958;0.00150511271741;0.0;0.0;0.0;0.0;0.0;0.0;0.0;0.0;0.0;0.0;0.0;0.0;0.0;0.0;0.0;0.0;0.0;0.0;0.0;0.0;0.0;0.0;0.0;0.0;0.0;0.0;0.0;0.000640483287768
273750000000;95;273750000000;map;19.2415681336;-0.0472295672371;0.0;0.0;0.0;0.000283750950072;0.999999959743;0.00153734878336;-0.00078216766623;0.0;0.0;0.0;0.0;-0.00078216766623;0.00134446568326;0.0;0.0;0.0;0.0;0.0;0.0;0.0;0.0;0.0;0.0;0.0;0.0;0.0;0.0;0.0;0.0;0.0;0.0;0.0;0.0;0.0;0.0;0.0;0.0;0.0;0.0;0.0;0.000677152525334
274170000000;96;274170000000;map;19.4498691971;-0.05188536012;0.0;0.0;0.0;-0.000114458165146;0.99999999345;0.00146946039899;-0.000497838276864;0.0;0.0;0.0;0.0;-0.000497838276864;0.0010539910792;0.0;0.0;0.0;0.0;0.0;0.0;0.0;0.0;0.0;0.0;0.0;0.0;0.0;0.0;0.0;0.0;0.0;0.0;0.0;0.0;0.0;0.0;0.0;0.0;0.0;0.0;0.0;0.000659832433927
274579000000;97;274579000000;map;19.6599725945;-0.0668723904673;0.0;0.0;0.0;-0.003737097992;0.999993017025;0.00188370473262;-0.000445027820503;0.0;0.0;0.0;0.0;-0.000445027820503;0.000783799699761;0.0;0.0;0.0;0.0;0.0;0.0;0.0;0.0;0.0;0.0;0.0;0.0;0.0;0.0;0.0;0.0;0.0;0.0;0.0;0.0;0.0;0.0;0.0;0.0;0.0;0.0;0.0;0.000192434340457
274980000000;98;274980000000;map;19.8539985042;-0.0685841462349;0.0;0.0;0.0;-0.00159542087463;0.999998727315;0.00152012065286;-0.000341049469493;0.0;0.0;0.0;0.0;-0.000341049469493;0.000554577381527;0.0;0.0;0.0;0.0;0.0;0.0;0.0;0.0;0.0;0.0;0.0;0.0;0.0;0.0;0.0;0.0;0.0;0.0;0.0;0.0;0.0;0.0;0.0;0.0;0.0;0.0;0.0;0.000279570437108
275383000000;99;275383000000;map;20.0592859379;-0.0735691765926;0.0;0.0;0.0;-0.00233274078378;0.999997279157;0.00167330394299;-0.000142717088645;0.0;0.0;0.0;0.0;-0.000142717088645;0.000415891249371;0.0;0.0;0.0;0.0;0.0;0.0;0.0;0.0;0.0;0.0;0.0;0.0;0.0;0.0;0.0;0.0;0.0;0.0;0.0;0.0;0.0;0.0;0.0;0.0;0.0;0.0;0.0;0.000394957379576
275784000000;100;275784000000;map;20.2565180569;-0.076190510134;0.0;0.0;0.0;-0.00261551378459;0.999996579538;0.00162761148607;-0.000256184908243;0.0;0.0;0.0;0.0;-0.000256184908243;0.000462724898865;0.0;0.0;0.0;0.0;0.0;0.0;0.0;0.0;0.0;0.0;0.0;0.0;0.0;0.0;0.0;0.0;0.0;0.0;0.0;0.0;0.0;0.0;0.0;0.0;0.0;0.0;0.0;0.000264041278349
276189000000;101;276189000000;map;20.4631089919;-0.0787621542274;0.0;0.0;0.0;-0.00535122765945;0.999985682079;0.00114039139675;-0.000293557636261;0.0;0.0;0.0;0.0;-0.000293557636261;0.000526371973042;0.0;0.0;0.0;0.0;0.0;0.0;0.0;0.0;0.0;0.0;0.0;0.0;0.0;0.0;0.0;0.0;0.0;0.0;0.0;0.0;0.0;0.0;0.0;0.0;0.0;0.0;0.0;0.000287169897461
276594000000;102;276594000000;map;20.6615986862;-0.0888884602039;0.0;0.0;0.0;-0.00822986907661;0.999966134054;0.00115659164595;-0.000369083684828;0.0;0.0;0.0;0.0;-0.000369083684828;0.000566203858235;0.0;0.0;0.0;0.0;0.0;0.0;0.0;0.0;0.0;0.0;0.0;0.0;0.0;0.0;0.0;0.0;0.0;0.0;0.0;0.0;0.0;0.0;0.0;0.0;0.0;0.0;0.0;0.000195143867127
277002000000;103;277002000000;map;20.8745295201;-0.0977670419321;0.0;0.0;0.0;-0.0100518797408;0.999949478581;0.00105768251132;-0.000355844339988;0.0;0.0;0.0;0.0;-0.000355844339988;0.000544193131549;0.0;0.0;0.0;0.0;0.0;0.0;0.0;0.0;0.0;0.0;0.0;0.0;0.0;0.0;0.0;0.0;0.0;0.0;0.0;0.0;0.0;0.0;0.0;0.0;0.0;0.0;0.0;0.000402792229911
277421000000;104;277421000000;map;21.0763140344;-0.104943472928;0.0;0.0;0.0;-0.0153226250022;0.99988260169;0.00122440531919;-0.00059381301079;0.0;0.0;0.0;0.0;-0.00059381301079;0.000555570851451;0.0;0.0;0.0;0.0;0.0;0.0;0.0;0.0;0.0;0.0;0.0;0.0;0.0;0.0;0.0;0.0;0.0;0.0;0.0;0.0;0.0;0.0;0.0;0.0;0.0;0.0;0.0;0.000472486942842
277839000000;105;277839000000;map;21.2939283575;-0.115148192986;0.0;0.0;0.0;-0.0137971084244;0.99990481537;0.00112024086917;-0.00043688310343;0.0;0.0;0.0;0.0;-0.00043688310343;0.000460098667334;0.0;0.0;0.0;0.0;0.0;0.0;0.0;0.0;0.0;0.0;0.0;0.0;0.0;0.0;0.0;0.0;0.0;0.0;0.0;0.0;0.0;0.0;0.0;0.0;0.0;0.0;0.0;0.000392191358163
278247000000;106;278247000000;map;21.5004354048;-0.116356260557;0.0;0.0;0.0;-0.0107756644128;0.999941940843;0.00112586287742;-0.000424117529716;0.0;0.0;0.0;0.0;-0.000424117529716;0.000398312159304;0.0;0.0;0.0;0.0;0.0;0.0;0.0;0.0;0.0;0.0;0.0;0.0;0.0;0.0;0.0;0.0;0.0;0.0;0.0;0.0;0.0;0.0;0.0;0.0;0.0;0.0;0.0;0.000338469550533
278647000000;107;278647000000;map;21.6933833388;-0.11939928809;0.0;0.0;0.0;-0.0137076030604;0.999906046396;0.00185905037648;-0.000846734163739;0.0;0.0;0.0;0.0;-0.000846734163739;0.000589838339619;0.0;0.0;0.0;0.0;0.0;0.0;0.0;0.0;0.0;0.0;0.0;0.0;0.0;0.0;0.0;0.0;0.0;0.0;0.0;0.0;0.0;0.0;0.0;0.0;0.0;0.0;0.0;0.000323333140215
279055000000;108;279055000000;map;21.892083397;-0.119643272348;0.0;0.0;0.0;-0.0108909024705;0.999940692363;0.00155034207705;-0.000654100395391;0.0;0.0;0.0;0.0;-0.00065410039539;0.000407799821085;0.0;0.0;0.0;0.0;0.0;0.0;0.0;0.0;0.0;0.0;0.0;0.0;0.0;0.0;0.0;0.0;0.0;0.0;0.0;0.0;0.0;0.0;0.0;0.0;0.0;0.0;0.0;0.000246159855767
279457000000;109;279457000000;map;22.0992558673;-0.127215463424;0.0;0.0;0.0;-0.00691031651794;0.999976123478;0.00150447282925;-0.000600494922902;0.0;0.0;0.0;0.0;-0.000600494922903;0.000471454295107;0.0;0.0;0.0;0.0;0.0;0.0;0.0;0.0;0.0;0.0;0.0;0.0;0.0;0.0;0.0;0.0;0.0;0.0;0.0;0.0;0.0;0.0;0.0;0.0;0.0;0.0;0.0;0.000346974081091
279862000000;110;279862000000;map;22.291536997;-0.122022946431;0.0;0.0;0.0;-0.00478084227746;0.999988571708;0.00135638649959;-0.000380654755195;0.0;0.0;0.0;0.0;-0.000380654755195;0.000466721498478;0.0;0.0;0.0;0.0;0.0;0.0;0.0;0.0;0.0;0.0;0.0;0.0;0.0;0.0;0.0;0.0;0.0;0.0;0.0;0.0;0.0;0.0;0.0;0.0;0.0;0.0;0.0;0.000493033020038
280264000000;111;280264000000;map;22.4900079122;-0.122790006529;0.0;0.0;0.0;-0.00458612728043;0.999989483663;0.00143676530536;-0.000378354373594;0.0;0.0;0.0;0.0;-0.000378354373594;0.000570292827394;0.0;0.0;0.0;0.0;0.0;0.0;0.0;0.0;0.0;0.0;0.0;0.0;0.0;0.0;0.0;0.0;0.0;0.0;0.0;0.0;0.0;0.0;0.0;0.0;0.0;0.0;0.0;0.00039119779697
280671000000;112;280671000000;map;22.7059430794;-0.129793842413;0.0;0.0;0.0;-0.00745706641705;0.999972195694;0.00160375958967;-0.000177096240582;0.0;0.0;0.0;0.0;-0.000177096240582;0.000976310089405;0.0;0.0;0.0;0.0;0.0;0.0;0.0;0.0;0.0;0.0;0.0;0.0;0.0;0.0;0.0;0.0;0.0;0.0;0.0;0.0;0.0;0.0;0.0;0.0;0.0;0.0;0.0;0.00100012735716
281074000000;113;281074000000;map;22.9167589088;-0.128230188208;0.0;0.0;0.0;-0.00241070012778;0.999997094258;0.00123374131113;0.000205292009035;0.0;0.0;0.0;0.0;0.000205292009035;0.00118051090847;0.0;0.0;0.0;0.0;0.0;0.0;0.0;0.0;0.0;0.0;0.0;0.0;0.0;0.0;0.0;0.0;0.0;0.0;0.0;0.0;0.0;0.0;0.0;0.0;0.0;0.0;0.0;0.00107588675987
281481000000;114;281481000000;map;23.1201400055;-0.125537159575;0.0;0.0;0.0;-0.00090561320407;0.999999589932;0.00111159877997;0.000340565993187;0.0;0.0;0.0;0.0;0.000340565993187;0.000879033730404;0.0;0.0;0.0;0.0;0.0;0.0;0.0;0.0;0.0;0.0;0.0;0.0;0.0;0.0;0.0;0.0;0.0;0.0;0.0;0.0;0.0;0.0;0.0;0.0;0.0;0.0;0.0;0.000888307657143
281884000000;115;281884000000;map;23.3232661575;-0.123440190572;0.0;0.0;0.0;-0.000245072173333;0.99999996997;0.0012707355047;0.000391816745565;0.0;0.0;0.0;0.0;0.000391816745565;0.00113527076602;0.0;0.0;0.0;0.0;0.0;0.0;0.0;0.0;0.0;0.0;0.0;0.0;0.0;0.0;0.0;0.0;0.0;0.0;0.0;0.0;0.0;0.0;0.0;0.0;0.0;0.0;0.0;0.000699635668757
282286000000;116;282286000000;map;23.5216161889;-0.114370415713;0.0;0.0;0.0;0.00010469112248;0.99999999452;0.00149275615013;0.000280437493571;0.0;0.0;0.0;0.0;0.000280437493571;0.000827736502409;0.0;0.0;0.0;0.0;0.0;0.0;0.0;0.0;0.0;0.0;0.0;0.0;0.0;0.0;0.0;0.0;0.0;0.0;0.0;0.0;0.0;0.0;0.0;0.0;0.0;0.0;0.0;0.000757882423489
282688000000;117;282688000000;map;23.737301749;-0.114527760305;0.0;0.0;0.0;0.00255515091157;0.999996735597;0.00101961571409;0.000508156551749;0.0;0.0;0.0;0.0;0.000508156551748;0.00108241137084;0.0;0.0;0.0;0.0;0.0;0.0;0.0;0.0;0.0;0.0;0.0;0.0;0.0;0.0;0.0;0.0;0.0;0.0;0.0;0.0;0.0;0.0;0.0;0.0;0.0;0.0;0.0;0.00077746646297
283097000000;118;283097000000;map;23.9401067053;-0.106617955341;0.0;0.0;0.0;0.00587818305725;0.999982723333;0.00100714273776;0.000325302844347;0.0;0.0;0.0;0.0;0.000325302844347;0.00063877144465;0.0;0.0;0.0;0.0;0.0;0.0;0.0;0.0;0.0;0.0;0.0;0.0;0.0;0.0;0.0;0.0;0.0;0.0;0.0;0.0;0.0;0.0;0.0;0.0;0.0;0.0;0.0;0.000449024152365
283517000000;119;283517000000;map;24.1485586598;-0.109495405323;0.0;0.0;0.0;0.00401639793515;0.999991934241;0.00103567392568;0.000403910251095;0.0;0.0;0.0;0.0;0.000403910251094;0.000898028559724;0.0;0.0;0.0;0.0;0.0;0.0;0.0;0.0;0.0;0.0;0.0;0.0;0.0;0.0;0.0;0.0;0.0;0.0;0.0;0.0;0.0;0.0;0.0;0.0;0.0;0.0;0.0;0.000772671924451
283938000000;120;283938000000;map;24.3574485407;-0.116133118156;0.0;0.0;0.0;3.6020794034e-05;0.999999999351;0.000634676043433;0.000314113426399;0.0;0.0;0.0;0.0;0.000314113426399;0.000769754751413;0.0;0.0;0.0;0.0;0.0;0.0;0.0;0.0;0.0;0.0;0.0;0.0;0.0;0.0;0.0;0.0;0.0;0.0;0.0;0.0;0.0;0.0;0.0;0.0;0.0;0.0;0.0;0.000746817383418
284339000000;121;284339000000;map;24.5614277905;-0.116819554513;0.0;0.0;0.0;0.00110110613745;0.999999393782;0.000234452251561;0.000269974799251;0.0;0.0;0.0;0.0;0.000269974799252;0.000972500601741;0.0;0.0;0.0;0.0;0.0;0.0;0.0;0.0;0.0;0.0;0.0;0.0;0.0;0.0;0.0;0.0;0.0;0.0;0.0;0.0;0.0;0.0;0.0;0.0;0.0;0.0;0.0;0.000801024954915
284742000000;122;284742000000;map;24.7634615491;-0.116001924527;0.0;0.0;0.0;0.00180378302933;0.999998373182;0.000214527503999;0.000174162060974;0.0;0.0;0.0;0.0;0.000174162060974;0.00103866110829;0.0;0.0;0.0;0.0;0.0;0.0;0.0;0.0;0.0;0.0;0.0;0.0;0.0;0.0;0.0;0.0;0.0;0.0;0.0;0.0;0.0;0.0;0.0;0.0;0.0;0.0;0.0;0.000834595484023
285161000000;123;285161000000;map;24.9707024545;-0.116529536012;0.0;0.0;0.0;-0.000699686448491;0.999999755219;0.00028057361078;0.000174536905996;0.0;0.0;0.0;0.0;0.000174536905996;0.000971185065339;0.0;0.0;0.0;0.0;0.0;0.0;0.0;0.0;0.0;0.0;0.0;0.0;0.0;0.0;0.0;0.0;0.0;0.0;0.0;0.0;0.0;0.0;0.0;0.0;0.0;0.0;0.0;0.000482369131592
285564000000;124;285564000000;map;25.1722974649;-0.121586382427;0.0;0.0;0.0;-0.00499992724836;0.999987500286;0.000439513073729;0.000344438201801;0.0;0.0;0.0;0.0;0.000344438201801;0.000880082616666;0.0;0.0;0.0;0.0;0.0;0.0;0.0;0.0;0.0;0.0;0.0;0.0;0.0;0.0;0.0;0.0;0.0;0.0;0.0;0.0;0.0;0.0;0.0;0.0;0.0;0.0;0.0;0.000215081692611
285974000000;125;285974000000;map;25.3626316897;-0.12855908327;0.0;0.0;0.0;-0.00148735152957;0.999998893892;0.000449525020827;6.63194648816e-05;0.0;0.0;0.0;0.0;6.63194648816e-05;0.000402736513807;0.0;0.0;0.0;0.0;0.0;0.0;0.0;0.0;0.0;0.0;0.0;0.0;0.0;0.0;0.0;0.0;0.0;0.0;0.0;0.0;0.0;0.0;0.0;0.0;0.0;0.0;0.0;0.000391305008925
286379000000;126;286379000000;map;25.5626410991;-0.130298923756;0.0;0.0;0.0;0.000779298871487;0.999999696347;0.000485892145548;0.000134985854563;0.0;0.0;0.0;0.0;0.000134985854563;0.000506501936601;0.0;0.0;0.0;0.0;0.0;0.0;0.0;0.0;0.0;0.0;0.0;0.0;0.0;0.0;0.0;0.0;0.0;0.0;0.0;0.0;0.0;0.0;0.0;0.0;0.0;0.0;0.0;0.000553338190113
286800000000;127;286800000000;map;25.7798570055;-0.12836089373;0.0;0.0;0.0;0.000922131453955;0.999999574837;0.000827283941021;0.000229067889246;0.0;0.0;0.0;0.0;0.000229067889247;0.000623379624976;0.0;0.0;0.0;0.0;0.0;0.0;0.0;0.0;0.0;0.0;0.0;0.0;0.0;0.0;0.0;0.0;0.0;0.0;0.0;0.0;0.0;0.0;0.0;0.0;0.0;0.0;0.0;0.000635921188624
287204000000;128;287204000000;map;25.9821037863;-0.125827070328;0.0;0.0;0.0;-0.00198065041431;0.99999803851;0.00108070272847;0.000252157246402;0.0;0.0;0.0;0.0;0.000252157246402;0.000823020736655;0.0;0.0;0.0;0.0;0.0;0.0;0.0;0.0;0.0;0.0;0.0;0.0;0.0;0.0;0.0;0.0;0.0;0.0;0.0;0.0;0.0;0.0;0.0;0.0;0.0;0.0;0.0;0.000703571710522
287605000000;129;287605000000;map;26.1806591637;-0.132773457075;0.0;0.0;0.0;-0.00389762188676;0.999992404243;0.00103157974604;-2.09412493635e-05;0.0;0.0;0.0;0.0;-2.09412493635e-05;0.000608657004244;0.0;0.0;0.0;0.0;0.0;0.0;0.0;0.0;0.0;0.0;0.0;0.0;0.0;0.0;0.0;0.0;0.0;0.0;0.0;0.0;0.0;0.0;0.0;0.0;0.0;0.0;0.0;0.000479652431674
288024000000;130;288024000000;map;26.3909576014;-0.13342179485;0.0;0.0;0.0;-0.00174748524425;0.999998473146;0.00105899510572;-7.5159434147e-05;0.0;0.0;0.0;0.0;-7.5159434147e-05;0.000764780622091;0.0;0.0;0.0;0.0;0.0;0.0;0.0;0.0;0.0;0.0;0.0;0.0;0.0;0.0;0.0;0.0;0.0;0.0;0.0;0.0;0.0;0.0;0.0;0.0;0.0;0.0;0.0;0.00102671094812
288427000000;131;288427000000;map;26.5887134067;-0.130222751575;0.0;0.0;0.0;-0.0033820388757;0.99999428089;0.00166631709146;0.000139517157599;0.0;0.0;0.0;0.0;0.000139517157599;0.000704557953008;0.0;0.0;0.0;0.0;0.0;0.0;0.0;0.0;0.0;0.0;0.0;0.0;0.0;0.0;0.0;0.0;0.0;0.0;0.0;0.0;0.0;0.0;0.0;0.0;0.0;0.0;0.0;0.00104688576956
288848000000;132;288848000000;map;26.8010900149;-0.127223753471;0.0;0.0;0.0;0.000844430421341;0.999999643469;0.0015944468887;-0.000107498226795;0.0;0.0;0.0;0.0;-0.000107498226795;0.000803313218021;0.0;0.0;0.0;0.0;0.0;0.0;0.0;0.0;0.0;0.0;0.0;0.0;0.0;0.0;0.0;0.0;0.0;0.0;0.0;0.0;0.0;0.0;0.0;0.0;0.0;0.0;0.0;0.00107144280944
289267000000;133;289267000000;map;27.0152551723;-0.129902616814;0.0;0.0;0.0;0.00239880501459;0.999997122863;0.00153692961987;-0.000295217305327;0.0;0.0;0.0;0.0;-0.000295217305327;0.00149916644382;0.0;0.0;0.0;0.0;0.0;0.0;0.0;0.0;0.0;0.0;0.0;0.0;0.0;0.0;0.0;0.0;0.0;0.0;0.0;0.0;0.0;0.0;0.0;0.0;0.0;0.0;0.0;0.00119134400833
289673000000;134;289673000000;map;27.2139278027;-0.132370904665;0.0;0.0;0.0;-0.00332002811452;0.999994488691;0.00107293952362;-4.09486950126e-05;0.0;0.0;0.0;0.0;-4.09486950126e-05;0.00174380015768;0.0;0.0;0.0;0.0;0.0;0.0;0.0;0.0;0.0;0.0;0.0;0.0;0.0;0.0;0.0;0.0;0.0;0.0;0.0;0.0;0.0;0.0;0.0;0.0;0.0;0.0;0.0;0.000929586393367
290093000000;135;290093000000;map;27.4203257297;-0.129483236314;0.0;0.0;0.0;-0.00345459086629;0.999994032883;0.00126248637048;-0.000184922305266;0.0;0.0;0.0;0.0;-0.000184922305266;0.00186741436121;0.0;0.0;0.0;0.0;0.0;0.0;0.0;0.0;0.0;0.0;0.0;0.0;0.0;0.0;0.0;0.0;0.0;0.0;0.0;0.0;0.0;0.0;0.0;0.0;0.0;0.0;0.0;0.000879578107382
290495000000;136;290495000000;map;27.6189489492;-0.131654867897;0.0;0.0;0.0;-0.00231883522238;0.999997311498;0.00186706127488;-5.19036377109e-05;0.0;0.0;0.0;0.0;-5.19036377113e-05;0.00142346212232;0.0;0.0;0.0;0.0;0.0;0.0;0.0;0.0;0.0;0.0;0.0;0.0;0.0;0.0;0.0;0.0;0.0;0.0;0.0;0.0;0.0;0.0;0.0;0.0;0.0;0.0;0.0;0.000589489278337
290915000000;137;290915000000;map;27.8502157504;-0.117380612558;0.0;0.0;0.0;-0.000750189547791;0.999999718608;0.001972081242;-0.000360779215181;0.0;0.0;0.0;0.0;-0.000360779215181;0.000462149042082;0.0;0.0;0.0;0.0;0.0;0.0;0.0;0.0;0.0;0.0;0.0;0.0;0.0;0.0;0.0;0.0;0.0;0.0;0.0;0.0;0.0;0.0;0.0;0.0;0.0;0.0;0.0;0.000455621486814
291330000000;138;291330000000;map;28.057568851;-0.117519859618;0.0;0.0;0.0;-0.00017492252134;0.999999984701;0.00217326632253;-0.000271204305074;0.0;0.0;0.0;0.0;-0.000271204305074;0.000539852175641;0.0;0.0;0.0;0.0;0.0;0.0;0.0;0.0;0.0;0.0;0.0;0.0;0.0;0.0;0.0;0.0;0.0;0.0;0.0;0.0;0.0;0.0;0.0;0.0;0.0;0.0;0.0;0.000446854478586
291731000000;139;291731000000;map;28.2392888252;-0.116240598145;0.0;0.0;0.0;-0.0028919816433;0.999995818212;0.00237210007037;-0.000440130956794;0.0;0.0;0.0;0.0;-0.000440130956794;0.000394095973112;0.0;0.0;0.0;0.0;0.0;0.0;0.0;0.0;0.0;0.0;0.0;0.0;0.0;0.0;0.0;0.0;0.0;0.0;0.0;0.0;0.0;0.0;0.0;0.0;0.0;0.0;0.0;0.000559813974046
292134000000;140;292134000000;map;28.4433101071;-0.113335193222;0.0;0.0;0.0;-0.00103620729117;0.999999463137;0.0024702892606;-0.000193320564632;0.0;0.0;0.0;0.0;-0.000193320564633;0.000433971244853;0.0;0.0;0.0;0.0;0.0;0.0;0.0;0.0;0.0;0.0;0.0;0.0;0.0;0.0;0.0;0.0;0.0;0.0;0.0;0.0;0.0;0.0;0.0;0.0;0.0;0.0;0.0;0.000495825401768
292537000000;141;292537000000;map;28.6446602969;-0.118272099692;0.0;0.0;0.0;-0.0053288353632;0.999985801656;0.00225077873813;-0.000131768895334;0.0;0.0;0.0;0.0;-0.000131768895334;0.000468630522187;0.0;0.0;0.0;0.0;0.0;0.0;0.0;0.0;0.0;0.0;0.0;0.0;0.0;0.0;0.0;0.0;0.0;0.0;0.0;0.0;0.0;0.0;0.0;0.0;0.0;0.0;0.0;0.000286479191983
292945000000;142;292945000000;map;28.8506391155;-0.112046713449;0.0;0.0;0.0;-0.00353405150213;0.99999375522;0.00242528933393;0.000228836600555;0.0;0.0;0.0;0.0;0.000228836600555;9.04296165104e-05;0.0;0.0;0.0;0.0;0.0;0.0;0.0;0.0;0.0;0.0;0.0;0.0;0.0;0.0;0.0;0.0;0.0;0.0;0.0;0.0;0.0;0.0;0.0;0.0;0.0;0.0;0.0;9.59726576992e-05
293357000000;143;293357000000;map;29.0531499877;-0.113884851251;0.0;0.0;0.0;-0.00356992268585;0.999993627806;0.00243635361721;0.000282481825082;0.0;0.0;0.0;0.0;0.000282481825082;0.000146555172124;0.0;0.0;0.0;0.0;0.0;0.0;0.0;0.0;0.0;0.0;0.0;0.0;0.0;0.0;0.0;0.0;0.0;0.0;0.0;0.0;0.0;0.0;0.0;0.0;0.0;0.0;0.0;0.000234847617886
293777000000;144;293777000000;map;29.2549707088;-0.118246158641;0.0;0.0;0.0;-0.00577767122593;0.999983309118;0.00259099487187;0.00013712325564;0.0;0.0;0.0;0.0;0.00013712325564;0.000137995447478;0.0;0.0;0.0;0.0;0.0;0.0;0.0;0.0;0.0;0.0;0.0;0.0;0.0;0.0;0.0;0.0;0.0;0.0;0.0;0.0;0.0;0.0;0.0;0.0;0.0;0.0;0.0;0.000544679163997
294180000000;145;294180000000;map;29.4503016037;-0.12207151168;0.0;0.0;0.0;-0.00803950262431;0.999967682677;0.00257641202541;6.99013756735e-05;0.0;0.0;0.0;0.0;6.99013756735e-05;0.000128678779768;0.0;0.0;0.0;0.0;0.0;0.0;0.0;0.0;0.0;0.0;0.0;0.0;0.0;0.0;0.0;0.0;0.0;0.0;0.0;0.0;0.0;0.0;0.0;0.0;0.0;0.0;0.0;0.000338242920351
294582000000;146;294582000000;map;29.6680938874;-0.124923916404;0.0;0.0;0.0;-0.00971116076039;0.999952845567;0.00353001705878;0.000253571635406;0.0;0.0;0.0;0.0;0.000253571635406;0.000313042549019;0.0;0.0;0.0;0.0;0.0;0.0;0.0;0.0;0.0;0.0;0.0;0.0;0.0;0.0;0.0;0.0;0.0;0.0;0.0;0.0;0.0;0.0;0.0;0.0;0.0;0.0;0.0;0.000509204192071
295002000000;147;295002000000;map;29.876150936;-0.129603195956;0.0;0.0;0.0;-0.00939447800362;0.999955870918;0.00351388521221;5.02733468419e-05;0.0;0.0;0.0;0.0;5.02733468419e-05;0.000346389203098;0.0;0.0;0.0;0.0;0.0;0.0;0.0;0.0;0.0;0.0;0.0;0.0;0.0;0.0;0.0;0.0;0.0;0.0;0.0;0.0;0.0;0.0;0.0;0.0;0.0;0.0;0.0;0.000520531467284
295422000000;148;295422000000;map;30.0687621653;-0.129604295969;0.0;0.0;0.0;-0.00638529896814;0.999979613771;0.00366939684739;0.000188487791711;0.0;0.0;0.0;0.0;0.000188487791712;0.000419128795983;0.0;0.0;0.0;0.0;0.0;0.0;0.0;0.0;0.0;0.0;0.0;0.0;0.0;0.0;0.0;0.0;0.0;0.0;0.0;0.0;0.0;0.0;0.0;0.0;0.0;0.0;0.0;0.000618134995645
295823000000;149;295823000000;map;30.2613789848;-0.131165265975;0.0;0.0;0.0;-0.0067311380461;0.999977345634;0.00277848530709;0.000241990761179;0.0;0.0;0.0;0.0;0.000241990761179;0.000476418949853;0.0;0.0;0.0;0.0;0.0;0.0;0.0;0.0;0.0;0.0;0.0;0.0;0.0;0.0;0.0;0.0;0.0;0.0;0.0;0.0;0.0;0.0;0.0;0.0;0.0;0.0;0.0;0.000654243618457
296227000000;150;296227000000;map;30.4729643617;-0.13332399999;0.0;0.0;0.0;-0.00836711575561;0.999964995074;0.0030261933241;0.00035592869632;0.0;0.0;0.0;0.0;0.00035592869632;0.000731756071091;0.0;0.0;0.0;0.0;0.0;0.0;0.0;0.0;0.0;0.0;0.0;0.0;0.0;0.0;0.0;0.0;0.0;0.0;0.0;0.0;0.0;0.0;0.0;0.0;0.0;0.0;0.0;0.000586417933206
296632000000;151;296632000000;map;30.6648785735;-0.137441072105;0.0;0.0;0.0;-0.0068124153251;0.999976795229;0.00151622612088;-8.4875956321e-05;0.0;0.0;0.0;0.0;-8.4875956321e-05;0.000429720788316;0.0;0.0;0.0;0.0;0.0;0.0;0.0;0.0;0.0;0.0;0.0;0.0;0.0;0.0;0.0;0.0;0.0;0.0;0.0;0.0;0.0;0.0;0.0;0.0;0.0;0.0;0.0;0.000372251010697
297040000000;152;297040000000;map;30.8611633304;-0.140938446867;0.0;0.0;0.0;-0.00525889749806;0.999986171903;0.000406311047186;-0.000140816622904;0.0;0.0;0.0;0.0;-0.000140816622903;0.000281212380436;0.0;0.0;0.0;0.0;0.0;0.0;0.0;0.0;0.0;0.0;0.0;0.0;0.0;0.0;0.0;0.0;0.0;0.0;0.0;0.0;0.0;0.0;0.0;0.0;0.0;0.0;0.0;0.000480710178861
297441000000;153;297441000000;map;31.057159647;-0.138130928838;0.0;0.0;0.0;-0.00482074720307;0.999988380131;0.000667494648837;-0.000262029069242;0.0;0.0;0.0;0.0;-0.000262029069243;0.000418143876355;0.0;0.0;0.0;0.0;0.0;0.0;0.0;0.0;0.0;0.0;0.0;0.0;0.0;0.0;0.0;0.0;0.0;0.0;0.0;0.0;0.0;0.0;0.0;0.0;0.0;0.0;0.0;0.000267987597212
297844000000;154;297844000000;map;31.259631524;-0.137294830133;0.0;0.0;0.0;-0.00468744863991;0.999989013852;0.000589540282363;-9.93622523433e-05;0.0;0.0;0.0;0.0;-9.93622523424e-05;0.000356331336205;0.0;0.0;0.0;0.0;0.0;0.0;0.0;0.0;0.0;0.0;0.0;0.0;0.0;0.0;0.0;0.0;0.0;0.0;0.0;0.0;0.0;0.0;0.0;0.0;0.0;0.0;0.0;0.000404830847748
298250000000;155;298250000000;map;31.4696829418;-0.135453060245;0.0;0.0;0.0;-0.000724659458722;0.999999737434;0.000534591559472;-5.56035477377e-05;0.0;0.0;0.0;0.0;-5.56035477386e-05;0.000481304997317;0.0;0.0;0.0;0.0;0.0;0.0;0.0;0.0;0.0;0.0;0.0;0.0;0.0;0.0;0.0;0.0;0.0;0.0;0.0;0.0;0.0;0.0;0.0;0.0;0.0;0.0;0.0;0.000361901989714
298660000000;156;298660000000;map;31.6755914539;-0.134231174089;0.0;0.0;0.0;0.00130838830817;0.99999914406;0.000698736226468;-7.21376818458e-06;0.0;0.0;0.0;0.0;-7.21376818458e-06;0.000491463409142;0.0;0.0;0.0;0.0;0.0;0.0;0.0;0.0;0.0;0.0;0.0;0.0;0.0;0.0;0.0;0.0;0.0;0.0;0.0;0.0;0.0;0.0;0.0;0.0;0.0;0.0;0.0;0.000288863785973
299079000000;157;299079000000;map;31.8888707008;-0.137798517556;0.0;0.0;0.0;0.0042365400946;0.999991025824;0.000840728568846;5.77687169452e-05;0.0;0.0;0.0;0.0;5.77687169452e-05;0.000464632696778;0.0;0.0;0.0;0.0;0.0;0.0;0.0;0.0;0.0;0.0;0.0;0.0;0.0;0.0;0.0;0.0;0.0;0.0;0.0;0.0;0.0;0.0;0.0;0.0;0.0;0.0;0.0;0.000305751678871
299499000000;158;299499000000;map;32.104495805;-0.146554925326;0.0;0.0;0.0;0.00347403200521;0.999993965533;0.00100100558348;-9.72077472161e-05;0.0;0.0;0.0;0.0;-9.72077472161e-05;0.000646674663327;0.0;0.0;0.0;0.0;0.0;0.0;0.0;0.0;0.0;0.0;0.0;0.0;0.0;0.0;0.0;0.0;0.0;0.0;0.0;0.0;0.0;0.0;0.0;0.0;0.0;0.0;0.0;0.000330830481329
299901000000;159;299901000000;map;32.3032793287;-0.14074375134;0.0;0.0;0.0;0.00360339379493;0.999993507756;0.000964296340044;-0.000203754664892;0.0;0.0;0.0;0.0;-0.000203754664892;0.000598216915916;0.0;0.0;0.0;0.0;0.0;0.0;0.0;0.0;0.0;0.0;0.0;0.0;0.0;0.0;0.0;0.0;0.0;0.0;0.0;0.0;0.0;0.0;0.0;0.0;0.0;0.0;0.0;0.000358968624729
300323000000;160;300323000000;map;32.523123323;-0.143056931805;0.0;0.0;0.0;9.66419383181e-05;0.99999999533;0.00114912146068;-0.000257114710698;0.0;0.0;0.0;0.0;-0.000257114710698;0.000697629989079;0.0;0.0;0.0;0.0;0.0;0.0;0.0;0.0;0.0;0.0;0.0;0.0;0.0;0.0;0.0;0.0;0.0;0.0;0.0;0.0;0.0;0.0;0.0;0.0;0.0;0.0;0.0;0.000328051319709
300726000000;161;300726000000;map;32.7285591748;-0.13990311675;0.0;0.0;0.0;-0.000895173708309;0.999999599332;0.00122781321534;1.20579940637e-05;0.0;0.0;0.0;0.0;1.20579940637e-05;0.000450715532573;0.0;0.0;0.0;0.0;0.0;0.0;0.0;0.0;0.0;0.0;0.0;0.0;0.0;0.0;0.0;0.0;0.0;0.0;0.0;0.0;0.0;0.0;0.0;0.0;0.0;0.0;0.0;0.000467709176882
301128000000;162;301128000000;map;32.9416127011;-0.144624396606;0.0;0.0;0.0;-0.0010830405127;0.999999413511;0.000776952902925;-0.000348855577262;0.0;0.0;0.0;0.0;-0.000348855577262;0.000396297158169;0.0;0.0;0.0;0.0;0.0;0.0;0.0;0.0;0.0;0.0;0.0;0.0;0.0;0.0;0.0;0.0;0.0;0.0;0.0;0.0;0.0;0.0;0.0;0.0;0.0;0.0;0.0;0.000615419972845
301533000000;163;301533000000;map;33.1432396842;-0.148584116664;0.0;0.0;0.0;0.000825651771594;0.99999965915;0.000693647571097;-0.000351615254823;0.0;0.0;0.0;0.0;-0.000351615254823;0.000342692341698;0.0;0.0;0.0;0.0;0.0;0.0;0.0;0.0;0.0;0.0;0.0;0.0;0.0;0.0;0.0;0.0;0.0;0.0;0.0;0.0;0.0;0.0;0.0;0.0;0.0;0.0;0.0;0.000776477727697
301938000000;164;301938000000;map;33.3490425782;-0.151896857366;0.0;0.0;0.0;0.00297871117792;0.99999556363;0.000612686140357;-0.000324305628613;0.0;0.0;0.0;0.0;-0.000324305628613;0.000291218983814;0.0;0.0;0.0;0.0;0.0;0.0;0.0;0.0;0.0;0.0;0.0;0.0;0.0;0.0;0.0;0.0;0.0;0.0;0.0;0.0;0.0;0.0;0.0;0.0;0.0;0.0;0.0;0.000393908038282
302345000000;165;302345000000;map;33.5639488305;-0.158505805303;0.0;0.0;0.0;0.00274832605605;0.999996223345;0.000626545397836;-0.000242074768924;0.0;0.0;0.0;0.0;-0.000242074768924;0.000266438439339;0.0;0.0;0.0;0.0;0.0;0.0;0.0;0.0;0.0;0.0;0.0;0.0;0.0;0.0;0.0;0.0;0.0;0.0;0.0;0.0;0.0;0.0;0.0;0.0;0.0;0.0;0.0;0.00022799180413
302751000000;166;302751000000;map;33.775687071;-0.159352183037;0.0;0.0;0.0;0.00345345334369;0.999994036812;0.000711868449571;-0.000205714726138;0.0;0.0;0.0;0.0;-0.000205714726138;0.00024062710661;0.0;0.0;0.0;0.0;0.0;0.0;0.0;0.0;0.0;0.0;0.0;0.0;0.0;0.0;0.0;0.0;0.0;0.0;0.0;0.0;0.0;0.0;0.0;0.0;0.0;0.0;0.0;0.000325289260941
303172000000;167;303172000000;map;33.997758561;-0.16054273313;0.0;0.0;0.0;0.00154539342249;0.999998805879;0.000714226741593;-0.000131749766844;0.0;0.0;0.0;0.0;-0.000131749766844;0.000182580069663;0.0;0.0;0.0;0.0;0.0;0.0;0.0;0.0;0.0;0.0;0.0;0.0;0.0;0.0;0.0;0.0;0.0;0.0;0.0;0.0;0.0;0.0;0.0;0.0;0.0;0.0;0.0;0.000538020847107
303573000000;168;303573000000;map;34.1953085252;-0.160935508377;0.0;0.0;0.0;0.00146539167301;0.999998926313;0.000588001855022;-5.04656166527e-05;0.0;0.0;0.0;0.0;-5.04656166527e-05;8.21647609333e-05;0.0;0.0;0.0;0.0;0.0;0.0;0.0;0.0;0.0;0.0;0.0;0.0;0.0;0.0;0.0;0.0;0.0;0.0;0.0;0.0;0.0;0.0;0.0;0.0;0.0;0.0;0.0;0.00035182978266
303992000000;169;303992000000;map;34.4052498172;-0.160733101443;0.0;0.0;0.0;0.00260167918905;0.999996615627;0.000551161824887;-5.18470682342e-05;0.0;0.0;0.0;0.0;-5.18470682342e-05;0.000121469706598;0.0;0.0;0.0;0.0;0.0;0.0;0.0;0.0;0.0;0.0;0.0;0.0;0.0;0.0;0.0;0.0;0.0;0.0;0.0;0.0;0.0;0.0;0.0;0.0;0.0;0.0;0.0;0.000279467852417
304393000000;170;304393000000;map;34.598077935;-0.154739236555;0.0;0.0;0.0;0.00352466383049;0.999993788353;0.000809375328799;-2.79153157656e-05;0.0;0.0;0.0;0.0;-2.79153157656e-05;0.000100322243531;0.0;0.0;0.0;0.0;0.0;0.0;0.0;0.0;0.0;0.0;0.0;0.0;0.0;0.0;0.0;0.0;0.0;0.0;0.0;0.0;0.0;0.0;0.0;0.0;0.0;0.0;0.0;0.000270036640773
304795000000;171;304795000000;map;34.7972396841;-0.154373833818;0.0;0.0;0.0;0.0064447422874;0.999979232433;0.000798899577148;1.79049234106e-06;0.0;0.0;0.0;0.0;1.79049234106e-06;8.32421096228e-05;0.0;0.0;0.0;0.0;0.0;0.0;0.0;0.0;0.0;0.0;0.0;0.0;0.0;0.0;0.0;0.0;0.0;0.0;0.0;0.0;0.0;0.0;0.0;0.0;0.0;0.0;0.0;0.000338290134719
305203000000;172;305203000000;map;35.0050318989;-0.152830712255;0.0;0.0;0.0;0.00554480517938;0.99998462745;0.000933964623528;3.76020322799e-05;0.0;0.0;0.0;0.0;3.76020322816e-05;6.04025863012e-05;0.0;0.0;0.0;0.0;0.0;0.0;0.0;0.0;0.0;0.0;0.0;0.0;0.0;0.0;0.0;0.0;0.0;0.0;0.0;0.0;0.0;0.0;0.0;0.0;0.0;0.0;0.0;0.00035586484614
305605000000;173;305605000000;map;35.207472331;-0.152804161395;0.0;0.0;0.0;0.00100545281085;0.999999494532;0.00097908000771;6.82039235027e-05;0.0;0.0;0.0;0.0;6.82039235027e-05;4.97819363017e-05;0.0;0.0;0.0;0.0;0.0;0.0;0.0;0.0;0.0;0.0;0.0;0.0;0.0;0.0;0.0;0.0;0.0;0.0;0.0;0.0;0.0;0.0;0.0;0.0;0.0;0.0;0.0;0.000287146490351
306009000000;174;306009000000;map;35.4087059737;-0.152605396749;0.0;0.0;0.0;0.00193895764899;0.99999812022;0.000935286824188;4.05141154687e-05;0.0;0.0;0.0;0.0;4.05141154687e-05;6.93115301437e-05;0.0;0.0;0.0;0.0;0.0;0.0;0.0;0.0;0.0;0.0;0.0;0.0;0.0;0.0;0.0;0.0;0.0;0.0;0.0;0.0;0.0;0.0;0.0;0.0;0.0;0.0;0.0;0.000297392528306
306428000000;175;306428000000;map;35.6234564934;-0.150144876047;0.0;0.0;0.0;0.000909382499274;0.999999586512;0.000718902652125;-6.17271877124e-05;0.0;0.0;0.0;0.0;-6.17271877124e-05;6.90828291166e-05;0.0;0.0;0.0;0.0;0.0;0.0;0.0;0.0;0.0;0.0;0.0;0.0;0.0;0.0;0.0;0.0;0.0;0.0;0.0;0.0;0.0;0.0;0.0;0.0;0.0;0.0;0.0;0.000302216231985
306836000000;176;306836000000;map;35.8247467867;-0.148676746084;0.0;0.0;0.0;0.00160986607654;0.999998704165;0.000540842424698;-0.00011774766658;0.0;0.0;0.0;0.0;-0.00011774766658;0.000129610131613;0.0;0.0;0.0;0.0;0.0;0.0;0.0;0.0;0.0;0.0;0.0;0.0;0.0;0.0;0.0;0.0;0.0;0.0;0.0;0.0;0.0;0.0;0.0;0.0;0.0;0.0;0.0;0.00059308875276
307237000000;177;307237000000;map;36.022140943;-0.15037629753;0.0;0.0;0.0;-0.000456628729337;0.999999895745;0.00042803734209;-0.000148658570395;0.0;0.0;0.0;0.0;-0.000148658570395;0.000280472191314;0.0;0.0;0.0;0.0;0.0;0.0;0.0;0.0;0.0;0.0;0.0;0.0;0.0;0.0;0.0;0.0;0.0;0.0;0.0;0.0;0.0;0.0;0.0;0.0;0.0;0.0;0.0;0.000824346576711
307638000000;178;307638000000;map;36.2207536651;-0.155589182722;0.0;0.0;0.0;-0.00253605485615;0.999996784208;0.000727359531538;-0.000275554380622;0.0;0.0;0.0;0.0;-0.000275554380621;0.000376485931557;0.0;0.0;0.0;0.0;0.0;0.0;0.0;0.0;0.0;0.0;0.0;0.0;0.0;0.0;0.0;0.0;0.0;0.0;0.0;0.0;0.0;0.0;0.0;0.0;0.0;0.0;0.0;0.000556786459732
308056000000;179;308056000000;map;36.4180483905;-0.15855679254;0.0;0.0;0.0;-0.00222896124416;0.999997515863;0.00105907445095;-0.000262936577512;0.0;0.0;0.0;0.0;-0.000262936577512;0.00011310022736;0.0;0.0;0.0;0.0;0.0;0.0;0.0;0.0;0.0;0.0;0.0;0.0;0.0;0.0;0.0;0.0;0.0;0.0;0.0;0.0;0.0;0.0;0.0;0.0;0.0;0.0;0.0;0.000213959533908
308464000000;180;308464000000;map;36.6351632785;-0.161801207019;0.0;0.0;0.0;-0.00185731610753;0.999998275187;0.000357058654345;-7.67987108485e-05;0.0;0.0;0.0;0.0;-7.67987108485e-05;0.00016310712356;0.0;0.0;0.0;0.0;0.0;0.0;0.0;0.0;0.0;0.0;0.0;0.0;0.0;0.0;0.0;0.0;0.0;0.0;0.0;0.0;0.0;0.0;0.0;0.0;0.0;0.0;0.0;0.00023333375013
308865000000;181;308865000000;map;36.8302926893;-0.161712017088;0.0;0.0;0.0;-0.000584783233239;0.999999829014;0.000452726811091;-0.000349799600348;0.0;0.0;0.0;0.0;-0.000349799600348;0.000366852826477;0.0;0.0;0.0;0.0;0.0;0.0;0.0;0.0;0.0;0.0;0.0;0.0;0.0;0.0;0.0;0.0;0.0;0.0;0.0;0.0;0.0;0.0;0.0;0.0;0.0;0.0;0.0;0.000900323880399
310240000000;182;310240000000;map;36.9869898278;-0.162198591914;0.0;0.0;0.0;0.121922684052;0.992539600779;0.000354848839606;-0.000184368120195;0.0;0.0;0.0;0.0;-0.000184368120194;0.000330689378823;0.0;0.0;0.0;0.0;0.0;0.0;0.0;0.0;0.0;0.0;0.0;0.0;0.0;0.0;0.0;0.0;0.0;0.0;0.0;0.0;0.0;0.0;0.0;0.0;0.0;0.0;0.0;0.00089482615217
311366000000;183;311366000000;map;36.9818254472;-0.167024635799;0.0;0.0;0.0;0.247565968799;0.968871039454;0.000286067059051;-6.24504771976e-05;0.0;0.0;0.0;0.0;-6.24504771976e-05;0.000179134136769;0.0;0.0;0.0;0.0;0.0;0.0;0.0;0.0;0.0;0.0;0.0;0.0;0.0;0.0;0.0;0.0;0.0;0.0;0.0;0.0;0.0;0.0;0.0;0.0;0.0;0.0;0.0;0.000691123447541
312476000000;184;312476000000;map;36.9852323807;-0.16909467798;0.0;0.0;0.0;0.364781210654;0.931093265121;0.000169905814801;-2.56009931592e-05;0.0;0.0;0.0;0.0;-2.56009931583e-05;5.98551313314e-05;0.0;0.0;0.0;0.0;0.0;0.0;0.0;0.0;0.0;0.0;0.0;0.0;0.0;0.0;0.0;0.0;0.0;0.0;0.0;0.0;0.0;0.0;0.0;0.0;0.0;0.0;0.0;0.000504804998458
313600000000;185;313600000000;map;36.9900092912;-0.162983024671;0.0;0.0;0.0;0.479341162817;0.877628651327;0.000144291425158;4.50683786717e-05;0.0;0.0;0.0;0.0;4.50683786708e-05;0.00025496259693;0.0;0.0;0.0;0.0;0.0;0.0;0.0;0.0;0.0;0.0;0.0;0.0;0.0;0.0;0.0;0.0;0.0;0.0;0.0;0.0;0.0;0.0;0.0;0.0;0.0;0.0;0.0;0.000558528471302
314663000000;186;314663000000;map;36.9903840288;-0.164501849579;0.0;0.0;0.0;0.582027602666;0.813169029006;0.000194088197077;0.000105216852208;0.0;0.0;0.0;0.0;0.000105216852208;0.000248273847893;0.0;0.0;0.0;0.0;0.0;0.0;0.0;0.0;0.0;0.0;0.0;0.0;0.0;0.0;0.0;0.0;0.0;0.0;0.0;0.0;0.0;0.0;0.0;0.0;0.0;0.0;0.0;0.000890939692191
315729000000;187;315729000000;map;36.9846899647;-0.166662726268;0.0;0.0;0.0;0.678653725801;0.734458385789;0.000161996315683;0.000130421510213;0.0;0.0;0.0;0.0;0.000130421510213;0.000268977579499;0.0;0.0;0.0;0.0;0.0;0.0;0.0;0.0;0.0;0.0;0.0;0.0;0.0;0.0;0.0;0.0;0.0;0.0;0.0;0.0;0.0;0.0;0.0;0.0;0.0;0.0;0.0;0.00105224277794
317058000000;188;317058000000;map;36.9765368369;0.0386713887692;0.0;0.0;0.0;0.725304307406;0.688428399805;0.000164512675383;9.02401734335e-05;0.0;0.0;0.0;0.0;9.02401734337e-05;0.000422345446557;0.0;0.0;0.0;0.0;0.0;0.0;0.0;0.0;0.0;0.0;0.0;0.0;0.0;0.0;0.0;0.0;0.0;0.0;0.0;0.0;0.0;0.0;0.0;0.0;0.0;0.0;0.0;0.00073588359929
317479000000;189;317479000000;map;36.9635612865;0.247264237216;0.0;0.0;0.0;0.726638469252;0.687020039739;0.000269134140353;0.000141996863526;0.0;0.0;0.0;0.0;0.000141996863526;0.000515068700146;0.0;0.0;0.0;0.0;0.0;0.0;0.0;0.0;0.0;0.0;0.0;0.0;0.0;0.0;0.0;0.0;0.0;0.0;0.0;0.0;0.0;0.0;0.0;0.0;0.0;0.0;0.0;0.000592952434831
317886000000;190;317886000000;map;36.9491642766;0.451975690829;0.0;0.0;0.0;0.728381143285;0.68517217552;0.000469067261065;0.000305689077042;0.0;0.0;0.0;0.0;0.000305689077042;0.000653764316265;0.0;0.0;0.0;0.0;0.0;0.0;0.0;0.0;0.0;0.0;0.0;0.0;0.0;0.0;0.0;0.0;0.0;0.0;0.0;0.0;0.0;0.0;0.0;0.0;0.0;0.0;0.0;0.000507106524393
318288000000;191;318288000000;map;36.9383653248;0.653768657436;0.0;0.0;0.0;0.728140922676;0.685427455479;0.000578931191967;0.000347565564919;0.0;0.0;0.0;0.0;0.000347565564926;0.000624072818844;0.0;0.0;0.0;0.0;0.0;0.0;0.0;0.0;0.0;0.0;0.0;0.0;0.0;0.0;0.0;0.0;0.0;0.0;0.0;0.0;0.0;0.0;0.0;0.0;0.0;0.0;0.0;0.000514767298552
318692000000;192;318692000000;map;36.9253187003;0.860810726592;0.0;0.0;0.0;0.726711253838;0.68694304971;0.000736873866117;0.000469646306808;0.0;0.0;0.0;0.0;0.000469646306808;0.000749115645644;0.0;0.0;0.0;0.0;0.0;0.0;0.0;0.0;0.0;0.0;0.0;0.0;0.0;0.0;0.0;0.0;0.0;0.0;0.0;0.0;0.0;0.0;0.0;0.0;0.0;0.0;0.0;0.000542777105018
319114000000;193;319114000000;map;36.9076604513;1.07147654262;0.0;0.0;0.0;0.728939566946;0.684578050876;0.000644370903274;0.000340823374863;0.0;0.0;0.0;0.0;0.000340823374849;0.000685218527799;0.0;0.0;0.0;0.0;0.0;0.0;0.0;0.0;0.0;0.0;0.0;0.0;0.0;0.0;0.0;0.0;0.0;0.0;0.0;0.0;0.0;0.0;0.0;0.0;0.0;0.0;0.0;0.000443728401999
319521000000;194;319521000000;map;36.8945309382;1.27382755863;0.0;0.0;0.0;0.728860516337;0.684662214326;0.00072630929958;0.000350915607278;0.0;0.0;0.0;0.0;0.000350915607278;0.000788649503485;0.0;0.0;0.0;0.0;0.0;0.0;0.0;0.0;0.0;0.0;0.0;0.0;0.0;0.0;0.0;0.0;0.0;0.0;0.0;0.0;0.0;0.0;0.0;0.0;0.0;0.0;0.0;0.000445236683812
319924000000;195;319924000000;map;36.8748648567;1.46707234682;0.0;0.0;0.0;0.730492090305;0.682921156505;0.000516729565561;7.09115391331e-05;0.0;0.0;0.0;0.0;7.09115391331e-05;0.000518801774399;0.0;0.0;0.0;0.0;0.0;0.0;0.0;0.0;0.0;0.0;0.0;0.0;0.0;0.0;0.0;0.0;0.0;0.0;0.0;0.0;0.0;0.0;0.0;0.0;0.0;0.0;0.0;0.000423379819202
320326000000;196;320326000000;map;36.8611919841;1.66895447668;0.0;0.0;0.0;0.73068039099;0.682719683489;0.000540968747828;0.000108318756894;0.0;0.0;0.0;0.0;0.000108318756894;0.000706339688878;0.0;0.0;0.0;0.0;0.0;0.0;0.0;0.0;0.0;0.0;0.0;0.0;0.0;0.0;0.0;0.0;0.0;0.0;0.0;0.0;0.0;0.0;0.0;0.0;0.0;0.0;0.0;0.000501223312509
320747000000;197;320747000000;map;36.8467103168;1.8822106056;0.0;0.0;0.0;0.731017159343;0.682359079039;0.000624952259386;9.0660186288e-05;0.0;0.0;0.0;0.0;9.0660186288e-05;0.000689324149096;0.0;0.0;0.0;0.0;0.0;0.0;0.0;0.0;0.0;0.0;0.0;0.0;0.0;0.0;0.0;0.0;0.0;0.0;0.0;0.0;0.0;0.0;0.0;0.0;0.0;0.0;0.0;0.000500829031577
322615000000;198;322615000000;map;36.8403593534;2.07204450043;0.0;0.0;0.0;0.69771608224;0.716374391351;0.000444154194838;5.51111738361e-05;0.0;0.0;0.0;0.0;5.51111738218e-05;0.00122376340756;0.0;0.0;0.0;0.0;0.0;0.0;0.0;0.0;0.0;0.0;0.0;0.0;0.0;0.0;0.0;0.0;0.0;0.0;0.0;0.0;0.0;0.0;0.0;0.0;0.0;0.0;0.0;0.000353429235901
323017000000;199;323017000000;map;36.8488526059;2.27435077931;0.0;0.0;0.0;0.696727071915;0.717336313915;0.000661424191094;9.56052671484e-05;0.0;0.0;0.0;0.0;9.56052671484e-05;0.00139088683024;0.0;0.0;0.0;0.0;0.0;0.0;0.0;0.0;0.0;0.0;0.0;0.0;0.0;0.0;0.0;0.0;0.0;0.0;0.0;0.0;0.0;0.0;0.0;0.0;0.0;0.0;0.0;0.000452211400992
323422000000;200;323422000000;map;36.8585674897;2.47429797475;0.0;0.0;0.0;0.694784551359;0.719217927469;0.000838393587173;0.000234881809391;0.0;0.0;0.0;0.0;0.000234881809391;0.00182340812034;0.0;0.0;0.0;0.0;0.0;0.0;0.0;0.0;0.0;0.0;0.0;0.0;0.0;0.0;0.0;0.0;0.0;0.0;0.0;0.0;0.0;0.0;0.0;0.0;0.0;0.0;0.0;0.000546975514426
323843000000;201;323843000000;map;36.8547687279;2.68092079906;0.0;0.0;0.0;0.699129095042;0.714995460451;0.000628367918125;0.000107540800016;0.0;0.0;0.0;0.0;0.000107540800016;0.00150403210902;0.0;0.0;0.0;0.0;0.0;0.0;0.0;0.0;0.0;0.0;0.0;0.0;0.0;0.0;0.0;0.0;0.0;0.0;0.0;0.0;0.0;0.0;0.0;0.0;0.0;0.0;0.0;0.000639967439275
324245000000;202;324245000000;map;36.852618561;2.87730888277;0.0;0.0;0.0;0.70152657522;0.712643293843;0.000151744831555;8.24049673867e-05;0.0;0.0;0.0;0.0;8.24049673867e-05;0.00150509904819;0.0;0.0;0.0;0.0;0.0;0.0;0.0;0.0;0.0;0.0;0.0;0.0;0.0;0.0;0.0;0.0;0.0;0.0;0.0;0.0;0.0;0.0;0.0;0.0;0.0;0.0;0.0;0.000176609406686
