%time,field.x,field.y,field.z,field.w
1524837432205665111,0.0,0.0,0.0,1.0
1524837432247936964,0.0,0.0,4.22444381559e-06,0.999999999991
1524837432255762100,0.0,0.0,4.23751538396e-06,0.999999999991
1524837432294928073,0.0,0.0,4.26596510491e-06,0.999999999991
1524837432313108921,0.0,0.0,4.25898280384e-06,0.999999999991
1524837432331008911,0.0,0.0,4.26367112336e-06,0.999999999991
1524837432355973958,0.0,0.0,4.26966925481e-06,0.999999999991
1524837432378814935,0.0,0.0,4.27323397298e-06,0.999999999991
1524837432411530017,0.0,0.0,4.29238755817e-06,0.999999999991
1524837432430107116,0.0,0.0,4.29439026186e-06,0.999999999991
1524837432453043937,0.0,0.0,4.29808754699e-06,0.999999999991
1524837432476311922,0.0,0.0,4.30270096865e-06,0.999999999991
1524837432512860059,0.0,0.0,4.31645534444e-06,0.999999999991
1524837432530925035,0.0,0.0,4.31908223365e-06,0.999999999991
1524837432562360048,0.0,0.0,4.32103211777e-06,0.999999999991
1524837432583776950,0.0,0.0,2.87716137323e-06,0.999999999996
1524837432605513095,0.0,0.0,2.53514370317e-06,0.999999999997
1524837432633730888,0.0,0.0,1.67577686478e-06,0.999999999999
1524837432661684989,0.0,0.0,2.02006904056e-06,0.999999999998
1524837432682862997,0.0,0.0,2.00658132241e-06,0.999999999998
1524837432708497047,0.0,0.0,2.00095235173e-06,0.999999999998
1524837432730762958,0.0,0.0,1.99631372579e-06,0.999999999998
1524837432756849050,0.0,0.0,1.99990029818e-06,0.999999999998
1524837432783742904,0.0,0.0,2.00694586763e-06,0.999999999998
1524837432814868927,0.0,0.0,1.62927031853e-06,0.999999999999
1524837432838594913,0.0,0.0,1.64069253076e-06,0.999999999999
1524837432859477996,0.0,0.0,1.64615116755e-06,0.999999999999
1524837432883486986,0.0,0.0,1.69069401743e-06,0.999999999999
1524837432907982110,0.0,0.0,1.80979640839e-06,0.999999999998
1524837432934561014,0.0,0.0,2.77574612037e-06,0.999999999996
1524837432960551977,0.0,0.0,3.33224665842e-06,0.999999999994
1524837432986641883,0.0,0.0,-1.29280803626e-06,0.999999999999
1524837433015624046,0.0,0.0,-1.08274720105e-06,0.999999999999
1524837433035756111,0.0,0.0,-5.92162661499e-05,0.999999998247
1524837433068545103,0.0,0.0,-5.91878016229e-05,0.999999998248
1524837433083517074,0.0,0.0,-5.9179798775e-05,0.999999998249
1524837433107826948,0.0,0.0,-5.91764696152e-05,0.999999998249
1524837433137339115,0.0,0.0,-5.9164724844e-05,0.99999999825
1524837433157397031,0.0,0.0,-5.91602798081e-05,0.99999999825
1524837433192272901,0.0,0.0,5.70026420504e-05,0.999999998375
1524837433214263916,0.0,0.0,5.70066977852e-05,0.999999998375
1524837433238141059,0.0,0.0,5.7015900051e-05,0.999999998375
1524837433263555049,0.0,0.0,5.70314796864e-05,0.999999998374
1524837433293623924,0.0,0.0,-0.000131337690973,0.999999991375
1524837433317061901,0.0,0.0,-0.000131332859624,0.999999991376
1524837433341533899,0.0,0.0,-0.000131326409049,0.999999991377
1524837433362668037,0.0,0.0,-0.000131321120595,0.999999991377
1524837433391910076,0.0,0.0,-0.000131314529474,0.999999991378
1524837433420186042,0.0,0.0,-0.000131306842061,0.999999991379
1524837433442503929,0.0,0.0,0.000104924226914,0.999999994495
1524837433466511011,0.0,0.0,0.000104924439876,0.999999994495
1524837433491312026,0.0,0.0,0.000104926580019,0.999999994495
1524837433516561031,0.0,0.0,0.000104929593938,0.999999994495
1524837433543934106,0.0,0.0,2.23658785506e-05,0.99999999975
1524837433565872907,0.0,0.0,2.23707607408e-05,0.99999999975
1524837433594412088,0.0,0.0,2.23862498743e-05,0.999999999749
1524837433616462945,0.0,0.0,2.23876902086e-05,0.999999999749
1524837433640731096,0.0,0.0,2.23896332841e-05,0.999999999749
1524837433668226003,0.0,0.0,3.85864530812e-05,0.999999999256
1524837433691380023,0.0,0.0,3.85905749956e-05,0.999999999255
1524837433717312097,0.0,0.0,3.85932290064e-05,0.999999999255
1524837433742367029,0.0,0.0,3.85967927985e-05,0.999999999255
1524837433776994943,0.0,0.0,3.86045642863e-05,0.999999999255
1524837433794447898,0.0,0.0,3.86075202525e-05,0.999999999255
1524837433824405908,0.0,0.0,-1.43586985282e-05,0.999999999897
1524837433849222898,0.0,0.0,-1.43477383052e-05,0.999999999897
1524837433865607976,0.0,0.0,-1.4346672808e-05,0.999999999897
1524837433902343034,0.0,0.0,-1.43270168019e-05,0.999999999897
1524837433917426109,0.0,0.0,-1.43220089645e-05,0.999999999897
1524837433949093103,0.0,0.0,0.000142716964999,0.999999989816
1524837433969871044,0.0,0.0,0.00014272530626,0.999999989815
1524837434000216007,0.0,0.0,0.000142734337466,0.999999989813
1524837434017086982,0.0,0.0,0.000189245273934,0.999999982093
1524837434044929027,0.0,0.0,0.000189259813825,0.99999998209
1524837434066083908,0.0,0.0,0.00018926237084,0.99999998209
1524837434099050998,0.0,0.0,0.000189269135539,0.999999982089
1524837434116806983,0.0,0.0,0.000189271300895,0.999999982088
1524837434149087905,0.0,0.0,0.000189280309349,0.999999982086
1524837434178335905,0.0,0.0,0.000189291445894,0.999999982084
1524837434194875001,0.0,0.0,0.000189296034829,0.999999982084
1524837434224307060,0.0,0.0,0.000189307985337,0.999999982081
1524837434258521080,0.0,0.0,0.000189318697147,0.999999982079
1524837434277117013,0.0,0.0,0.000189322094327,0.999999982079
1524837434299504041,0.0,0.0,0.000189324688551,0.999999982078
1524837434323906898,0.0,0.0,0.000189328507761,0.999999982077
1524837434354540109,0.0,0.0,0.000189337674763,0.999999982076
1524837434380959987,0.0,0.0,0.000189343057686,0.999999982075
1524837434407713890,0.0,0.0,0.000189344271196,0.999999982074
1524837434430413961,0.0,0.0,0.000189351667034,0.999999982073
1524837434458025932,0.0,0.0,0.000189352018215,0.999999982073
1524837434477720022,0.0,0.0,0.000189354102131,0.999999982073
1524837434512780904,0.0,0.0,0.000189356421594,0.999999982072
1524837434528283119,0.0,0.0,0.000189358915637,0.999999982072
1524837434552208900,0.0,0.0,0.000189362553923,0.999999982071
1524837434584815979,0.0,0.0,0.000189369617516,0.99999998207
1524837434603398084,0.0,0.0,0.000189372535367,0.999999982069
1524837434630966901,0.0,0.0,0.000189375352529,0.999999982068
1524837434652302026,0.0,0.0,0.000189377633556,0.999999982068
1524837434677433013,0.0,0.0,0.000189380308527,0.999999982068
1524837434707494974,0.0,0.0,0.000189381403101,0.999999982067
1524837434729507923,0.0,0.0,0.00018938401148,0.999999982067
1524837434756131887,0.0,0.0,0.000189392420368,0.999999982065
1524837434778054952,0.0,0.0,0.000189396599978,0.999999982064
1524837434809828042,0.0,0.0,0.00018940533034,0.999999982063
1524837434827379941,0.0,0.0,0.000189408866255,0.999999982062
1524837434860662937,0.0,0.0,0.000189414296533,0.999999982061
1524837434881906032,0.0,0.0,0.000189418562992,0.99999998206
1524837434909921884,0.0,0.0,0.000189428281586,0.999999982058
1524837434927997112,0.0,0.0,0.000189432951658,0.999999982058
1524837434953578948,0.0,0.0,0.000189437378322,0.999999982057
1524837434980879068,0.0,0.0,0.000189439727986,0.999999982056
1524837435015500068,0.0,0.0,0.000189456128335,0.999999982053
1524837435030294895,0.0,0.0,0.000189463820827,0.999999982052
1524837435053915977,0.0,0.0,0.000189467560521,0.999999982051
1524837435086081981,0.0,0.0,0.000189477360079,0.999999982049
1524837435110287904,0.0,0.0,0.000189495982991,0.999999982046
1524837435128833055,0.0,0.0,0.000189500169634,0.999999982045
1524837435163095951,0.0,0.0,0.000189515617445,0.999999982042
1524837435180934906,0.0,0.0,0.000189523991464,0.99999998204
1524837435208647012,0.0,0.0,0.00018953917611,0.999999982037
1524837435229381084,0.0,0.0,0.000189542929538,0.999999982037
1524837435258361101,0.0,0.0,0.000189560054148,0.999999982033
1524837435283293962,0.0,0.0,0.000189563540967,0.999999982033
1524837435304064035,0.0,0.0,0.000189565792219,0.999999982032
1524837435345160007,0.0,0.0,0.000189579585324,0.99999998203
1524837435357985973,0.0,0.0,0.000189584067085,0.999999982029
1524837435383011102,0.0,0.0,0.000189597498261,0.999999982026
1524837435404386997,0.0,0.0,0.00018959950479,0.999999982026
1524837435433310031,0.0,0.0,0.000189606700721,0.999999982025
1524837435457376003,0.0,0.0,0.000189610508265,0.999999982024
1524837435481807947,0.0,0.0,0.000189612851171,0.999999982023
1524837435508359909,0.0,0.0,0.000189615391019,0.999999982023
1524837435536197900,0.0,0.0,0.000189617756848,0.999999982023
1524837435557240009,0.0,0.0,0.000189622023424,0.999999982022
1524837435587160110,0.0,0.0,0.000189625121566,0.999999982021
1524837435604731082,0.0,0.0,0.000189626422565,0.999999982021
1524837435640017986,0.0,0.0,0.000189631307292,0.99999998202
1524837435663944959,0.0,0.0,0.000189635879714,0.999999982019
1524837435680088996,0.0,0.0,0.000189638504368,0.999999982019
1524837435713354110,0.0,0.0,0.000189643638561,0.999999982018
1524837435733217954,0.0,0.0,0.000189646203823,0.999999982017
1524837435761445045,0.0,0.0,0.000189653173382,0.999999982016
1524837435783888101,0.0,0.0,0.000189657576092,0.999999982015
1524837435808871030,0.0,0.0,0.000151534686341,0.999999988519
1524837435836143016,0.0,0.0,0.000151537659235,0.999999988518
1524837435855710029,0.0,0.0,0.000151540437066,0.999999988518
1524837435891499042,0.0,0.0,0.000151556677291,0.999999988515
1524837435915297031,0.0,0.0,4.3896781474e-05,0.999999999037
1524837435932606935,0.0,0.0,4.3903853805e-05,0.999999999036
1524837435961921930,0.0,0.0,4.39113759083e-05,0.999999999036
1524837435981408119,0.0,0.0,4.39151688059e-05,0.999999999036
1524837436020127058,0.0,0.0,4.39277816382e-05,0.999999999035
1524837436038475990,0.0,0.0,-0.000112403405173,0.999999993683
1524837436061682939,0.0,0.0,-0.000112394138441,0.999999993684
1524837436086028099,0.0,0.0,-0.000112385490216,0.999999993685
1524837436107568025,0.0,0.0,-0.000112383624412,0.999999993685
1524837436138070106,0.0,0.0,-0.000112374375502,0.999999993686
1524837436167237043,0.0,0.0,-0.000112362903195,0.999999993687
1524837436186353921,0.0,0.0,-5.33251264821e-05,0.999999998578
1524837436210803985,0.0,0.0,-5.3301863376e-05,0.999999998579
1524837436235115051,0.0,0.0,-5.32990698212e-05,0.99999999858
1524837436259347915,0.0,0.0,-5.3299276984e-05,0.99999999858
1524837436296638965,0.0,0.0,-9.76475993687e-05,0.999999995232
1524837436311065912,0.0,0.0,-9.76317498947e-05,0.999999995234
1524837436340725898,0.0,0.0,-9.76224097106e-05,0.999999995235
1524837436366889953,0.0,0.0,-9.76154735261e-05,0.999999995236
1524837436390613079,0.0,0.0,-9.76101597048e-05,0.999999995236
1524837436411045074,0.0,0.0,-3.61213432704e-05,0.999999999348
1524837436440416097,0.0,0.0,-3.61176561866e-05,0.999999999348
1524837436464715957,0.0,0.0,-3.61136089692e-05,0.999999999348
1524837436493077039,0.0,0.0,-3.6107984519e-05,0.999999999348
1524837436525209903,0.0,0.0,-3.60946727529e-05,0.999999999349
1524837436542350053,0.0,0.0,-8.33624828805e-05,0.999999996525
1524837436572242021,0.0,0.0,-8.33554567167e-05,0.999999996526
1524837436589905977,0.0,0.0,-8.33510696543e-05,0.999999996526
1524837436613101959,0.0,0.0,-8.33510873302e-05,0.999999996526
1524837436637499094,0.0,0.0,-8.33484453784e-05,0.999999996527
1524837436665776014,0.0,0.0,-8.01038000141e-05,0.999999996792
1524837436694170951,0.0,0.0,-8.01005300972e-05,0.999999996792
1524837436710989952,0.0,0.0,-8.00994000023e-05,0.999999996792
1524837436747170925,0.0,0.0,-8.00924226872e-05,0.999999996793
1524837436762334108,0.0,0.0,-8.00891031513e-05,0.999999996793
1524837436793241024,0.0,0.0,8.39149258381e-05,0.999999996479
1524837436813602924,0.0,0.0,8.39154603615e-05,0.999999996479
1524837436847659111,0.0,0.0,8.39251848725e-05,0.999999996478
1524837436867552042,0.0,0.0,8.39296814787e-05,0.999999996478
1524837436889424085,0.0,0.0,8.39388797614e-05,0.999999996477
1524837436913351058,0.0,0.0,8.39416972717e-05,0.999999996477
1524837436952292919,0.0,0.0,-2.6124885661e-05,0.999999999659
1524837436977257966,0.0,0.0,3.95105788995e-05,0.999999999219
1524837436988667964,0.0,0.0,3.95143477837e-05,0.999999999219
1524837437019424915,0.0,0.0,3.95196169951e-05,0.999999999219
1524837437050497055,0.0,0.0,0.000137472430652,0.999999990551
1524837437067123889,0.0,0.0,0.000137474869278,0.99999999055
1524837437095980882,0.0,0.0,0.000137477750504,0.99999999055
1524837437121685028,0.0,0.0,0.000137484538309,0.999999990549
1524837437146437883,0.0,0.0,0.000137499490105,0.999999990547
1524837437166049957,0.0,0.0,7.54176331399e-05,0.999999997156
1524837437204693078,0.0,0.0,7.54341004183e-05,0.999999997155
1524837437217406988,0.0,0.0,7.54430359105e-05,0.999999997154
1524837437245251893,0.0,0.0,7.54512551598e-05,0.999999997154
1524837437264547109,0.0,0.0,7.5454163519e-05,0.999999997153
1524837437294563055,0.0,0.0,-5.22206826193e-05,0.999999998637
1524837437320106983,0.0,0.0,-5.22104311151e-05,0.999999998637
1524837437339893102,0.0,0.0,-5.22068700979e-05,0.999999998637
1524837437375241041,0.0,0.0,-5.219570378e-05,0.999999998638
1524837437395045995,0.0,0.0,-5.21855535274e-05,0.999999998638
1524837437417716026,0.0,0.0,0.000124303330014,0.999999992274
1524837437453376054,0.0,0.0,0.000124320970188,0.999999992272
1524837437469808101,0.0,0.0,0.000124322901061,0.999999992272
1524837437502245903,0.0,0.0,0.00012433233883,0.999999992271
1524837437515784978,0.0,0.0,0.000124335438388,0.99999999227
1524837437549458026,0.0,0.0,8.94341138695e-06,0.99999999996
1524837437585748910,0.0,0.0,8.95452715996e-06,0.99999999996
1524837437590914964,0.0,0.0,8.95733398439e-06,0.99999999996
1524837437623437881,0.0,0.0,8.9646721823e-06,0.99999999996
1524837437651539087,0.0,0.0,8.97208543509e-06,0.99999999996
1524837437688515901,0.0,0.0,8.97235361939e-06,0.99999999996
1524837437728267908,0.0,0.0,9.34975725221e-06,0.999999999956
1524837437728400945,0.0,0.0,9.35047016521e-06,0.999999999956
1524837437768313884,0.0,0.0,9.36454064426e-06,0.999999999956
1524837437770045995,0.0,0.0,9.37014600949e-06,0.999999999956
1524837437808073043,0.0,0.0,7.63483232157e-06,0.999999999971
1524837437848522901,0.0,0.0,7.63562419752e-06,0.999999999971
1524837437848737955,0.0,0.0,7.63613904199e-06,0.999999999971
1524837437888355970,0.0,0.0,7.64130928593e-06,0.999999999971
1524837437893583059,0.0,0.0,-2.19067398257e-05,0.99999999976
1524837437933480978,0.0,0.0,-2.18996554397e-05,0.99999999976
1524837437972822904,0.0,0.0,-2.18849647435e-05,0.999999999761
1524837437972996950,0.0,0.0,-2.18809742313e-05,0.999999999761
1524837438012109041,0.0,0.0,-2.18665163686e-05,0.999999999761
1524837438017700910,0.0,0.0,-2.18626729229e-05,0.999999999761
1524837438057210922,0.0,0.0,-2.18531986837e-05,0.999999999761
1524837438096811056,0.0,0.0,-2.1849262926e-05,0.999999999761
1524837438140089035,0.0,0.0,-2.18328499289e-05,0.999999999762
1524837438140217065,0.0,0.0,-2.18232091883e-05,0.999999999762
1524837438180548906,0.0,0.0,-2.1819874415e-05,0.999999999762
1524837438180738925,0.0,0.0,-2.18132905011e-05,0.999999999762
1524837438221846103,0.0,0.0,-2.1808065865e-05,0.999999999762
1524837438222608089,0.0,0.0,-2.18043085555e-05,0.999999999762
1524837438260109901,0.0,0.0,-2.17858274082e-05,0.999999999763
1524837438269853115,0.0,0.0,-2.17826316021e-05,0.999999999763
1524837438309653043,0.0,0.0,-2.176530022e-05,0.999999999763
1524837438349807024,0.0,0.0,-2.1750948876e-05,0.999999999763
1524837438350121021,0.0,0.0,-2.17481325967e-05,0.999999999764
1524837438388427019,0.0,0.0,-2.17355896333e-05,0.999999999764
1524837438402421951,0.0,0.0,-2.17222115517e-05,0.999999999764
1524837438444096088,0.0,0.0,-2.17189583012e-05,0.999999999764
1524837438484148979,0.0,0.0,-2.17169938242e-05,0.999999999764
1524837438484249114,0.0,0.0,-2.1716318188e-05,0.999999999764
1524837438524395942,0.0,0.0,-2.17079742537e-05,0.999999999764
1524837438535837888,0.0,0.0,-2.16944908842e-05,0.999999999765
1524837438572364091,0.0,0.0,-2.16926612958e-05,0.999999999765
1524837438612276077,0.0,0.0,-2.16902430781e-05,0.999999999765
1524837438612433910,0.0,0.0,-2.16834472621e-05,0.999999999765
1524837438652076005,0.0,0.0,-2.16806054281e-05,0.999999999765
1524837438652169942,0.0,0.0,-2.16790920248e-05,0.999999999765
1524837438694618940,0.0,0.0,-2.16789076729e-05,0.999999999765
1524837438702245950,0.0,0.0,-2.16782664232e-05,0.999999999765
1524837438740017890,0.0,0.0,-2.16742845341e-05,0.999999999765
1524837438780484914,0.0,0.0,-2.16731317558e-05,0.999999999765
1524837438820352077,0.0,0.0,-2.16691344686e-05,0.999999999765
1524837438820503950,0.0,0.0,-2.1662852349e-05,0.999999999765
1524837438860702037,0.0,0.0,-2.16596849874e-05,0.999999999765
1524837438860852003,0.0,0.0,-2.1658127077e-05,0.999999999765
1524837438900072097,0.0,0.0,-2.16567945934e-05,0.999999999765
1524837438906583070,0.0,0.0,-2.16459013431e-05,0.999999999766
1524837438944257974,0.0,0.0,-2.16433321408e-05,0.999999999766
1524837438984230041,0.0,0.0,-2.16407629384e-05,0.999999999766
1524837438984383106,0.0,0.0,-2.16336497711e-05,0.999999999766
1524837439024514913,0.0,0.0,-2.16260732015e-05,0.999999999766
1524837439027067899,0.0,0.0,-2.162495156e-05,0.999999999766
1524837439064130067,0.0,0.0,-2.16238299186e-05,0.999999999766
1524837439108072042,0.0,0.0,-2.16169150383e-05,0.999999999766
1524837439108163118,0.0,0.0,-2.16146302056e-05,0.999999999766
1524837439148207902,0.0,0.0,-2.16011695716e-05,0.999999999767
1524837439155513048,0.0,0.0,-2.15984959275e-05,0.999999999767
1524837439192092895,0.0,0.0,-2.15873671659e-05,0.999999999767
1524837439233118057,0.0,0.0,-2.15842473852e-05,0.999999999767
1524837439273123025,0.0,0.0,-2.15673848777e-05,0.999999999767
1524837439273397922,0.0,0.0,-2.15553745308e-05,0.999999999768
1524837439313369035,0.0,0.0,-2.15485864736e-05,0.999999999768
1524837439313934087,0.0,0.0,-2.15318364311e-05,0.999999999768
1524837439352457046,0.0,0.0,-2.15254883964e-05,0.999999999768
1524837439357938051,0.0,0.0,-2.15180902864e-05,0.999999999768
1524837439396035909,0.0,0.0,-2.1514721979e-05,0.999999999769
1524837439436366081,0.0,0.0,-2.15073439505e-05,0.999999999769
1524837439476353883,0.0,0.0,-2.14773706414e-05,0.999999999769
1524837439476485967,0.0,0.0,-2.14742841903e-05,0.999999999769
1524837439517101049,0.0,0.0,-2.145996956e-05,0.99999999977
1524837439517287015,0.0,0.0,-2.1456826103e-05,0.99999999977
1524837439556579113,0.0,0.0,-2.14544550688e-05,0.99999999977
1524837439556711912,0.0,0.0,-2.14518754557e-05,0.99999999977
1524837439597382068,0.0,0.0,-2.14463915536e-05,0.99999999977
1524837439611280918,0.0,0.0,-2.14352522951e-05,0.99999999977
1524837439648427009,0.0,0.0,-2.14322604147e-05,0.99999999977
1524837439688122034,0.0,0.0,-2.14282014121e-05,0.99999999977
1524837439728349924,0.0,0.0,-2.14236517316e-05,0.999999999771
1524837439728631973,0.0,0.0,-2.14220815752e-05,0.999999999771
1524837439774039983,0.0,0.0,-2.14204224795e-05,0.999999999771
1524837439774895906,0.0,0.0,-2.14169264513e-05,0.999999999771
1524837439808330059,0.0,0.0,-2.14126472371e-05,0.999999999771
1524837439808455944,0.0,0.0,-2.14105332511e-05,0.999999999771
1524837439853359937,0.0,0.0,-2.14032796413e-05,0.999999999771
1524837439865426063,0.0,0.0,-2.13975314744e-05,0.999999999771
1524837439904180049,0.0,0.0,-2.13950759348e-05,0.999999999771
1524837439944228887,0.0,0.0,-2.13918687319e-05,0.999999999771
1524837439944349050,0.0,0.0,-2.13861607453e-05,0.999999999771
1524837439984180927,0.0,0.0,-2.13831392803e-05,0.999999999771
1524837439991910934,0.0,0.0,-0.000580793950021,0.999999831339
1524837440032058000,0.0,0.0,-0.00058079259744,0.99999983134
1524837440073463916,0.0,0.0,-0.000290102782264,0.99999995792
1524837440073890924,0.0,0.0,-0.000290101149597,0.999999957921
1524837440116229057,0.0,0.0,-0.00029009024678,0.999999957924
1524837440116374015,0.0,0.0,-0.000290087530579,0.999999957925
1524837440156152009,0.0,0.0,-0.00029007701693,0.999999957928
1524837440164699077,0.0,0.0,1.0397913217e-05,0.999999999946
1524837440205173969,0.0,0.0,1.04014843967e-05,0.999999999946
1524837440244160890,0.0,0.0,1.0409002084e-05,0.999999999946
1524837440244292020,0.0,0.0,1.04241948346e-05,0.999999999946
1524837440284434080,0.0,0.0,1.04281602274e-05,0.999999999946
1524837440294058084,0.0,0.0,1.0439081169e-05,0.999999999946
1524837440332246065,0.0,0.0,1.04431169847e-05,0.999999999945
1524837440373971939,0.0,0.0,0.000174944276232,0.999999984697
1524837440374721050,0.0,0.0,0.000174950679689,0.999999984696
1524837440412326097,0.0,0.0,0.000174953593425,0.999999984696
1524837440417787075,0.0,0.0,-0.000174297469132,0.99999998481
1524837440456201076,0.0,0.0,-0.000174294928482,0.999999984811
1524837440495955944,0.0,0.0,-0.000174293507037,0.999999984811
1524837440496074914,0.0,0.0,-0.000174288969713,0.999999984812
1524837440536561012,0.0,0.0,-0.000174285786767,0.999999984812
1524837440543791055,0.0,0.0,-0.000188729220585,0.999999982191
1524837440580003023,0.0,0.0,-0.000188722559458,0.999999982192
1524837440621381998,0.0,0.0,-0.000188719191794,0.999999982193
1524837440660595893,0.0,0.0,-0.000188719011151,0.999999982193
1524837440660824060,0.0,0.0,-0.000188717113212,0.999999982193
1524837440700642108,0.0,0.0,0.000697808701266,0.999999756531
1524837440700777053,0.0,0.0,0.000697823481011,0.999999756521
1524837440740690946,0.0,0.0,0.000697825150059,0.99999975652
1524837440743462085,0.0,0.0,0.000697831438455,0.999999756516
1524837440780580997,0.0,0.0,0.000697837218655,0.999999756512
1524837440821356058,0.0,0.0,0.000697839290661,0.99999975651
1524837440860208988,0.0,0.0,0.000697839790599,0.99999975651
1524837440860313892,0.0,0.0,0.000212519537218,0.999999977418
1524837440901429891,0.0,0.0,0.000212528710185,0.999999977416
1524837440901949882,0.0,0.0,0.000212532050053,0.999999977415
1524837440940028905,0.0,0.0,0.000518708008489,0.999999865471
1524837440948847055,0.0,0.0,0.000518712396184,0.999999865469
1524837440988358020,0.0,0.0,0.000518716375152,0.999999865467
1524837441028264045,0.0,0.0,0.000518719775828,0.999999865465
1524837441028400897,0.0,0.0,0.000518725291751,0.999999865462
1524837441068409919,0.0,0.0,0.000518731253374,0.999999865459
1524837441068584918,0.0,0.0,0.000518733890145,0.999999865458
1524837441108166933,0.0,0.0,8.43070564539e-05,0.999999996446
1524837441118001937,0.0,0.0,8.43103364895e-05,0.999999996446
1524837441156389951,0.0,0.0,8.43203227999e-05,0.999999996445
1524837441196549892,0.0,0.0,0.000108595199674,0.999999994104
1524837441196702957,0.0,0.0,0.000108598596108,0.999999994103
1524837441236306905,0.0,0.0,0.000108613535363,0.999999994102
1524837441255073070,0.0,0.0,0.000108623801875,0.9999999941
1524837441292274951,0.0,0.0,0.000436957828563,0.999999904534
1524837441332218885,0.0,0.0,0.000436964200785,0.999999904531
1524837441332329988,0.0,0.0,0.000436970881545,0.999999904528
1524837441373625040,0.0,0.0,0.00043697789689,0.999999904525
1524837441373863935,0.0,0.0,0.000436981272867,0.999999904524
1524837441412993907,0.0,0.0,0.000486897372594,0.999999881465
1524837441452115058,0.0,0.0,0.000486905221126,0.999999881462
1524837441452229976,0.0,0.0,0.000486909794246,0.999999881459
1524837441492197036,0.0,0.0,0.000486919505008,0.999999881455
1524837441501806974,0.0,0.0,0.00048693808518,0.999999881446
1524837441540992021,0.0,0.0,0.00048694196438,0.999999881444
1524837441581454038,0.0,0.0,0.000329428577154,0.999999945738
1524837441581984043,0.0,0.0,0.00032943835261,0.999999945735
1524837441620220899,0.0,0.0,0.000329447859314,0.999999945732
1524837441623028993,0.0,0.0,0.000329450568016,0.999999945731
1524837441660248041,0.0,0.0,0.000329453116004,0.99999994573
1524837441701359987,0.0,0.0,0.000159288213149,0.999999987314
1524837441740097999,0.0,0.0,0.000159293796952,0.999999987313
1524837441740231037,0.0,0.0,0.000159297059904,0.999999987312
1524837441780978918,0.0,0.0,0.000159299916126,0.999999987312
1524837441781239986,0.0,0.0,0.000159300337815,0.999999987312
1524837441820221900,0.0,0.0,0.000159301943041,0.999999987311
1524837441838105916,0.0,0.0,0.00013960231303,0.999999990256
1524837441876365900,0.0,0.0,0.000139603835212,0.999999990255
1524837441916587114,0.0,0.0,0.000139611340513,0.999999990254
1524837441916712045,0.0,0.0,-0.000260156074156,0.999999966159
1524837441957170009,0.0,0.0,-0.000260160059031,0.999999966158
1524837441957238912,0.0,0.0,-0.000260154269498,0.99999996616
1524837441996161937,0.0,0.0,-0.000260152058907,0.99999996616
1524837442009576082,0.0,0.0,-0.000260148262301,0.999999966161
1524837442049643993,0.0,0.0,-0.000260145707816,0.999999966162
1524837442088135957,0.0,0.0,-0.000260137917345,0.999999966164
1524837442088254928,0.0,0.0,-0.000260133369736,0.999999966165
1524837442128774881,0.0,0.0,-0.000260129164399,0.999999966166
1524837442137389898,0.0,0.0,-0.000260110854566,0.999999966171
1524837442184683084,0.0,0.0,-0.000260107769518,0.999999966172
1524837442220487117,0.0,0.0,-0.000260100837995,0.999999966174
1524837442220678091,0.0,0.0,-0.000260096146867,0.999999966175
1524837442261610031,0.0,0.0,-0.000260089639226,0.999999966177
1524837442262068033,0.0,0.0,-0.000260086232804,0.999999966178
1524837442300236940,0.0,0.0,-0.000260076698141,0.99999996618
1524837442306016921,0.0,0.0,-0.000260062923029,0.999999966184
1524837442344095945,0.0,0.0,-0.000260058787762,0.999999966185
1524837442383985996,0.0,0.0,-0.000260043247778,0.999999966189
1524837442384063959,0.0,0.0,-0.000260040492179,0.999999966189
1524837442424350023,0.0,0.0,-0.00026002872742,0.999999966193
1524837442433267116,0.0,0.0,-0.000260014781674,0.999999966196
1524837442472366094,0.0,0.0,-0.000260011209824,0.999999966197
1524837442512356996,0.0,0.0,-0.000260000548591,0.9999999662
1524837442512438058,0.0,0.0,-0.000259987932005,0.999999966203
1524837442555680036,0.0,0.0,-0.0002599863336,0.999999966204
1524837442557342052,0.0,0.0,-0.000259984201623,0.999999966204
1524837442596175909,0.0,0.0,-0.000259978714652,0.999999966206
1524837442637305974,0.0,0.0,-0.000259967826902,0.999999966208
1524837442637809991,0.0,0.0,-0.000259965501569,0.999999966209
1524837442676311016,0.0,0.0,-0.000259954791348,0.999999966212
1524837442678035974,0.0,0.0,-0.000259952566923,0.999999966212
1524837442716486930,0.0,0.0,-0.00025994545148,0.999999966214
1524837442759854078,0.0,0.0,-0.000259944671367,0.999999966214
1524837442797363996,0.0,0.0,-0.000259937078763,0.999999966216
1524837442797853946,0.0,0.0,-0.000259938298971,0.999999966216
1524837442836266040,0.0,0.0,-0.000259938149448,0.999999966216
1524837442836393117,0.0,0.0,-0.000259935864361,0.999999966217
1524837442876553058,0.0,0.0,-0.000259934928561,0.999999966217
1524837442890538930,0.0,0.0,-0.000259932083949,0.999999966218
1524837442929601907,0.0,0.0,-0.000259930464399,0.999999966218
1524837442968558073,0.0,0.0,-0.00025993307596,0.999999966217
1524837442968720912,0.0,0.0,-0.000259932334367,0.999999966218
1524837443008188962,0.0,0.0,-0.000259931011433,0.999999966218
1524837443013453006,0.0,0.0,-0.000259924372465,0.99999996622
1524837443053097009,0.0,0.0,-0.00025992216347,0.99999996622
1524837443092257022,0.0,0.0,-0.000259908227797,0.999999966224
1524837443092411041,0.0,0.0,-0.000259905592499,0.999999966225
1524837443132558107,0.0,0.0,-0.000259898446987,0.999999966226
1524837443135370016,0.0,0.0,-0.000259893492129,0.999999966228
1524837443172606945,0.0,0.0,-0.000259891459621,0.999999966228
1524837443212600946,0.0,0.0,-0.000259887653152,0.999999966229
1524837443253812074,0.0,0.0,-0.000259877673264,0.999999966232
1524837443254352092,0.0,0.0,-0.000259874538178,0.999999966233
1524837443292710065,0.0,0.0,-0.000259865575749,0.999999966235
1524837443292987108,0.0,0.0,-0.00025985243039,0.999999966238
1524837443332633018,0.0,0.0,-0.000259848816341,0.999999966239
1524837443341533899,0.0,0.0,-0.000259840509663,0.999999966241
1524837443384000062,0.0,0.0,-0.000259837246208,0.999999966242
1524837443424082040,0.0,0.0,-0.000259824150069,0.999999966246
1524837443424174070,0.0,0.0,-0.000259803397278,0.999999966251
1524837443464389085,0.0,0.0,-0.000259799497492,0.999999966252
1524837443466025114,0.0,0.0,-0.000259791653048,0.999999966254
1524837443504699945,0.0,0.0,-0.000259774943471,0.999999966258
1524837443544195890,0.0,0.0,-0.000259771535427,0.999999966259
1524837443544373035,0.0,0.0,-0.000259764945577,0.999999966261
1524837443584260940,0.0,0.0,-0.000259760487801,0.999999966262
1524837443592734098,0.0,0.0,-0.000259749625732,0.999999966265
1524837443633662939,0.0,0.0,-0.000259738895817,0.999999966268
1524837443672297954,0.0,0.0,-0.000259735395442,0.999999966269
1524837443672441959,0.0,0.0,-0.000259725340145,0.999999966271
1524837443712253093,0.0,0.0,-0.000259724431052,0.999999966272
1524837443717799901,0.0,0.0,-0.000259716425907,0.999999966274
1524837443756263971,0.0,0.0,-0.000259708861497,0.999999966276
1524837443797056913,0.0,0.0,-0.00025970596232,0.999999966276
1524837443797389984,0.0,0.0,-0.000259701056666,0.999999966278
1524837443836375951,0.0,0.0,-0.000259699165834,0.999999966278
1524837443844295024,0.0,0.0,-0.000259695398156,0.999999966279
1524837443884526968,0.0,0.0,-0.000259687792505,0.999999966281
1524837443925755023,0.0,0.0,-0.000259686588895,0.999999966281
1524837443926460027,0.0,0.0,-0.000259682954356,0.999999966282
1524837443964432001,0.0,0.0,-0.000259682273795,0.999999966283
1524837443967700004,0.0,0.0,-0.00025967759729,0.999999966284
1524837444003998994,0.0,0.0,0.00045246391754,0.999999897638
1524837444044498920,0.0,0.0,0.000452460984978,0.99999989764
1524837444084654092,0.0,0.0,0.000452461778246,0.999999897639
1524837444084872961,0.0,0.0,0.000452463938764,0.999999897638
1524837444124041080,0.0,0.0,9.91955709157e-05,0.99999999508
1524837444124131917,0.0,0.0,9.91977556165e-05,0.99999999508
1524837444164225101,0.0,0.0,9.92054443311e-05,0.999999995079
1524837444172841072,0.0,0.0,9.92121082139e-05,0.999999995078
1524837444212137937,0.0,0.0,3.69677920857e-05,0.999999999317
1524837444252357959,0.0,0.0,3.69778461044e-05,0.999999999316
1524837444252540111,0.0,0.0,3.69907583575e-05,0.999999999316
1524837444293617010,0.0,0.0,3.69930735538e-05,0.999999999316
1524837444299283981,0.0,0.0,1.07058501321e-05,0.999999999943
1524837444337255001,0.0,0.0,1.07081521485e-05,0.999999999943
1524837444377337932,0.0,0.0,1.07186595582e-05,0.999999999943
1524837444377479076,0.0,0.0,1.07304694568e-05,0.999999999942
1524837444417208909,0.0,0.0,1.07327807113e-05,0.999999999942
1524837444426157951,0.0,0.0,0.000123947441379,0.999999992319
1524837444465076923,0.0,0.0,0.000123950868928,0.999999992318
1524837444505459070,0.0,0.0,0.000123963888044,0.999999992316
1524837444505857944,0.0,0.0,0.000123983536998,0.999999992314
1524837444544655084,0.0,0.0,0.000123988788486,0.999999992313
1524837444551145076,0.0,0.0,-0.000289888339269,0.999999957982
1524837444590758085,0.0,0.0,-0.0002898844418,0.999999957984
1524837444628087043,0.0,0.0,-0.000289881870043,0.999999957984
1524837444628204107,0.0,0.0,-0.000289878786887,0.999999957985
1524837444668193101,0.0,0.0,-0.00028985858349,0.999999957991
1524837444675930976,0.0,0.0,-0.000206630697939,0.999999978652
1524837444712033987,0.0,0.0,-0.000206623346856,0.999999978653
1524837444752700090,0.0,0.0,-0.00020661918254,0.999999978654
1524837444752970933,0.0,0.0,-0.000206614662652,0.999999978655
1524837444794998884,0.0,0.0,-0.000206604432612,0.999999978657
1524837444796201944,0.0,0.0,-0.000206602295051,0.999999978658
1524837444832297086,0.0,0.0,-5.95580152299e-05,0.999999998226
1524837444873095989,0.0,0.0,-5.95570814526e-05,0.999999998226
1524837444912492990,0.0,0.0,-5.95531452185e-05,0.999999998227
1524837444912739038,0.0,0.0,-5.95524918966e-05,0.999999998227
1524837444952792882,0.0,0.0,-5.95525144173e-05,0.999999998227
1524837444952912092,0.0,0.0,0.000155213944646,0.999999987954
1524837444992624044,0.0,0.0,0.000155229578195,0.999999987952
1524837444995400905,0.0,0.0,0.000155231221815,0.999999987952
1524837445031984090,0.0,0.0,0.000155232125416,0.999999987951
1524837445073000907,0.0,0.0,5.88460847982e-05,0.999999998269
1524837445112166881,0.0,0.0,5.88507841517e-05,0.999999998268
1524837445112301111,0.0,0.0,5.88525494809e-05,0.999999998268
1524837445152192115,0.0,0.0,5.88571792316e-05,0.999999998268
1524837445152347087,0.0,0.0,5.88589186672e-05,0.999999998268
1524837445192312002,0.0,0.0,1.93865995797e-05,0.999999999812
1524837445202330112,0.0,0.0,1.93989454071e-05,0.999999999812
1524837445240015983,0.0,0.0,1.94007630306e-05,0.999999999812
1524837445280174016,0.0,0.0,1.94069498971e-05,0.999999999812
1524837445280303955,0.0,0.0,1.94104057439e-05,0.999999999812
1524837445321976900,0.0,0.0,-0.000335085932201,0.999999943859
1524837445328352928,0.0,0.0,-0.000335070618904,0.999999943864
1524837445369292974,0.0,0.0,-0.000335066152258,0.999999943865
1524837445409764051,0.0,0.0,-0.00033505164762,0.99999994387
1524837445410494089,0.0,0.0,-0.000335035949905,0.999999943875
1524837445447988986,0.0,0.0,-0.000335032037086,0.999999943877
1524837445448065996,0.0,0.0,-4.13453044548e-05,0.999999999145
1524837445488264083,0.0,0.0,-4.1326727796e-05,0.999999999146
1524837445499886989,0.0,0.0,-4.13110045623e-05,0.999999999147
1524837445536945104,0.0,0.0,-4.13079669618e-05,0.999999999147
1524837445580739021,0.0,0.0,-4.12964865624e-05,0.999999999147
1524837445581279993,0.0,0.0,-4.12866602506e-05,0.999999999148
1524837445620424985,0.0,0.0,-1.63255111644e-05,0.999999999867
1524837445620804071,0.0,0.0,-1.63213841345e-05,0.999999999867
1524837445660036087,0.0,0.0,-1.63093162926e-05,0.999999999867
1524837445700964927,0.0,0.0,2.59259646683e-05,0.999999999664
1524837445701221942,0.0,0.0,2.59290354812e-05,0.999999999664
1524837445740780115,0.0,0.0,2.5937281483e-05,0.999999999664
1524837445749880075,0.0,0.0,2.59421297367e-05,0.999999999664
1524837445789370059,0.0,0.0,2.59467822182e-05,0.999999999663
1524837445828067064,0.0,0.0,2.59483467491e-05,0.999999999663
1524837445869143009,0.0,0.0,-1.54498495152e-05,0.999999999881
1524837445869488954,0.0,0.0,-1.5440942474e-05,0.999999999881
1524837445908333063,0.0,0.0,-1.54386738087e-05,0.999999999881
1524837445908442020,0.0,0.0,-1.54270800103e-05,0.999999999881
1524837445949460029,0.0,0.0,-2.05232780293e-05,0.999999999789
1524837445952207088,0.0,0.0,-2.05216140056e-05,0.999999999789
1524837445988183975,0.0,0.0,-2.05198824084e-05,0.999999999789
1524837446028244972,0.0,0.0,-2.05181411149e-05,0.99999999979
1524837446068428039,0.0,0.0,-2.05165116666e-05,0.99999999979
1524837446068614959,0.0,0.0,-2.05145243047e-05,0.99999999979
1524837446108992099,0.0,0.0,-2.05128134813e-05,0.99999999979
1524837446109343051,0.0,0.0,-2.05041564116e-05,0.99999999979
1524837446148294925,0.0,0.0,-2.04924036096e-05,0.99999999979
1524837446192133903,0.0,0.0,-2.04915720246e-05,0.99999999979
1524837446192233085,0.0,0.0,-2.04866621206e-05,0.99999999979
1524837446234869956,0.0,0.0,-2.04843685358e-05,0.99999999979
1524837446236278057,0.0,0.0,-2.04782830689e-05,0.99999999979
1524837446272456884,0.0,0.0,-2.04763826994e-05,0.99999999979
1524837446312196969,0.0,0.0,-2.04725592102e-05,0.99999999979
1524837446312345027,0.0,0.0,-2.04697303784e-05,0.99999999979
1524837446352202892,0.0,0.0,-2.04573600096e-05,0.999999999791
1524837446353436946,0.0,0.0,-2.04497915732e-05,0.999999999791
1524837446392103910,0.0,0.0,-2.04469868701e-05,0.999999999791
1524837446433234930,0.0,0.0,-2.04384299179e-05,0.999999999791
1524837446433691978,0.0,0.0,-2.04347418047e-05,0.999999999791
1524837446472235918,0.0,0.0,-2.04157587473e-05,0.999999999792
1524837446477389097,0.0,0.0,-2.04101589041e-05,0.999999999792
1524837446516228914,0.0,0.0,-2.04004816464e-05,0.999999999792
1524837446556998968,0.0,0.0,-2.03979725519e-05,0.999999999792
1524837446596632003,0.0,0.0,-2.0392836267e-05,0.999999999792
1524837446597018003,0.0,0.0,-2.03736105061e-05,0.999999999792
1524837446640269994,0.0,0.0,-2.03703794372e-05,0.999999999793
1524837446640373945,0.0,0.0,-2.03570728866e-05,0.999999999793
1524837446680294990,0.0,0.0,-2.03536933949e-05,0.999999999793
1524837446684609889,0.0,0.0,-2.03418415658e-05,0.999999999793
1524837446724934101,0.0,0.0,-2.03380807801e-05,0.999999999793
1524837446764272928,0.0,0.0,-2.03345593145e-05,0.999999999793
1524837446804280042,0.0,0.0,-2.03193477026e-05,0.999999999794
1524837446804425954,0.0,0.0,-2.0316484482e-05,0.999999999794
1524837446844646930,0.0,0.0,-2.03063476117e-05,0.999999999794
1524837446844918966,0.0,0.0,-2.03011325923e-05,0.999999999794
1524837446889317989,0.0,0.0,-2.02982587476e-05,0.999999999794
1524837446889631986,0.0,0.0,-2.02957065468e-05,0.999999999794
1524837446928210020,0.0,0.0,-2.02934770532e-05,0.999999999794
1524837446932718038,0.0,0.0,-2.02863200172e-05,0.999999999794
1524837446972182035,0.0,0.0,-2.02769742276e-05,0.999999999794
1524837447012417078,0.0,0.0,-2.02756005913e-05,0.999999999794
1524837447012576103,0.0,0.0,-2.02741697323e-05,0.999999999794
1524837447052830934,0.0,0.0,-2.02727563239e-05,0.999999999795
1524837447061763048,0.0,0.0,-2.02646442782e-05,0.999999999795
1524837447101152896,0.0,0.0,-2.0256257074e-05,0.999999999795
1524837447141839027,0.0,0.0,-2.02538813503e-05,0.999999999795
1524837447142148971,0.0,0.0,-2.0247976503e-05,0.999999999795
1524837447180133104,0.0,0.0,-2.02400847222e-05,0.999999999795
1524837447180429935,0.0,0.0,-2.02388048102e-05,0.999999999795
1524837447220119953,0.0,0.0,-2.0232759185e-05,0.999999999795
1524837447260130882,0.0,0.0,-2.02290912574e-05,0.999999999795
1524837447300334930,0.0,0.0,-2.02211275966e-05,0.999999999796
1524837447300473928,0.0,0.0,-2.02139304858e-05,0.999999999796
1524837447340245008,0.0,0.0,-2.02134494666e-05,0.999999999796
1524837447340401887,0.0,0.0,-2.02070838102e-05,0.999999999796
1524837447380722999,0.0,0.0,-2.02015453829e-05,0.999999999796
1524837447382095098,0.0,0.0,-2.01972055612e-05,0.999999999796
1524837447421314001,0.0,0.0,-2.01952916289e-05,0.999999999796
1524837447460086107,0.0,0.0,-2.0191109151e-05,0.999999999796
1524837447500371932,0.0,0.0,-2.01736903013e-05,0.999999999797
1524837447500600099,0.0,0.0,-2.01696569624e-05,0.999999999797
1524837447540380001,0.0,0.0,-2.01618061607e-05,0.999999999797
1524837447540642023,0.0,0.0,-2.01586617612e-05,0.999999999797
1524837447580212116,0.0,0.0,-2.01494429755e-05,0.999999999797
1524837447580495119,0.0,0.0,-2.01466096067e-05,0.999999999797
1524837447620115041,0.0,0.0,-2.01353633688e-05,0.999999999797
1524837447660496950,0.0,0.0,-2.01289997598e-05,0.999999999797
1524837447660655021,0.0,0.0,-2.0125609028e-05,0.999999999797
1524837447700488090,0.0,0.0,-2.0117257586e-05,0.999999999798
1524837447718955039,0.0,0.0,-2.01069139903e-05,0.999999999798
1524837447756000995,0.0,0.0,-2.01045750663e-05,0.999999999798
1524837447800718069,0.0,0.0,-2.00959694787e-05,0.999999999798
1524837447801307916,0.0,0.0,-2.00866413348e-05,0.999999999798
1524837447840089082,0.0,0.0,-2.00863593103e-05,0.999999999798
1524837447843770027,0.0,0.0,-2.00818655598e-05,0.999999999798
1524837447880492925,0.0,0.0,-2.0080578699e-05,0.999999999798
1524837447920150041,0.0,0.0,-2.00766277481e-05,0.999999999798
1524837447960371971,0.0,0.0,-2.00695228118e-05,0.999999999799
1524837447960550069,0.0,0.0,-2.0067424836e-05,0.999999999799
1524837448000503063,0.0,0.0,-2.00594985332e-05,0.999999999799
1524837448000700950,0.0,0.0,-2.00572019406e-05,0.999999999799
1524837448040206909,0.0,0.0,-2.00533302017e-05,0.999999999799
1524837448040354013,0.0,0.0,-2.00517844514e-05,0.999999999799
1524837448081625938,0.0,0.0,-2.00471998172e-05,0.999999999799
1524837448095957994,0.0,0.0,-2.0038822545e-05,0.999999999799
1524837448133147954,0.0,0.0,-2.00367776801e-05,0.999999999799
1524837448172216892,0.0,0.0,-2.00336150992e-05,0.999999999799
1524837448212568044,0.0,0.0,-2.00223770961e-05,0.9999999998
1524837448212812900,0.0,0.0,-2.00198298705e-05,0.9999999998
1524837448252238035,0.0,0.0,-2.00227644117e-05,0.9999999998
1524837448252410888,0.0,0.0,-2.00217960915e-05,0.9999999998
1524837448292104005,0.0,0.0,-2.0020005051e-05,0.9999999998
1524837448293574094,0.0,0.0,-2.00153073339e-05,0.9999999998
1524837448332541942,0.0,0.0,-2.00053820267e-05,0.9999999998
1524837448372981071,0.0,0.0,-2.00023583053e-05,0.9999999998
1524837448413465023,0.0,0.0,-1.9976858039e-05,0.9999999998
1524837448413835048,0.0,0.0,-1.9974222616e-05,0.999999999801
1524837448456531047,0.0,0.0,-1.99662559523e-05,0.999999999801
1524837448456743001,0.0,0.0,-1.99579214977e-05,0.999999999801
1524837448497206926,0.0,0.0,-1.99558140137e-05,0.999999999801
1524837448502465009,0.0,0.0,-1.9941278882e-05,0.999999999801
1524837448540111064,0.0,0.0,-1.99244827611e-05,0.999999999802
1524837448580359935,0.0,0.0,-1.99182951647e-05,0.999999999802
1524837448580533981,0.0,0.0,-1.99132002164e-05,0.999999999802
1524837448620366096,0.0,0.0,-1.99087441672e-05,0.999999999802
1524837448622519969,0.0,0.0,-1.98940440912e-05,0.999999999802
1524837448660196065,0.0,0.0,-1.98838945267e-05,0.999999999802
1524837448700757980,0.0,0.0,-1.98764207793e-05,0.999999999802
1524837448700870037,0.0,0.0,-1.98729811109e-05,0.999999999803
1524837448740398883,0.0,0.0,-1.98692854747e-05,0.999999999803
1524837448754205942,0.0,0.0,-1.98504736724e-05,0.999999999803
1524837448792490959,0.0,0.0,-1.98470383694e-05,0.999999999803
1524837448832715034,0.0,0.0,-1.98378622451e-05,0.999999999803
1524837448832973957,0.0,0.0,-1.98356626618e-05,0.999999999803
1524837448872137069,0.0,0.0,-1.98257777496e-05,0.999999999803
1524837448874933958,0.0,0.0,-1.98187824763e-05,0.999999999804
1524837448913312911,0.0,0.0,-1.98171181666e-05,0.999999999804
1524837448952200889,0.0,0.0,-1.98151101288e-05,0.999999999804
1524837448952339887,0.0,0.0,-1.98129058716e-05,0.999999999804
1524837448992254018,0.0,0.0,-1.98077099313e-05,0.999999999804
1524837448999584913,0.0,0.0,-1.97991957867e-05,0.999999999804
1524837449036226034,0.0,0.0,-1.97969668176e-05,0.999999999804
1524837449076426982,0.0,0.0,-1.97929875038e-05,0.999999999804
1524837449076630115,0.0,0.0,-1.97908096314e-05,0.999999999804
1524837449116043090,0.0,0.0,-1.97846142169e-05,0.999999999804
1524837449126070022,0.0,0.0,-1.97805434554e-05,0.999999999804
1524837449164050102,0.0,0.0,-1.97790417042e-05,0.999999999804
1524837449208395004,0.0,0.0,-1.97764384635e-05,0.999999999804
1524837449208542108,0.0,0.0,-1.97752258655e-05,0.999999999804
1524837449248184919,0.0,0.0,-1.97716729628e-05,0.999999999805
1524837449256795883,0.0,0.0,-1.97639489041e-05,0.999999999805
1524837449292439937,0.0,0.0,-1.97616981196e-05,0.999999999805
1524837449332500934,0.0,0.0,-1.97505138937e-05,0.999999999805
1524837449332709074,0.0,0.0,-1.97470628505e-05,0.999999999805
1524837449372335910,0.0,0.0,-1.97416369459e-05,0.999999999805
1524837449372621059,0.0,0.0,-1.97394084327e-05,0.999999999805
1524837449413095951,0.0,0.0,-1.97358866902e-05,0.999999999805
1524837449452560901,0.0,0.0,-1.97161824199e-05,0.999999999806
1524837449452769041,0.0,0.0,-1.97126750042e-05,0.999999999806
1524837449493256092,0.0,0.0,-1.96923910269e-05,0.999999999806
1524837449499762058,0.0,0.0,-1.9689873721e-05,0.999999999806
1524837449536041975,0.0,0.0,-1.96871076417e-05,0.999999999806
1524837449576365947,0.0,0.0,-1.96650628257e-05,0.999999999807
1524837449576495885,0.0,0.0,-1.96612529701e-05,0.999999999807
1524837449617717027,0.0,0.0,-1.96467360043e-05,0.999999999807
1524837449622819900,0.0,0.0,-1.96429226294e-05,0.999999999807
1524837449661164999,0.0,0.0,-1.9636157658e-05,0.999999999807
1524837449700947999,0.0,0.0,-1.96276140176e-05,0.999999999807
1524837449740072965,0.0,0.0,-1.96232098338e-05,0.999999999807
1524837449740169048,0.0,0.0,-1.96069051961e-05,0.999999999808
1524837449780086994,0.0,0.0,-1.96023483088e-05,0.999999999808
1524837449780164003,0.0,0.0,-1.95898945978e-05,0.999999999808
1524837449821258068,0.0,0.0,-1.95858660234e-05,0.999999999808
1524837449831382036,0.0,0.0,-1.95737947722e-05,0.999999999808
1524837449872189998,0.0,0.0,-1.95592541042e-05,0.999999999809
1524837449909573078,0.0,0.0,-1.95557262625e-05,0.999999999809
1524837449910401105,0.0,0.0,-1.95480851363e-05,0.999999999809
1524837449950014114,0.0,0.0,-1.95389871877e-05,0.999999999809
1524837449953444957,0.0,0.0,-1.95364483268e-05,0.999999999809
1524837449992257118,0.0,0.0,-1.9534942881e-05,0.999999999809
1524837450033544063,0.0,0.0,-1.95331580186e-05,0.999999999809
1524837450033936023,0.0,0.0,-1.95299722997e-05,0.999999999809
1524837450072177886,0.0,0.0,-1.95215209054e-05,0.999999999809
1524837450077588081,0.0,0.0,-1.95209333496e-05,0.999999999809
1524837450116916894,0.0,0.0,-1.95156333139e-05,0.99999999981
1524837450156820058,0.0,0.0,-1.95141352654e-05,0.99999999981
1524837450156949996,0.0,0.0,-1.95127371277e-05,0.99999999981
1524837450201333045,0.0,0.0,-1.95104576114e-05,0.99999999981
1524837450206849098,0.0,0.0,-1.95083572596e-05,0.99999999981
1524837450244059085,0.0,0.0,-1.95072808298e-05,0.99999999981
1524837450284127950,0.0,0.0,-0.000962021831784,0.999999537257
1524837450284245014,0.0,0.0,-0.00168223082203,0.999998585049
1524837450324090003,0.0,0.0,-0.00670414089421,0.999977526995
1524837450336118936,0.0,0.0,-0.0142460992496,0.999898519179
1524837450372314929,0.0,0.0,-0.0162119504871,0.999868577695
1524837450412060022,0.0,0.0,-0.0224847893737,0.999747185166
1524837450453252077,0.0,0.0,-0.0332726642275,0.999446311622
1524837450453629016,0.0,0.0,-0.0352770460756,0.999377571301
1524837450494191884,0.0,0.0,-0.0414417601542,0.99914092125
1524837450494610071,0.0,0.0,-0.0437435011351,0.999042794933
1524837450532228946,0.0,0.0,-0.0522738809712,0.998632786047
1524837450536338090,0.0,0.0,-0.0548239859109,0.998496034328
1524837450571993112,0.0,0.0,-0.0569685801852,0.998375971702
1524837450612458944,0.0,0.0,-0.0737340813488,0.997277937813
1524837450612649917,0.0,0.0,-0.0757976428458,0.99712322074
1524837450652065038,0.0,0.0,-0.0777057615254,0.996976336041
1524837450667737960,0.0,0.0,-0.0813307867294,0.996687164124
1524837450704185962,0.0,0.0,-0.0888698872207,0.996043243612
1524837450748640060,0.0,0.0,-0.0914020769008,0.995814069161
1524837450748852014,0.0,0.0,-0.0987062985742,0.99511660956
1524837450788428068,0.0,0.0,-0.100807472151,0.994905952117
1524837450793535947,0.0,0.0,-0.1026827705,0.994714154239
1524837450832158088,0.0,0.0,-0.104073344272,0.99456962502
1524837450872451066,0.0,0.0,-0.104427102606,0.994532543581
1524837450872694969,0.0,0.0,-0.104965997557,0.994475811348
1524837450913149118,0.0,0.0,-0.111355985787,0.993780581632
1524837450914534091,0.0,0.0,-0.114007609803,0.993479876448
1524837450952348947,0.0,0.0,-0.123974270353,0.992285432872
1524837450992362022,0.0,0.0,-0.127111104884,0.991888485171
1524837451034135103,0.0,0.0,-0.131026962997,0.991378804982
1524837451034765005,0.0,0.0,-0.135738663508,0.990744677114
1524837451074038982,0.0,0.0,-0.136314680002,0.990665588388
1524837451074130058,0.0,0.0,-0.139569406288,0.990212290788
1524837451112377882,0.0,0.0,-0.140272834005,0.990112888534
1524837451125416994,0.0,0.0,-0.140252348375,0.99011579059
1524837451153404951,0.0,0.0,-0.140216907966,0.990120810164
1524837451194175004,0.0,0.0,-0.14021250979,0.990121433006
1524837451232147932,0.0,0.0,-0.140205569908,0.990122415748
1524837451232219934,0.0,0.0,-0.141427713435,0.989948585469
1524837451273011922,0.0,0.0,-0.142276728581,0.989826920479
1524837451283907890,0.0,0.0,-0.148942137087,0.988845913072
1524837451322065114,0.0,0.0,-0.15506821798,0.987903764429
1524837451361665010,0.0,0.0,-0.159227997695,0.987241837014
1524837451362143993,0.0,0.0,-0.164636610755,0.986354290506
1524837451400353908,0.0,0.0,-0.166833179433,0.985985136927
1524837451400640010,0.0,0.0,-0.173968000944,0.984751305989
1524837451439996957,0.0,0.0,-0.178393299422,0.983959262735
1524837451480721950,0.0,0.0,-0.182328449954,0.983237680491
1524837451521270036,0.0,0.0,-0.193946280543,0.981012150925
1524837451521716117,0.0,0.0,-0.196153808877,0.980573140191
1524837451561661958,0.0,0.0,-0.207226168252,0.978293062017
1524837451562186956,0.0,0.0,-0.20860946392,0.977999024316
1524837451601382970,0.0,0.0,-0.214427435622,0.976739921807
1524837451601711034,0.0,0.0,-0.215887154882,0.976418320371
1524837451640075922,0.0,0.0,-0.216557132916,0.976269946369
1524837451652635097,0.0,0.0,-0.22152227984,0.975155310468
1524837451692176103,0.0,0.0,-0.235422165753,0.971893206002
1524837451732167005,0.0,0.0,-0.238127937167,0.97123379551
1524837451732268095,0.0,0.0,-0.245563724017,0.969380450312
1524837451772396087,0.0,0.0,-0.248328680124,0.968675831549
1524837451784363031,0.0,0.0,-0.248589391753,0.968608958408
1524837451820331096,0.0,0.0,-0.248915015164,0.968525330193
1524837451861299991,0.0,0.0,-0.249258054254,0.96843710296
1524837451861490011,0.0,0.0,-0.2492398753,0.968441781709
1524837451900233983,0.0,0.0,-0.249232813762,0.968443599052
1524837451900665044,0.0,0.0,-0.249230137156,0.968444287883
1524837451940326929,0.0,0.0,-0.249218198166,0.968447360316
1524837451980555057,0.0,0.0,-0.249216644892,0.968447760031
1524837451980616092,0.0,0.0,-0.249216382839,0.968447827467
1524837452020185947,0.0,0.0,-0.249215938691,0.968447941762
1524837452027611017,0.0,0.0,-0.24921507565,0.968448163852
1524837452065486907,0.0,0.0,-0.249213288545,0.968448623734
1524837452104134082,0.0,0.0,-0.249212793294,0.968448751178
1524837452104255914,0.0,0.0,-0.249211972579,0.968448962374
1524837452145273923,0.0,0.0,-0.249210723166,0.968449283886
1524837452151418924,0.0,0.0,-0.249210466768,0.968449349865
1524837452188198089,0.0,0.0,-0.249209542118,0.968449587804
1524837452228198051,0.0,0.0,-0.249209340131,0.968449639781
1524837452269129037,0.0,0.0,-0.249208758796,0.968449789374
1524837452269445896,0.0,0.0,-0.250946671275,0.968000913314
1524837452308330059,0.0,0.0,-0.251858877416,0.967763972189
1524837452308511972,0.0,0.0,-0.25688586973,0.966441746787
1524837452348165035,0.0,0.0,-0.265833107568,0.964019065642
1524837452353041887,0.0,0.0,-0.268028065986,0.963411104277
1524837452392430067,0.0,0.0,-0.27463730838,0.961547892123
1524837452432171106,0.0,0.0,-0.28402567487,0.958816674873
1524837452432286024,0.0,0.0,-0.28617002759,0.958178853507
1524837452472202062,0.0,0.0,-0.291163690982,0.956673248844
1524837452485368967,0.0,0.0,-0.293019817361,0.956106367845
1524837452524358034,0.0,0.0,-0.306712754944,0.95180212542
1524837452564285993,0.0,0.0,-0.308588918009,0.951195500243
1524837452564400911,0.0,0.0,-0.312842870346,0.949804894951
1524837452604125976,0.0,0.0,-0.313411832593,0.949617303544
1524837452609889984,0.0,0.0,-0.313799999019,0.949489105054
1524837452648932933,0.0,0.0,-0.313794243798,0.949491007098
1524837452688045024,0.0,0.0,-0.313785499219,0.949493897021
1524837452729639053,0.0,0.0,-0.313782910369,0.949494752571
1524837452730078935,0.0,0.0,-0.313782792617,0.949494791485
1524837452768752098,0.0,0.0,-0.31378268299,0.949494827714
1524837452768872022,0.0,0.0,-0.313782702084,0.949494821404
1524837452808274984,0.0,0.0,-0.313782802164,0.94949478833
1524837452814141988,0.0,0.0,-0.313772889764,0.949498064057
1524837452854687929,0.0,0.0,-0.313770974536,0.949498696965
1524837452892190933,0.0,0.0,-0.313767758236,0.949499759817
1524837452892317056,0.0,0.0,-0.313765887758,0.949500377925
1524837452932519912,0.0,0.0,-0.313765548206,0.949500490131
1524837452945127010,0.0,0.0,-0.31376434349,0.949500888232
1524837452984407901,0.0,0.0,-0.313764028102,0.949500992453
1524837452984535932,0.0,0.0,-0.313763720009,0.949501094263
1524837453028357028,0.0,0.0,-0.313763116691,0.94950129363
1524837453049426078,0.0,0.0,-0.313802787309,0.949488183537
1524837453088288068,0.0,0.0,-0.31384233959,0.949475110722
1524837453128803968,0.0,0.0,-0.315020800419,0.949084767185
1524837453128968954,0.0,0.0,-0.319291427551,0.94765657508
1524837453169744014,0.0,0.0,-0.321101063343,0.947044934055
1524837453170296907,0.0,0.0,-0.327043512533,0.945009280859
1524837453208354949,0.0,0.0,-0.33329363013,0.942823077844
1524837453212209939,0.0,0.0,-0.337295030313,0.941398992206
1524837453256802082,0.0,0.0,-0.342780870653,0.939415389865
1524837453296336889,0.0,0.0,-0.344583769249,0.93875557307
1524837453296489953,0.0,0.0,-0.34651192215,0.938045568087
1524837453338865041,0.0,0.0,-0.34856493117,0.937284635934
1524837453347585916,0.0,0.0,-0.360372813349,0.932808359417
1524837453384759902,0.0,0.0,-0.368015833406,0.929819523543
1524837453424120903,0.0,0.0,-0.372163108104,0.928167345346
1524837453424240112,0.0,0.0,-0.37637722496,0.926466504808
1524837453465456008,0.0,0.0,-0.378097168442,0.925765915994
1524837453472744941,0.0,0.0,-0.384608457346,0.923079809409
1524837453512495994,0.0,0.0,-0.384864519389,0.92297307746
1524837453552175045,0.0,0.0,-0.38665284572,0.922225339544
1524837453552299976,0.0,0.0,-0.386737847408,0.92218969707
1524837453592216014,0.0,0.0,-0.386813782937,0.922157848381
1524837453593657016,0.0,0.0,-0.386808042679,0.922160256202
1524837453632064104,0.0,0.0,-0.386806397642,0.922160946225
1524837453672550916,0.0,0.0,-0.386804894958,0.922161576535
1524837453672688007,0.0,0.0,-0.38680459003,0.922161704438
1524837453712246894,0.0,0.0,-0.386804743188,0.922161640195
1524837453716121912,0.0,0.0,-0.386804786378,0.922161622079
1524837453756277084,0.0,0.0,-0.386800359864,0.922163478787
1524837453796152114,0.0,0.0,-0.386794080234,0.922166112746
1524837453796346902,0.0,0.0,-0.386792579253,0.922166742317
1524837453836402893,0.0,0.0,-0.386792227227,0.92216688997
1524837453843918085,0.0,0.0,-0.386789994767,0.922167826346
1524837453880525112,0.0,0.0,-0.386789710166,0.922167945718
1524837453920309066,0.0,0.0,-0.386788666503,0.922168383466
1524837453920449972,0.0,0.0,-0.386788101407,0.922168620486
1524837453959912061,0.0,0.0,-0.386932920158,0.922107865327
1524837453964248895,0.0,0.0,-0.388157828708,0.921592914476
1524837454001895904,0.0,0.0,-0.397659693771,0.917532979216
1524837454040077924,0.0,0.0,-0.399484098751,0.916740123942
1524837454080528974,0.0,0.0,-0.404908179701,0.914357351374
1524837454081079959,0.0,0.0,-0.406690847596,0.913565845729
1524837454120745897,0.0,0.0,-0.408692083781,0.912672329292
1524837454122751951,0.0,0.0,-0.419131211502,0.907925672919
1524837454160192012,0.0,0.0,-0.421121288827,0.907004333009
1524837454200428009,0.0,0.0,-0.428307695049,0.903632955553
1524837454200553894,0.0,0.0,-0.430301873695,0.902685048893
1524837454240454912,0.0,0.0,-0.436575472449,0.899667636884
1524837454244323015,0.0,0.0,-0.44099015375,0.897511941033
1524837454283971071,0.0,0.0,-0.447679382742,0.894194145736
1524837454324564933,0.0,0.0,-0.456360880154,0.889794778061
1524837454324721097,0.0,0.0,-0.457710757295,0.889101154344
1524837454364979982,0.0,0.0,-0.462625208975,0.886553955504
1524837454369609117,0.0,0.0,-0.463570581861,0.886059995504
1524837454408164024,0.0,0.0,-0.470127785383,0.88259836019
1524837454448606967,0.0,0.0,-0.47191258079,0.881645345982
1524837454488342046,0.0,0.0,-0.479478764392,0.877553482414
1524837454488529920,0.0,0.0,-0.487618231403,0.873056962863
1524837454528115987,0.0,0.0,-0.488571326365,0.872523959014
1524837454528211116,0.0,0.0,-0.488571137087,0.872524065001
1524837454569397926,0.0,0.0,-0.489523107337,0.87199032528
1524837454576823949,0.0,0.0,-0.490357068353,0.871521626534
1524837454617033004,0.0,0.0,-0.490330801294,0.871536405036
1524837454655976057,0.0,0.0,-0.490330255703,0.871536711988
1524837454656125068,0.0,0.0,-0.490329371258,0.87153720958
1524837454697312116,0.0,0.0,-0.490329482865,0.871537146789
1524837454706423044,0.0,0.0,-0.490329827353,0.871536952979
1524837454745131969,0.0,0.0,-0.490329908396,0.871536907384
1524837454784923076,0.0,0.0,-0.490329989086,0.871536861987
1524837454785087108,0.0,0.0,-0.490330132275,0.871536781429
1524837454824630975,0.0,0.0,-0.49032946154,0.871537158786
1524837454824832916,0.0,0.0,-0.490328521673,0.871537687558
1524837454865346908,0.0,0.0,-0.490319350947,0.87154284696
1524837454904330968,0.0,0.0,-0.490316784281,0.87154429093
1524837454904421091,0.0,0.0,-0.490378905007,0.871509339895
1524837454944152116,0.0,0.0,-0.490781340357,0.871282776117
1524837454950788021,0.0,0.0,-0.491227262588,0.871031444031
1524837454989099025,0.0,0.0,-0.491604910861,0.870818357419
1524837455028501987,0.0,0.0,-0.49814094842,0.867096070518
1524837455068974018,0.0,0.0,-0.506811885983,0.862056675762
1524837455069384098,0.0,0.0,-0.509075887181,0.860721639725
1524837455108675956,0.0,0.0,-0.513577975751,0.85804292598
1524837455113768100,0.0,0.0,-0.518859286789,0.854859661297
1524837455152919054,0.0,0.0,-0.521202328205,0.853433145052
1524837455192157030,0.0,0.0,-0.529130110698,0.848540703769
1524837455192265987,0.0,0.0,-0.531677218991,0.846947067299
1524837455232292890,0.0,0.0,-0.537214583501,0.843445606589
1524837455232449054,0.0,0.0,-0.545593930011,0.838049678441
1524837455274005889,0.0,0.0,-0.54731348515,0.836927684435
1524837455290307998,0.0,0.0,-0.552796611276,0.833316210428
1524837455328171968,0.0,0.0,-0.559628808239,0.828743384281
1524837455328295946,0.0,0.0,-0.561317611527,0.827600470632
1524837455369151115,0.0,0.0,-0.567709081541,0.823229250413
1524837455378002882,0.0,0.0,-0.568924700974,0.822389618503
1524837455417546987,0.0,0.0,-0.574033373321,0.818831903576
1524837455456417083,0.0,0.0,-0.579650812157,0.814864980206
1524837455456587076,0.0,0.0,-0.580334804278,0.814377992669
1524837455496351957,0.0,0.0,-0.586618730503,0.809863238468
1524837455507510900,0.0,0.0,-0.588197454568,0.80871735139
1524837455545280933,0.0,0.0,-0.591178337233,0.806540869136
1524837455584273099,0.0,0.0,-0.596410726624,0.802679416185
1524837455584537029,0.0,0.0,-0.597667730742,0.801743901523
1524837455628742933,0.0,0.0,-0.601414306526,0.798937314128
1524837455628937005,0.0,0.0,-0.602910740614,0.797808648018
1524837455668174982,0.0,0.0,-0.606233041563,0.795287054665
1524837455708065032,0.0,0.0,-0.607731000579,0.794142953715
1524837455708198070,0.0,0.0,-0.611974511461,0.790877485659
1524837455748183965,0.0,0.0,-0.620996752697,0.783813136621
1524837455754976034,0.0,0.0,-0.621707029021,0.783249877157
1524837455792978048,0.0,0.0,-0.626140698314,0.779710090941
1524837455832720041,0.0,0.0,-0.626880535796,0.779115391864
1524837455872769117,0.0,0.0,-0.630756234856,0.775981038551
1524837455872869014,0.0,0.0,-0.63553700592,0.77207040748
1524837455912209033,0.0,0.0,-0.636992509525,0.77086999086
1524837455919506072,0.0,0.0,-0.645536434555,0.763729475444
1524837455956135988,0.0,0.0,-0.646780887272,0.762675870773
1524837455996084928,0.0,0.0,-0.650578104792,0.759439352131
1524837455996201992,0.0,0.0,-0.651402027742,0.758732758126
1524837456036875009,0.0,0.0,-0.657975400502,0.753039422828
1524837456038357019,0.0,0.0,-0.658656010194,0.752444190778
1524837456075963020,0.0,0.0,-0.663122132777,0.748511213691
1524837456116754055,0.0,0.0,-0.66556894003,0.746336375951
1524837456116966962,0.0,0.0,-0.667029640175,0.74503117997
1524837456156330108,0.0,0.0,-0.667944955579,0.744210680061
1524837456169625997,0.0,0.0,-0.67266754812,0.739944842341
1524837456208122968,0.0,0.0,-0.673902587523,0.738820209882
1524837456248158931,0.0,0.0,-0.679493679572,0.733681360961
1524837456248290061,0.0,0.0,-0.679602994142,0.733580104932
1524837456288944959,0.0,0.0,-0.679590997757,0.733591218437
1524837456291922092,0.0,0.0,-0.679585563572,0.73359625257
1524837456329580068,0.0,0.0,-0.679584358589,0.733597368835
1524837456368839025,0.0,0.0,-0.67958349692,0.73359816706
1524837456409482002,0.0,0.0,-0.679581999773,0.73359955397
1524837456410011053,0.0,0.0,-0.679582022437,0.733599532974
1524837456449569940,0.0,0.0,-0.679582181705,0.733599385434
1524837456449990987,0.0,0.0,-0.679580388887,0.733601046237
1524837456489517927,0.0,0.0,-0.679579187687,0.733602158982
1524837456489860057,0.0,0.0,-0.679577929767,0.733603324266
1524837456529012918,0.0,0.0,-0.67957663418,0.733604524438
1524837456570137977,0.0,0.0,-0.679573865963,0.733607088774
1524837456608194112,0.0,0.0,-0.679571847272,0.733608958775
1524837456608304023,0.0,0.0,-0.679571515264,0.733609266328
1524837456648298025,0.0,0.0,-0.680184939635,0.733040549966
1524837456648581027,0.0,0.0,-0.682213812456,0.731152729664
1524837456689172029,0.0,0.0,-0.684799110943,0.728731896963
1524837456695072889,0.0,0.0,-0.688843424368,0.724910157678
1524837456732476949,0.0,0.0,-0.690266679094,0.723555050935
1524837456776096105,0.0,0.0,-0.695296201948,0.718723306674
1524837456776182889,0.0,0.0,-0.697077247534,0.716996032744
1524837456817305088,0.0,0.0,-0.702515762898,0.71166818313
1524837456824053049,0.0,0.0,-0.709425413202,0.704780521229
1524837456860037088,0.0,0.0,-0.71072382173,0.703471143136
1524837456901182889,0.0,0.0,-0.715436218925,0.698678049355
1524837456901745080,0.0,0.0,-0.716697768794,0.69738390303
1524837456944143056,0.0,0.0,-0.717442340774,0.69661789215
1524837456944273948,0.0,0.0,-0.717644550097,0.696409577559
1524837456984258890,0.0,0.0,-0.71777786421,0.696272172107
1524837456993789911,0.0,0.0,-0.717774098956,0.696276053637
1524837457032177925,0.0,0.0,-0.71777363249,0.696276534505
1524837457072082996,0.0,0.0,-0.717772246457,0.696277963328
1524837457112215995,0.0,0.0,-0.717770424555,0.696279841468
