%time;field.header.seq;field.header.stamp;field.header.frame_id;field.pose.pose.position.x;field.pose.pose.position.y;field.pose.pose.position.z;field.pose.pose.orientation.x;field.pose.pose.orientation.y;field.pose.pose.orientation.z;field.pose.pose.orientation.w;field.pose.covariance0;field.pose.covariance1;field.pose.covariance2;field.pose.covariance3;field.pose.covariance4;field.pose.covariance5;field.pose.covariance6;field.pose.covariance7;field.pose.covariance8;field.pose.covariance9;field.pose.covariance10;field.pose.covariance11;field.pose.covariance12;field.pose.covariance13;field.pose.covariance14;field.pose.covariance15;field.pose.covariance16;field.pose.covariance17;field.pose.covariance18;field.pose.covariance19;field.pose.covariance20;field.pose.covariance21;field.pose.covariance22;field.pose.covariance23;field.pose.covariance24;field.pose.covariance25;field.pose.covariance26;field.pose.covariance27;field.pose.covariance28;field.pose.covariance29;field.pose.covariance30;field.pose.covariance31;field.pose.covariance32;field.pose.covariance33;field.pose.covariance34;field.pose.covariance35
254348000000;50;254348000000;map;9.47677595563;0.00302231785578;0.0;0.0;0.0;0.000677491276366;0.999999770503;0.00437570545344;0.000113589361868;0.000613202210084;0.0;0.0;0.0;0.0;0.0;0.000135599379493;0.0;0.0;0.0;0.0;0.0;0.0;0.0;0.0;0.0;0.0;0.0;0.0;0.0;0.0;0.0;0.0;0.0;0.0;0.0;0.0;0.0;0.0;0.0;0.0;0.0;0.0;0.0
254561000000;51;254561000000;map;9.59084591352;0.00315112147824;0.0;0.0;0.0;0.000549810546332;0.999999848854;0.00325164650518;4.05569473383e-05;0.000661335897118;0.0;0.0;0.0;0.0;0.0;0.00013952527185;0.0;0.0;0.0;0.0;0.0;0.0;0.0;0.0;0.0;0.0;0.0;0.0;0.0;0.0;0.0;0.0;0.0;0.0;0.0;0.0;0.0;0.0;0.0;0.0;0.0;0.0;0.0
254760000000;52;254760000000;map;9.69193124012;0.00330297502616;0.0;0.0;0.0;0.000710894857864;0.999999747314;0.00299927939693;-1.21493191345e-05;0.000588099519844;0.0;0.0;0.0;0.0;0.0;0.000148972396327;0.0;0.0;0.0;0.0;0.0;0.0;0.0;0.0;0.0;0.0;0.0;0.0;0.0;0.0;0.0;0.0;0.0;0.0;0.0;0.0;0.0;0.0;0.0;0.0;0.0;0.0;0.0
254954000000;53;254954000000;map;9.79938071792;0.00463812273477;0.0;0.0;0.0;0.000790219495913;0.999999687777;0.00292774560053;1.14503950519e-05;0.000604271020351;0.0;0.0;0.0;0.0;0.0;0.000141949855088;0.0;0.0;0.0;0.0;0.0;0.0;0.0;0.0;0.0;0.0;0.0;0.0;0.0;0.0;0.0;0.0;0.0;0.0;0.0;0.0;0.0;0.0;0.0;0.0;0.0;0.0;0.0
255147000000;54;255147000000;map;9.90337712023;0.00349645992613;0.0;0.0;0.0;0.000896276528725;0.999999598344;0.00239278203514;5.57284524918e-05;0.000604896201438;0.0;0.0;0.0;0.0;0.0;0.000153709049266;0.0;0.0;0.0;0.0;0.0;0.0;0.0;0.0;0.0;0.0;0.0;0.0;0.0;0.0;0.0;0.0;0.0;0.0;0.0;0.0;0.0;0.0;0.0;0.0;0.0;0.0;0.0
255354000000;55;255354000000;map;10.0043945131;0.00512177091894;0.0;0.0;0.0;0.001258711253;0.999999207823;0.00215498780948;8.82660370671e-06;0.000644094062582;0.0;0.0;0.0;0.0;0.0;0.000144336971485;0.0;0.0;0.0;0.0;0.0;0.0;0.0;0.0;0.0;0.0;0.0;0.0;0.0;0.0;0.0;0.0;0.0;0.0;0.0;0.0;0.0;0.0;0.0;0.0;0.0;0.0;0.0
255557000000;56;255557000000;map;10.1056016248;0.004741979659;0.0;0.0;0.0;0.00123137729597;0.999999241855;0.00226787038358;4.65703559206e-05;0.000695005514446;0.0;0.0;0.0;0.0;0.0;0.000144452827941;0.0;0.0;0.0;0.0;0.0;0.0;0.0;0.0;0.0;0.0;0.0;0.0;0.0;0.0;0.0;0.0;0.0;0.0;0.0;0.0;0.0;0.0;0.0;0.0;0.0;0.0;0.0
255750000000;57;255750000000;map;10.2067436983;0.00409304400572;0.0;0.0;0.0;0.00095255980349;0.999999546315;0.00232998817033;7.98476481165e-05;0.000741201776205;0.0;0.0;0.0;0.0;0.0;0.000132674489326;0.0;0.0;0.0;0.0;0.0;0.0;0.0;0.0;0.0;0.0;0.0;0.0;0.0;0.0;0.0;0.0;0.0;0.0;0.0;0.0;0.0;0.0;0.0;0.0;0.0;0.0;0.0
255954000000;58;255954000000;map;10.3121667321;0.00518375354987;0.0;0.0;0.0;0.000613983871487;0.999999811512;0.00184730213172;-4.88191779215e-06;0.000762614199216;0.0;0.0;0.0;0.0;0.0;0.000126680393131;0.0;0.0;0.0;0.0;0.0;0.0;0.0;0.0;0.0;0.0;0.0;0.0;0.0;0.0;0.0;0.0;0.0;0.0;0.0;0.0;0.0;0.0;0.0;0.0;0.0;0.0;0.0
256143000000;59;256143000000;map;10.4170755834;0.00529759675786;0.0;0.0;0.0;0.000314116578623;0.999999950665;0.00155898241171;4.7079826075e-05;0.000820488305685;0.0;0.0;0.0;0.0;0.0;0.000109339821819;0.0;0.0;0.0;0.0;0.0;0.0;0.0;0.0;0.0;0.0;0.0;0.0;0.0;0.0;0.0;0.0;0.0;0.0;0.0;0.0;0.0;0.0;0.0;0.0;0.0;0.0;0.0
256351000000;60;256351000000;map;10.5271978705;0.00580493542885;0.0;0.0;0.0;0.000627568291468;0.999999803079;0.00146093782811;5.99738551375e-05;0.000851232133415;0.0;0.0;0.0;0.0;0.0;0.000108621205046;0.0;0.0;0.0;0.0;0.0;0.0;0.0;0.0;0.0;0.0;0.0;0.0;0.0;0.0;0.0;0.0;0.0;0.0;0.0;0.0;0.0;0.0;0.0;0.0;0.0;0.0;0.0
256554000000;61;256554000000;map;10.6303780389;0.00487392993973;0.0;0.0;0.0;5.92658813809e-05;0.999999998244;0.00151989597306;9.25486847175e-05;0.000876683275563;0.0;0.0;0.0;0.0;0.0;0.000103731474244;0.0;0.0;0.0;0.0;0.0;0.0;0.0;0.0;0.0;0.0;0.0;0.0;0.0;0.0;0.0;0.0;0.0;0.0;0.0;0.0;0.0;0.0;0.0;0.0;0.0;0.0;0.0
256750000000;62;256750000000;map;10.7467660989;0.00538744451786;0.0;0.0;0.0;-1.42989383093e-05;0.999999999898;0.00148969127693;9.39050785406e-05;0.000950520533086;0.0;0.0;0.0;0.0;0.0;0.000120407988129;0.0;0.0;0.0;0.0;0.0;0.0;0.0;0.0;0.0;0.0;0.0;0.0;0.0;0.0;0.0;0.0;0.0;0.0;0.0;0.0;0.0;0.0;0.0;0.0;0.0;0.0;0.0
256949289048;63;256949289048;map;10.8510389709;0.00501962811531;0.0;0.0;0.0;-0.000804599964981;0.999999676309;0.00144320161344;3.68978093745e-05;0.000973781766117;0.0;0.0;0.0;0.0;0.0;0.000123623177197;0.0;0.0;0.0;0.0;0.0;0.0;0.0;0.0;0.0;0.0;0.0;0.0;0.0;0.0;0.0;0.0;0.0;0.0;0.0;0.0;0.0;0.0;0.0;0.0;0.0;0.0;0.0
257249000000;64;257249000000;map;10.9599207222;0.00726875630637;0.0;0.0;0.0;-0.000733854374226;0.999999730729;0.00145112461063;4.95717664186e-05;0.00105750170598;0.0;0.0;0.0;0.0;0.0;0.000130328213075;0.0;0.0;0.0;0.0;0.0;0.0;0.0;0.0;0.0;0.0;0.0;0.0;0.0;0.0;0.0;0.0;0.0;0.0;0.0;0.0;0.0;0.0;0.0;0.0;0.0;0.0;0.0
257459000000;65;257459000000;map;11.064973189;0.00734477355758;0.0;0.0;0.0;-0.000502523373478;0.999999873735;0.00152419586445;2.73414998003e-05;0.00105361113262;0.0;0.0;0.0;0.0;0.0;0.000132187262311;0.0;0.0;0.0;0.0;0.0;0.0;0.0;0.0;0.0;0.0;0.0;0.0;0.0;0.0;0.0;0.0;0.0;0.0;0.0;0.0;0.0;0.0;0.0;0.0;0.0;0.0;0.0
257654643564;66;257654643564;map;11.1769503198;0.00374123914207;0.0;0.0;0.0;-0.00038001114904;0.999999927796;0.00149031612554;7.93188982099e-05;0.00101306589717;0.0;0.0;0.0;0.0;0.0;0.000129278199681;0.0;0.0;0.0;0.0;0.0;0.0;0.0;0.0;0.0;0.0;0.0;0.0;0.0;0.0;0.0;0.0;0.0;0.0;0.0;0.0;0.0;0.0;0.0;0.0;0.0;0.0;0.0
257847000000;67;257847000000;map;11.2859773239;0.00370928731341;0.0;0.0;0.0;8.9438273474e-05;0.999999996;0.00140855000717;3.41247741912e-05;0.000908049259926;0.0;0.0;0.0;0.0;0.0;0.000136952784551;0.0;0.0;0.0;0.0;0.0;0.0;0.0;0.0;0.0;0.0;0.0;0.0;0.0;0.0;0.0;0.0;0.0;0.0;0.0;0.0;0.0;0.0;0.0;0.0;0.0;0.0;0.0
258050000000;68;258050000000;map;11.3876872043;0.00249937916676;0.0;0.0;0.0;-4.99435371552e-05;0.999999998753;0.00136966399378;5.04752519565e-05;0.000831307694876;0.0;0.0;0.0;0.0;0.0;0.00012724955938;0.0;0.0;0.0;0.0;0.0;0.0;0.0;0.0;0.0;0.0;0.0;0.0;0.0;0.0;0.0;0.0;0.0;0.0;0.0;0.0;0.0;0.0;0.0;0.0;0.0;0.0;0.0
258248000000;69;258248000000;map;11.489463663;0.00304566233508;0.0;0.0;0.0;-0.000185441793711;0.999999982806;0.00133957093993;4.43863910386e-06;0.000830892414289;0.0;0.0;0.0;0.0;0.0;0.000129344219777;0.0;0.0;0.0;0.0;0.0;0.0;0.0;0.0;0.0;0.0;0.0;0.0;0.0;0.0;0.0;0.0;0.0;0.0;0.0;0.0;0.0;0.0;0.0;0.0;0.0;0.0;0.0
258451000000;70;258451000000;map;11.5992885816;0.00388349968031;0.0;0.0;0.0;0.00034472340331;0.999999940583;0.00124995357177;2.13739202255e-06;0.000841820157033;0.0;0.0;0.0;0.0;0.0;0.000122562589343;0.0;0.0;0.0;0.0;0.0;0.0;0.0;0.0;0.0;0.0;0.0;0.0;0.0;0.0;0.0;0.0;0.0;0.0;0.0;0.0;0.0;0.0;0.0;0.0;0.0;0.0;0.0
258649000000;71;258649000000;map;11.7051683477;0.00400865587693;0.0;0.0;0.0;0.000227344933147;0.999999974157;0.0012571495941;2.41122625346e-05;0.000900205901209;0.0;0.0;0.0;0.0;0.0;0.000135588922726;0.0;0.0;0.0;0.0;0.0;0.0;0.0;0.0;0.0;0.0;0.0;0.0;0.0;0.0;0.0;0.0;0.0;0.0;0.0;0.0;0.0;0.0;0.0;0.0;0.0;0.0;0.0
258947000000;72;258947000000;map;11.8164206246;0.00371750940155;0.0;0.0;0.0;0.000341899402846;0.999999941552;0.00130544391584;-1.30382391381e-05;0.000817776959839;0.0;0.0;0.0;0.0;0.0;0.000139872074236;0.0;0.0;0.0;0.0;0.0;0.0;0.0;0.0;0.0;0.0;0.0;0.0;0.0;0.0;0.0;0.0;0.0;0.0;0.0;0.0;0.0;0.0;0.0;0.0;0.0;0.0;0.0
259151000000;73;259151000000;map;11.9219340445;0.00442959438604;0.0;0.0;0.0;0.000794996158531;0.999999683991;0.00126804376205;2.25094902626e-06;0.000821931508282;0.0;0.0;0.0;0.0;0.0;0.000155975951829;0.0;0.0;0.0;0.0;0.0;0.0;0.0;0.0;0.0;0.0;0.0;0.0;0.0;0.0;0.0;0.0;0.0;0.0;0.0;0.0;0.0;0.0;0.0;0.0;0.0;0.0;0.0
259346511602;74;259346511602;map;12.0318997241;0.00518328367058;0.0;0.0;0.0;0.00074695960758;0.999999721026;0.00125525810074;-5.4859729424e-06;0.000834806175777;0.0;0.0;0.0;0.0;0.0;0.000149909836994;0.0;0.0;0.0;0.0;0.0;0.0;0.0;0.0;0.0;0.0;0.0;0.0;0.0;0.0;0.0;0.0;0.0;0.0;0.0;0.0;0.0;0.0;0.0;0.0;0.0;0.0;0.0
259559000000;75;259559000000;map;12.1358663827;0.00487258699431;0.0;0.0;0.0;0.000559341687353;0.999999843568;0.00115149389748;1.78976374151e-05;0.000874900676382;0.0;0.0;0.0;0.0;0.0;0.000153463430867;0.0;0.0;0.0;0.0;0.0;0.0;0.0;0.0;0.0;0.0;0.0;0.0;0.0;0.0;0.0;0.0;0.0;0.0;0.0;0.0;0.0;0.0;0.0;0.0;0.0;0.0;0.0
259749000000;76;259749000000;map;12.2463695785;0.00585889308282;0.0;0.0;0.0;-0.000138122514947;0.999999990461;0.0010781255003;-3.73463978636e-06;0.000897185909337;0.0;0.0;0.0;0.0;0.0;0.000148012233775;0.0;0.0;0.0;0.0;0.0;0.0;0.0;0.0;0.0;0.0;0.0;0.0;0.0;0.0;0.0;0.0;0.0;0.0;0.0;0.0;0.0;0.0;0.0;0.0;0.0;0.0;0.0
259947000000;77;259947000000;map;12.348835087;0.00672108881132;0.0;0.0;0.0;-0.000203711586292;0.999999979251;0.00101578994969;-7.73181213328e-07;0.000894649128518;0.0;0.0;0.0;0.0;0.0;0.00015768463268;0.0;0.0;0.0;0.0;0.0;0.0;0.0;0.0;0.0;0.0;0.0;0.0;0.0;0.0;0.0;0.0;0.0;0.0;0.0;0.0;0.0;0.0;0.0;0.0;0.0;0.0;0.0
260149000000;78;260149000000;map;12.4591616823;0.00598429850033;0.0;0.0;0.0;-0.00045750011448;0.999999895347;0.000984043367367;-2.64755345935e-05;0.000813733014005;0.0;0.0;0.0;0.0;0.0;0.000177436735823;0.0;0.0;0.0;0.0;0.0;0.0;0.0;0.0;0.0;0.0;0.0;0.0;0.0;0.0;0.0;0.0;0.0;0.0;0.0;0.0;0.0;0.0;0.0;0.0;0.0;0.0;0.0
260455000000;79;260455000000;map;12.5672110613;0.00421823523104;0.0;0.0;0.0;-0.000551745700625;0.999999847788;0.000952919677388;-5.66860698873e-05;0.000762694572105;0.0;0.0;0.0;0.0;0.0;0.000169526348446;0.0;0.0;0.0;0.0;0.0;0.0;0.0;0.0;0.0;0.0;0.0;0.0;0.0;0.0;0.0;0.0;0.0;0.0;0.0;0.0;0.0;0.0;0.0;0.0;0.0;0.0;0.0
260651000000;80;260651000000;map;12.6701409355;0.00425614321458;0.0;0.0;0.0;-0.000413714093536;0.99999991442;0.000810106452263;-1.92081299072e-05;0.00077533874533;0.0;0.0;0.0;0.0;0.0;0.000173210684758;0.0;0.0;0.0;0.0;0.0;0.0;0.0;0.0;0.0;0.0;0.0;0.0;0.0;0.0;0.0;0.0;0.0;0.0;0.0;0.0;0.0;0.0;0.0;0.0;0.0;0.0;0.0
260848000000;81;260848000000;map;12.7729597142;0.00329301090029;0.0;0.0;0.0;-0.000492648311196;0.999999878649;0.000782109886472;-3.42680398444e-05;0.000726963203815;0.0;0.0;0.0;0.0;0.0;0.000156167538839;0.0;0.0;0.0;0.0;0.0;0.0;0.0;0.0;0.0;0.0;0.0;0.0;0.0;0.0;0.0;0.0;0.0;0.0;0.0;0.0;0.0;0.0;0.0;0.0;0.0;0.0;0.0
261053000000;82;261053000000;map;12.8817951988;0.00538126233318;0.0;0.0;0.0;5.13077670541e-05;0.999999998684;0.000791071336806;-2.85956166156e-05;0.000674122165228;0.0;0.0;0.0;0.0;0.0;0.000151228491476;0.0;0.0;0.0;0.0;0.0;0.0;0.0;0.0;0.0;0.0;0.0;0.0;0.0;0.0;0.0;0.0;0.0;0.0;0.0;0.0;0.0;0.0;0.0;0.0;0.0;0.0;0.0
261250000000;83;261250000000;map;12.985564812;0.00506443833259;0.0;0.0;0.0;0.000108028950223;0.999999994165;0.000718804543112;-6.46445365448e-06;0.000744201645322;0.0;0.0;0.0;0.0;0.0;0.00015572775302;0.0;0.0;0.0;0.0;0.0;0.0;0.0;0.0;0.0;0.0;0.0;0.0;0.0;0.0;0.0;0.0;0.0;0.0;0.0;0.0;0.0;0.0;0.0;0.0;0.0;0.0;0.0
261448000000;84;261448000000;map;13.0958270344;0.00442745094585;0.0;0.0;0.0;-0.000488783345532;0.999999880545;0.000678987792071;4.74333219559e-05;0.000729032216896;0.0;0.0;0.0;0.0;0.0;0.000159879073296;0.0;0.0;0.0;0.0;0.0;0.0;0.0;0.0;0.0;0.0;0.0;0.0;0.0;0.0;0.0;0.0;0.0;0.0;0.0;0.0;0.0;0.0;0.0;0.0;0.0;0.0;0.0
261646000000;85;261646000000;map;13.2037147309;0.00486176745043;0.0;0.0;0.0;-0.000255837001647;0.999999967274;0.000651215067052;2.43918435398e-05;0.000700383428755;0.0;0.0;0.0;0.0;0.0;0.000153073578294;0.0;0.0;0.0;0.0;0.0;0.0;0.0;0.0;0.0;0.0;0.0;0.0;0.0;0.0;0.0;0.0;0.0;0.0;0.0;0.0;0.0;0.0;0.0;0.0;0.0;0.0;0.0
261948000000;86;261948000000;map;13.3137550568;0.00544444105467;0.0;0.0;0.0;0.000254561181317;0.999999967599;0.000695493316783;-6.93079653172e-07;0.000681229696405;0.0;0.0;0.0;0.0;0.0;0.000159333751862;0.0;0.0;0.0;0.0;0.0;0.0;0.0;0.0;0.0;0.0;0.0;0.0;0.0;0.0;0.0;0.0;0.0;0.0;0.0;0.0;0.0;0.0;0.0;0.0;0.0;0.0;0.0
262148000000;87;262148000000;map;13.4147438849;0.00556072086145;0.0;0.0;0.0;0.000556407920004;0.999999845205;0.000743092551176;2.74926809112e-05;0.000740536227696;0.0;0.0;0.0;0.0;0.0;0.000158377014737;0.0;0.0;0.0;0.0;0.0;0.0;0.0;0.0;0.0;0.0;0.0;0.0;0.0;0.0;0.0;0.0;0.0;0.0;0.0;0.0;0.0;0.0;0.0;0.0;0.0;0.0;0.0
262357000000;88;262357000000;map;13.5185052304;0.00724608997608;0.0;0.0;0.0;0.000763397535011;0.999999708612;0.000766165328884;1.30371126399e-05;0.00070001346954;0.0;0.0;0.0;0.0;0.0;0.000152811438202;0.0;0.0;0.0;0.0;0.0;0.0;0.0;0.0;0.0;0.0;0.0;0.0;0.0;0.0;0.0;0.0;0.0;0.0;0.0;0.0;0.0;0.0;0.0;0.0;0.0;0.0;0.0
262564000000;89;262564000000;map;13.620395111;0.00576636452732;0.0;0.0;0.0;0.000139578964959;0.999999990259;0.000811979331019;1.77070316977e-05;0.000761472259291;0.0;0.0;0.0;0.0;0.0;0.000153486629594;0.0;0.0;0.0;0.0;0.0;0.0;0.0;0.0;0.0;0.0;0.0;0.0;0.0;0.0;0.0;0.0;0.0;0.0;0.0;0.0;0.0;0.0;0.0;0.0;0.0;0.0;0.0
262749000000;90;262749000000;map;13.7240698434;0.00966089989759;0.0;0.0;0.0;0.000578441594865;0.999999832703;0.000884413499904;6.11049450443e-05;0.000781497963998;0.0;0.0;0.0;0.0;0.0;0.000144263065836;0.0;0.0;0.0;0.0;0.0;0.0;0.0;0.0;0.0;0.0;0.0;0.0;0.0;0.0;0.0;0.0;0.0;0.0;0.0;0.0;0.0;0.0;0.0;0.0;0.0;0.0;0.0
262947991578;91;262947991578;map;13.8326449331;0.0086149880049;0.0;0.0;0.0;4.2421076129e-05;0.9999999991;0.000955940782887;0.000125994090759;0.000909158408882;0.0;0.0;0.0;0.0;0.0;0.000160965762984;0.0;0.0;0.0;0.0;0.0;0.0;0.0;0.0;0.0;0.0;0.0;0.0;0.0;0.0;0.0;0.0;0.0;0.0;0.0;0.0;0.0;0.0;0.0;0.0;0.0;0.0;0.0
263149000000;92;263149000000;map;13.9335474644;0.00777625067041;0.0;0.0;0.0;-0.00026318582397;0.999999965367;0.000942681790406;7.91125150413e-05;0.000930170119228;0.0;0.0;0.0;0.0;0.0;0.000163360474013;0.0;0.0;0.0;0.0;0.0;0.0;0.0;0.0;0.0;0.0;0.0;0.0;0.0;0.0;0.0;0.0;0.0;0.0;0.0;0.0;0.0;0.0;0.0;0.0;0.0;0.0;0.0
263350000000;93;263350000000;map;14.0357233854;0.00885039364448;0.0;0.0;0.0;-5.45460385719e-06;0.999999999985;0.000903492695045;7.25191585424e-05;0.000907844934286;0.0;0.0;0.0;0.0;0.0;0.000156171655391;0.0;0.0;0.0;0.0;0.0;0.0;0.0;0.0;0.0;0.0;0.0;0.0;0.0;0.0;0.0;0.0;0.0;0.0;0.0;0.0;0.0;0.0;0.0;0.0;0.0;0.0;0.0
263562000000;94;263562000000;map;14.134669341;0.00685471261521;0.0;0.0;0.0;-0.000188880848113;0.999999982162;0.00085731011211;8.25992887189e-05;0.00094800598728;0.0;0.0;0.0;0.0;0.0;0.000160580640694;0.0;0.0;0.0;0.0;0.0;0.0;0.0;0.0;0.0;0.0;0.0;0.0;0.0;0.0;0.0;0.0;0.0;0.0;0.0;0.0;0.0;0.0;0.0;0.0;0.0;0.0;0.0
263748000000;95;263748000000;map;14.244887434;0.0054967234932;0.0;0.0;0.0;-0.00045930846101;0.999999894518;0.000852461281767;7.32150950246e-05;0.00101922701217;0.0;0.0;0.0;0.0;0.0;0.000165838224898;0.0;0.0;0.0;0.0;0.0;0.0;0.0;0.0;0.0;0.0;0.0;0.0;0.0;0.0;0.0;0.0;0.0;0.0;0.0;0.0;0.0;0.0;0.0;0.0;0.0;0.0;0.0
263949000000;96;263949000000;map;14.3554537078;0.00325289574333;0.0;0.0;0.0;-0.000418235652277;0.999999912539;0.000908355387622;0.000117810586422;0.00102587098978;0.0;0.0;0.0;0.0;0.0;0.000156533204615;0.0;0.0;0.0;0.0;0.0;0.0;0.0;0.0;0.0;0.0;0.0;0.0;0.0;0.0;0.0;0.0;0.0;0.0;0.0;0.0;0.0;0.0;0.0;0.0;0.0;0.0;0.0
264153000000;97;264153000000;map;14.4573218543;0.00244876055137;0.0;0.0;0.0;-0.000650857529557;0.999999788192;0.000893472205718;0.000186719059822;0.0010543815994;0.0;0.0;0.0;0.0;0.0;0.000146417608084;0.0;0.0;0.0;0.0;0.0;0.0;0.0;0.0;0.0;0.0;0.0;0.0;0.0;0.0;0.0;0.0;0.0;0.0;0.0;0.0;0.0;0.0;0.0;0.0;0.0;0.0;0.0
264351000000;98;264351000000;map;14.5588495867;0.00262792935303;0.0;0.0;0.0;-0.000562053412265;0.999999842048;0.000858062128543;0.000134870708893;0.00106135261184;0.0;0.0;0.0;0.0;0.0;0.0001457678855;0.0;0.0;0.0;0.0;0.0;0.0;0.0;0.0;0.0;0.0;0.0;0.0;0.0;0.0;0.0;0.0;0.0;0.0;0.0;0.0;0.0;0.0;0.0;0.0;0.0;0.0;0.0
264549000000;99;264549000000;map;14.6595858068;0.00361612795335;0.0;0.0;0.0;-0.000435664589888;0.999999905098;0.000746216015926;6.10416001769e-05;0.00104338383549;0.0;0.0;0.0;0.0;0.0;0.000148268981941;0.0;0.0;0.0;0.0;0.0;0.0;0.0;0.0;0.0;0.0;0.0;0.0;0.0;0.0;0.0;0.0;0.0;0.0;0.0;0.0;0.0;0.0;0.0;0.0;0.0;0.0;0.0
264746000000;100;264746000000;map;14.7727272931;0.00396870543659;0.0;0.0;0.0;-0.000606152969645;0.999999816289;0.000815234621058;0.000148238484377;0.0011564703965;0.0;0.0;0.0;0.0;0.0;0.000158498494742;0.0;0.0;0.0;0.0;0.0;0.0;0.0;0.0;0.0;0.0;0.0;0.0;0.0;0.0;0.0;0.0;0.0;0.0;0.0;0.0;0.0;0.0;0.0;0.0;0.0;0.0;0.0
264951000000;101;264951000000;map;14.8817073093;0.00335061675818;0.0;0.0;0.0;3.98162945805e-05;0.999999999207;0.000844053437675;0.000175696493654;0.00121202452951;0.0;0.0;0.0;0.0;0.0;0.000159012429475;0.0;0.0;0.0;0.0;0.0;0.0;0.0;0.0;0.0;0.0;0.0;0.0;0.0;0.0;0.0;0.0;0.0;0.0;0.0;0.0;0.0;0.0;0.0;0.0;0.0;0.0;0.0
265149000000;102;265149000000;map;14.9822302273;0.00348135073195;0.0;0.0;0.0;0.000157143363877;0.999999987653;0.000839012216915;0.000193952713697;0.00122998402649;0.0;0.0;0.0;0.0;0.0;0.000155881496775;0.0;0.0;0.0;0.0;0.0;0.0;0.0;0.0;0.0;0.0;0.0;0.0;0.0;0.0;0.0;0.0;0.0;0.0;0.0;0.0;0.0;0.0;0.0;0.0;0.0;0.0;0.0
265449000000;103;265449000000;map;15.0879092842;0.00650337682149;0.0;0.0;0.0;0.000618859570864;0.999999808506;0.000784069448628;0.000160204372846;0.00118927102478;0.0;0.0;0.0;0.0;0.0;0.00014764163049;0.0;0.0;0.0;0.0;0.0;0.0;0.0;0.0;0.0;0.0;0.0;0.0;0.0;0.0;0.0;0.0;0.0;0.0;0.0;0.0;0.0;0.0;0.0;0.0;0.0;0.0;0.0
265648000000;104;265648000000;map;15.1961626004;0.00743160658224;0.0;0.0;0.0;0.000250016102365;0.999999968746;0.000821230852893;8.87321928069e-05;0.00110704474385;0.0;0.0;0.0;0.0;0.0;0.000128727596087;0.0;0.0;0.0;0.0;0.0;0.0;0.0;0.0;0.0;0.0;0.0;0.0;0.0;0.0;0.0;0.0;0.0;0.0;0.0;0.0;0.0;0.0;0.0;0.0;0.0;0.0;0.0
265849000000;105;265849000000;map;15.3004911933;0.0105184236336;0.0;0.0;0.0;0.000282254674846;0.999999960166;0.000789952149205;-4.84242180027e-05;0.000984886392972;0.0;0.0;0.0;0.0;0.0;0.000124757771987;0.0;0.0;0.0;0.0;0.0;0.0;0.0;0.0;0.0;0.0;0.0;0.0;0.0;0.0;0.0;0.0;0.0;0.0;0.0;0.0;0.0;0.0;0.0;0.0;0.0;0.0;0.0
266050000000;106;266050000000;map;15.404616652;0.00943724372448;0.0;0.0;0.0;0.000214833950166;0.999999976923;0.000802294524448;-2.49230318149e-05;0.00101716219055;0.0;0.0;0.0;0.0;0.0;0.000130568100606;0.0;0.0;0.0;0.0;0.0;0.0;0.0;0.0;0.0;0.0;0.0;0.0;0.0;0.0;0.0;0.0;0.0;0.0;0.0;0.0;0.0;0.0;0.0;0.0;0.0;0.0;0.0
266248000000;107;266248000000;map;15.5079416498;0.010835294024;0.0;0.0;0.0;0.000447417937379;0.999999899909;0.000778022952971;-6.18981446636e-05;0.000969791694001;0.0;0.0;0.0;0.0;0.0;0.000120571881544;0.0;0.0;0.0;0.0;0.0;0.0;0.0;0.0;0.0;0.0;0.0;0.0;0.0;0.0;0.0;0.0;0.0;0.0;0.0;0.0;0.0;0.0;0.0;0.0;0.0;0.0;0.0
266457000000;108;266457000000;map;15.608814072;0.0107613154894;0.0;0.0;0.0;0.000681057481135;0.99999976808;0.000752846318136;-8.97671032663e-05;0.00107424628832;0.0;0.0;0.0;0.0;0.0;0.000117123808665;0.0;0.0;0.0;0.0;0.0;0.0;0.0;0.0;0.0;0.0;0.0;0.0;0.0;0.0;0.0;0.0;0.0;0.0;0.0;0.0;0.0;0.0;0.0;0.0;0.0;0.0;0.0
266654000000;109;266654000000;map;15.7198987159;0.0116812363373;0.0;0.0;0.0;0.000610703588144;0.999999813521;0.000663178011251;-0.000141111435627;0.00114549669681;0.0;0.0;0.0;0.0;0.0;0.000124280239903;0.0;0.0;0.0;0.0;0.0;0.0;0.0;0.0;0.0;0.0;0.0;0.0;0.0;0.0;0.0;0.0;0.0;0.0;0.0;0.0;0.0;0.0;0.0;0.0;0.0;0.0;0.0
266850000000;110;266850000000;map;15.8201851645;0.00977526491752;0.0;0.0;0.0;0.000363444233902;0.999999933954;0.000688934819863;-0.000131197589351;0.00125681080633;0.0;0.0;0.0;0.0;0.0;0.000130189443117;0.0;0.0;0.0;0.0;0.0;0.0;0.0;0.0;0.0;0.0;0.0;0.0;0.0;0.0;0.0;0.0;0.0;0.0;0.0;0.0;0.0;0.0;0.0;0.0;0.0;0.0;0.0
267054000000;111;267054000000;map;15.921357607;0.010900077273;0.0;0.0;0.0;0.000282367461232;0.999999960134;0.000644245058311;-0.000195912071535;0.00125883563002;0.0;0.0;0.0;0.0;0.0;0.000129135065314;0.0;0.0;0.0;0.0;0.0;0.0;0.0;0.0;0.0;0.0;0.0;0.0;0.0;0.0;0.0;0.0;0.0;0.0;0.0;0.0;0.0;0.0;0.0;0.0;0.0;0.0;0.0
267348687825;112;267348687825;map;16.0306487787;0.0104747502736;0.0;0.0;0.0;0.000210808681213;0.99999997778;0.000652641489296;-0.000233068677762;0.0011870617708;0.0;0.0;0.0;0.0;0.0;0.000121638600582;0.0;0.0;0.0;0.0;0.0;0.0;0.0;0.0;0.0;0.0;0.0;0.0;0.0;0.0;0.0;0.0;0.0;0.0;0.0;0.0;0.0;0.0;0.0;0.0;0.0;0.0;0.0
267557000000;113;267557000000;map;16.1309152453;0.0112322406635;0.0;0.0;0.0;9.99062468147e-06;0.99999999995;0.000699077080526;-0.000239792595504;0.00122450817228;0.0;0.0;0.0;0.0;0.0;0.000120176890512;0.0;0.0;0.0;0.0;0.0;0.0;0.0;0.0;0.0;0.0;0.0;0.0;0.0;0.0;0.0;0.0;0.0;0.0;0.0;0.0;0.0;0.0;0.0;0.0;0.0;0.0;0.0
267746000000;114;267746000000;map;16.229941753;0.0138425748769;0.0;0.0;0.0;-4.49267374066e-05;0.999999998991;0.000631779732714;-0.000307029604181;0.00119748121314;0.0;0.0;0.0;0.0;0.0;0.000111820992462;0.0;0.0;0.0;0.0;0.0;0.0;0.0;0.0;0.0;0.0;0.0;0.0;0.0;0.0;0.0;0.0;0.0;0.0;0.0;0.0;0.0;0.0;0.0;0.0;0.0;0.0;0.0
267947000000;115;267947000000;map;16.3317831381;0.0111617262591;0.0;0.0;0.0;-0.000227874676003;0.999999974037;0.00064218041291;-0.000348701558749;0.00126789273672;0.0;0.0;0.0;0.0;0.0;0.000105576167747;0.0;0.0;0.0;0.0;0.0;0.0;0.0;0.0;0.0;0.0;0.0;0.0;0.0;0.0;0.0;0.0;0.0;0.0;0.0;0.0;0.0;0.0;0.0;0.0;0.0;0.0;0.0
268148000000;116;268148000000;map;16.4380020078;0.0105383758595;0.0;0.0;0.0;-0.000949145773197;0.999999549561;0.000615825989996;-0.000379681994858;0.00113983934565;0.0;0.0;0.0;0.0;0.0;9.93546837588e-05;0.0;0.0;0.0;0.0;0.0;0.0;0.0;0.0;0.0;0.0;0.0;0.0;0.0;0.0;0.0;0.0;0.0;0.0;0.0;0.0;0.0;0.0;0.0;0.0;0.0;0.0;0.0
268354000000;117;268354000000;map;16.5374488076;0.0118577397688;0.0;0.0;0.0;-0.000816928354952;0.999999666314;0.000570626072488;-0.000326280857945;0.00109208198518;0.0;0.0;0.0;0.0;0.0;9.63792640592e-05;0.0;0.0;0.0;0.0;0.0;0.0;0.0;0.0;0.0;0.0;0.0;0.0;0.0;0.0;0.0;0.0;0.0;0.0;0.0;0.0;0.0;0.0;0.0;0.0;0.0;0.0;0.0
268552000000;118;268552000000;map;16.6409320164;0.00889314769581;0.0;0.0;0.0;-0.00112124774859;0.999999371402;0.000648170799479;-0.000368710928248;0.00120285214256;0.0;0.0;0.0;0.0;0.0;0.000101879705657;0.0;0.0;0.0;0.0;0.0;0.0;0.0;0.0;0.0;0.0;0.0;0.0;0.0;0.0;0.0;0.0;0.0;0.0;0.0;0.0;0.0;0.0;0.0;0.0;0.0;0.0;0.0
268743000000;119;268743000000;map;16.742780922;0.00675511022259;0.0;0.0;0.0;-0.00120995394253;0.999999268005;0.000675361761409;-0.000408501671161;0.00128858631121;0.0;0.0;0.0;0.0;0.0;0.000105743973283;0.0;0.0;0.0;0.0;0.0;0.0;0.0;0.0;0.0;0.0;0.0;0.0;0.0;0.0;0.0;0.0;0.0;0.0;0.0;0.0;0.0;0.0;0.0;0.0;0.0;0.0;0.0
268956000000;120;268956000000;map;16.8477933535;0.00569380678092;0.0;0.0;0.0;-0.00125320162045;0.999999214743;0.000679318278969;-0.000437823953565;0.00136112830821;0.0;0.0;0.0;0.0;0.0;0.000113913238885;0.0;0.0;0.0;0.0;0.0;0.0;0.0;0.0;0.0;0.0;0.0;0.0;0.0;0.0;0.0;0.0;0.0;0.0;0.0;0.0;0.0;0.0;0.0;0.0;0.0;0.0;0.0
269155000000;121;269155000000;map;16.9485765611;0.00498525711394;0.0;0.0;0.0;-0.00137881747925;0.999999049431;0.00071025844818;-0.000451403846839;0.00134786489819;0.0;0.0;0.0;0.0;0.0;0.000122170005421;0.0;0.0;0.0;0.0;0.0;0.0;0.0;0.0;0.0;0.0;0.0;0.0;0.0;0.0;0.0;0.0;0.0;0.0;0.0;0.0;0.0;0.0;0.0;0.0;0.0;0.0;0.0
269353000000;122;269353000000;map;17.0476780529;0.00546042353697;0.0;0.0;0.0;-0.00123778497696;0.999999233944;0.000629827072089;-0.000392856495246;0.00131170826704;0.0;0.0;0.0;0.0;0.0;0.000111539772103;0.0;0.0;0.0;0.0;0.0;0.0;0.0;0.0;0.0;0.0;0.0;0.0;0.0;0.0;0.0;0.0;0.0;0.0;0.0;0.0;0.0;0.0;0.0;0.0;0.0;0.0;0.0
269551000000;123;269551000000;map;17.1567590628;-0.00014180972332;0.0;0.0;0.0;-0.0011985001917;0.999999281798;0.000610761741882;-0.000383086672252;0.00136817575945;0.0;0.0;0.0;0.0;0.0;0.00010930204197;0.0;0.0;0.0;0.0;0.0;0.0;0.0;0.0;0.0;0.0;0.0;0.0;0.0;0.0;0.0;0.0;0.0;0.0;0.0;0.0;0.0;0.0;0.0;0.0;0.0;0.0;0.0
269751000000;124;269751000000;map;17.2700405214;-0.00173669960647;0.0;0.0;0.0;-0.0015437283874;0.999998808451;0.00065510351493;-0.000446605433429;0.001445793864;0.0;0.0;0.0;0.0;0.0;0.000132097698168;0.0;0.0;0.0;0.0;0.0;0.0;0.0;0.0;0.0;0.0;0.0;0.0;0.0;0.0;0.0;0.0;0.0;0.0;0.0;0.0;0.0;0.0;0.0;0.0;0.0;0.0;0.0
269948000000;125;269948000000;map;17.3806311678;-0.00379562411846;0.0;0.0;0.0;-0.00163340811544;0.999998665988;0.000636563146145;-0.000480826273425;0.0014977145168;0.0;0.0;0.0;0.0;0.0;0.00014067282673;0.0;0.0;0.0;0.0;0.0;0.0;0.0;0.0;0.0;0.0;0.0;0.0;0.0;0.0;0.0;0.0;0.0;0.0;0.0;0.0;0.0;0.0;0.0;0.0;0.0;0.0;0.0
270152000000;126;270152000000;map;17.4894153871;0.000767193479488;0.0;0.0;0.0;-0.000874210785924;0.999999617878;0.000601472574374;-0.000395180302576;0.00140052178148;0.0;0.0;0.0;0.0;0.0;0.000129572382106;0.0;0.0;0.0;0.0;0.0;0.0;0.0;0.0;0.0;0.0;0.0;0.0;0.0;0.0;0.0;0.0;0.0;0.0;0.0;0.0;0.0;0.0;0.0;0.0;0.0;0.0;0.0
270456000000;127;270456000000;map;17.6000196043;-0.000589866311214;0.0;0.0;0.0;-0.00128332805921;0.999999176534;0.000629966321924;-0.000415826581276;0.00150465883699;0.0;0.0;0.0;0.0;0.0;0.000143776802655;0.0;0.0;0.0;0.0;0.0;0.0;0.0;0.0;0.0;0.0;0.0;0.0;0.0;0.0;0.0;0.0;0.0;0.0;0.0;0.0;0.0;0.0;0.0;0.0;0.0;0.0;0.0
270647000000;128;270647000000;map;17.7080088503;0.000455624031762;0.0;0.0;0.0;-0.00109401135157;0.999999401569;0.000672669596383;-0.000431580801949;0.00157568157815;0.0;0.0;0.0;0.0;0.0;0.000150280380824;0.0;0.0;0.0;0.0;0.0;0.0;0.0;0.0;0.0;0.0;0.0;0.0;0.0;0.0;0.0;0.0;0.0;0.0;0.0;0.0;0.0;0.0;0.0;0.0;0.0;0.0;0.0
270854488412;129;270854488412;map;17.8058380463;0.00360304068204;0.0;0.0;0.0;-0.000435637468829;0.99999990511;0.000616517461992;-0.000325711080318;0.00148088001072;0.0;0.0;0.0;0.0;0.0;0.000139631592621;0.0;0.0;0.0;0.0;0.0;0.0;0.0;0.0;0.0;0.0;0.0;0.0;0.0;0.0;0.0;0.0;0.0;0.0;0.0;0.0;0.0;0.0;0.0;0.0;0.0;0.0;0.0
271049000000;130;271049000000;map;17.9079327332;0.00241693893111;0.0;0.0;0.0;-0.000178691074778;0.999999984035;0.00064044614021;-0.000332661178764;0.00150465280599;0.0;0.0;0.0;0.0;0.0;0.000147129472555;0.0;0.0;0.0;0.0;0.0;0.0;0.0;0.0;0.0;0.0;0.0;0.0;0.0;0.0;0.0;0.0;0.0;0.0;0.0;0.0;0.0;0.0;0.0;0.0;0.0;0.0;0.0
271250081481;131;271250081481;map;18.0091140863;0.00233717068367;0.0;0.0;0.0;0.000144449528593;0.999999989567;0.000666644988542;-0.00035817936736;0.0015274825071;0.0;0.0;0.0;0.0;0.0;0.00015431424357;0.0;0.0;0.0;0.0;0.0;0.0;0.0;0.0;0.0;0.0;0.0;0.0;0.0;0.0;0.0;0.0;0.0;0.0;0.0;0.0;0.0;0.0;0.0;0.0;0.0;0.0;0.0
271458000000;132;271458000000;map;18.1197121086;0.00263070317337;0.0;0.0;0.0;0.000355810810871;0.999999936699;0.000684978786921;-0.000362332816181;0.00157631069151;0.0;0.0;0.0;0.0;0.0;0.000151920880506;0.0;0.0;0.0;0.0;0.0;0.0;0.0;0.0;0.0;0.0;0.0;0.0;0.0;0.0;0.0;0.0;0.0;0.0;0.0;0.0;0.0;0.0;0.0;0.0;0.0;0.0;0.0
271749000000;133;271749000000;map;18.2262623983;0.00234556518726;0.0;0.0;0.0;0.000888475483332;0.999999605306;0.000660813239449;-0.000336639769799;0.00155815039375;0.0;0.0;0.0;0.0;0.0;0.000147593713064;0.0;0.0;0.0;0.0;0.0;0.0;0.0;0.0;0.0;0.0;0.0;0.0;0.0;0.0;0.0;0.0;0.0;0.0;0.0;0.0;0.0;0.0;0.0;0.0;0.0;0.0;0.0
271848000000;134;271848000000;map;18.3388256786;-0.00117856917102;0.0;0.0;0.0;0.000445735211303;0.99999990066;0.00070778075991;-0.000319288320242;0.00151626829617;0.0;0.0;0.0;0.0;0.0;0.000151851784631;0.0;0.0;0.0;0.0;0.0;0.0;0.0;0.0;0.0;0.0;0.0;0.0;0.0;0.0;0.0;0.0;0.0;0.0;0.0;0.0;0.0;0.0;0.0;0.0;0.0;0.0;0.0
272147000000;135;272147000000;map;18.4428781709;0.00114855136808;0.0;0.0;0.0;0.000982469052045;0.999999517377;0.000647971643275;-0.000330100053176;0.00157593544082;0.0;0.0;0.0;0.0;0.0;0.00014641208377;0.0;0.0;0.0;0.0;0.0;0.0;0.0;0.0;0.0;0.0;0.0;0.0;0.0;0.0;0.0;0.0;0.0;0.0;0.0;0.0;0.0;0.0;0.0;0.0;0.0;0.0;0.0
272348000000;136;272348000000;map;18.5448793861;-0.00112223990752;0.0;0.0;0.0;0.000962047154925;0.999999537233;0.000707744650924;-0.000322552385584;0.00167855096321;0.0;0.0;0.0;0.0;0.0;0.000147781307827;0.0;0.0;0.0;0.0;0.0;0.0;0.0;0.0;0.0;0.0;0.0;0.0;0.0;0.0;0.0;0.0;0.0;0.0;0.0;0.0;0.0;0.0;0.0;0.0;0.0;0.0;0.0
272553000000;137;272553000000;map;18.645043989;-0.00270692173983;0.0;0.0;0.0;0.00018605050565;0.999999982693;0.000695823421779;-0.000371019204864;0.00167397964489;0.0;0.0;0.0;0.0;0.0;0.00013506759514;0.0;0.0;0.0;0.0;0.0;0.0;0.0;0.0;0.0;0.0;0.0;0.0;0.0;0.0;0.0;0.0;0.0;0.0;0.0;0.0;0.0;0.0;0.0;0.0;0.0;0.0;0.0
272751000000;138;272751000000;map;18.7485729328;-0.0029119862892;0.0;0.0;0.0;0.000541513369254;0.999999853382;0.000725186008594;-0.000406114843473;0.00189671567562;0.0;0.0;0.0;0.0;0.0;0.000152203206966;0.0;0.0;0.0;0.0;0.0;0.0;0.0;0.0;0.0;0.0;0.0;0.0;0.0;0.0;0.0;0.0;0.0;0.0;0.0;0.0;0.0;0.0;0.0;0.0;0.0;0.0;0.0
272947000000;139;272947000000;map;18.8497055883;-0.00270995945828;0.0;0.0;0.0;0.000514183899203;0.999999867807;0.000732152284797;-0.000349368665366;0.00178001005211;0.0;0.0;0.0;0.0;0.0;0.000127454508019;0.0;0.0;0.0;0.0;0.0;0.0;0.0;0.0;0.0;0.0;0.0;0.0;0.0;0.0;0.0;0.0;0.0;0.0;0.0;0.0;0.0;0.0;0.0;0.0;0.0;0.0;0.0
273145000000;140;273145000000;map;18.9496749627;-0.00249220062361;0.0;0.0;0.0;0.000480382338365;0.999999884616;0.000722228056986;-0.000425384798563;0.00189667543491;0.0;0.0;0.0;0.0;0.0;0.000126782620151;0.0;0.0;0.0;0.0;0.0;0.0;0.0;0.0;0.0;0.0;0.0;0.0;0.0;0.0;0.0;0.0;0.0;0.0;0.0;0.0;0.0;0.0;0.0;0.0;0.0;0.0;0.0
273350000000;141;273350000000;map;19.0507212576;-0.00407834286892;0.0;0.0;0.0;0.000527924677962;0.999999860648;0.000697094762245;-0.000459891563441;0.00204608397277;0.0;0.0;0.0;0.0;0.0;0.00012535823543;0.0;0.0;0.0;0.0;0.0;0.0;0.0;0.0;0.0;0.0;0.0;0.0;0.0;0.0;0.0;0.0;0.0;0.0;0.0;0.0;0.0;0.0;0.0;0.0;0.0;0.0;0.0
273551000000;142;273551000000;map;19.1510539382;-0.00471746945594;0.0;0.0;0.0;0.000610711639393;0.999999813516;0.000707236702908;-0.000479726833634;0.00209586077515;0.0;0.0;0.0;0.0;0.0;0.000126983498172;0.0;0.0;0.0;0.0;0.0;0.0;0.0;0.0;0.0;0.0;0.0;0.0;0.0;0.0;0.0;0.0;0.0;0.0;0.0;0.0;0.0;0.0;0.0;0.0;0.0;0.0;0.0
273750000000;143;273750000000;map;19.2611989004;-0.00921260991024;0.0;0.0;0.0;4.41720563245e-05;0.999999999024;0.000706541310421;-0.000523678627256;0.00207869069992;0.0;0.0;0.0;0.0;0.0;0.000107824838878;0.0;0.0;0.0;0.0;0.0;0.0;0.0;0.0;0.0;0.0;0.0;0.0;0.0;0.0;0.0;0.0;0.0;0.0;0.0;0.0;0.0;0.0;0.0;0.0;0.0;0.0;0.0
273951000000;144;273951000000;map;19.3705321058;-0.0118068551325;0.0;0.0;0.0;8.83594184472e-05;0.999999996096;0.000702858071122;-0.000494452634248;0.00214487906367;0.0;0.0;0.0;0.0;0.0;0.000105060855555;0.0;0.0;0.0;0.0;0.0;0.0;0.0;0.0;0.0;0.0;0.0;0.0;0.0;0.0;0.0;0.0;0.0;0.0;0.0;0.0;0.0;0.0;0.0;0.0;0.0;0.0;0.0
274248084207;145;274248084207;map;19.4817857471;-0.0161382807807;0.0;0.0;0.0;-0.000244435713303;0.999999970126;0.000737540193199;-0.000540757215735;0.00221501572607;0.0;0.0;0.0;0.0;0.0;0.000104481520756;0.0;0.0;0.0;0.0;0.0;0.0;0.0;0.0;0.0;0.0;0.0;0.0;0.0;0.0;0.0;0.0;0.0;0.0;0.0;0.0;0.0;0.0;0.0;0.0;0.0;0.0;0.0
274448000000;146;274448000000;map;19.5845054661;-0.0179362950799;0.0;0.0;0.0;-0.000309527637779;0.999999952096;0.000737069493027;-0.000574119889621;0.00235425101654;0.0;0.0;0.0;0.0;0.0;0.000106831594689;0.0;0.0;0.0;0.0;0.0;0.0;0.0;0.0;0.0;0.0;0.0;0.0;0.0;0.0;0.0;0.0;0.0;0.0;0.0;0.0;0.0;0.0;0.0;0.0;0.0;0.0;0.0
274648000000;147;274648000000;map;19.6874114412;-0.0210531011583;0.0;0.0;0.0;-0.000572957952515;0.99999983586;0.000685511091149;-0.000586432933192;0.00242923117;0.0;0.0;0.0;0.0;0.0;0.000104950019831;0.0;0.0;0.0;0.0;0.0;0.0;0.0;0.0;0.0;0.0;0.0;0.0;0.0;0.0;0.0;0.0;0.0;0.0;0.0;0.0;0.0;0.0;0.0;0.0;0.0;0.0;0.0
274849000000;148;274849000000;map;19.8541971855;-0.0228796966917;0.0;0.0;0.0;-0.000463698622156;0.999999892492;0.000657170033378;-0.00055314679305;0.0025289837326;0.0;0.0;0.0;0.0;0.0;0.000153398072378;0.0;0.0;0.0;0.0;0.0;0.0;0.0;0.0;0.0;0.0;0.0;0.0;0.0;0.0;0.0;0.0;0.0;0.0;0.0;0.0;0.0;0.0;0.0;0.0;0.0;0.0;0.0
275144000000;149;275144000000;map;19.9640209617;-0.0290485092081;0.0;0.0;0.0;-0.000695462590686;0.999999758166;0.000673774642451;-0.000525541962672;0.00242196176777;0.0;0.0;0.0;0.0;0.0;0.000163674742329;0.0;0.0;0.0;0.0;0.0;0.0;0.0;0.0;0.0;0.0;0.0;0.0;0.0;0.0;0.0;0.0;0.0;0.0;0.0;0.0;0.0;0.0;0.0;0.0;0.0;0.0;0.0
275349000000;150;275349000000;map;20.0737626665;-0.0338789835807;0.0;0.0;0.0;-0.000626901261601;0.999999803497;0.000643777507094;-0.000547747878844;0.00229469201545;0.0;0.0;0.0;0.0;0.0;0.000139106033732;0.0;0.0;0.0;0.0;0.0;0.0;0.0;0.0;0.0;0.0;0.0;0.0;0.0;0.0;0.0;0.0;0.0;0.0;0.0;0.0;0.0;0.0;0.0;0.0;0.0;0.0;0.0
275551000000;151;275551000000;map;20.1864949165;-0.0379189415697;0.0;0.0;0.0;-0.000856808628657;0.999999632939;0.000644147522735;-0.000618210578428;0.00215698708698;0.0;0.0;0.0;0.0;0.0;0.000126277506578;0.0;0.0;0.0;0.0;0.0;0.0;0.0;0.0;0.0;0.0;0.0;0.0;0.0;0.0;0.0;0.0;0.0;0.0;0.0;0.0;0.0;0.0;0.0;0.0;0.0;0.0;0.0
275844000000;152;275844000000;map;20.2967324192;-0.0393342493581;0.0;0.0;0.0;-0.000849077800411;0.999999639533;0.000645671767074;-0.00057507288875;0.00206044658085;0.0;0.0;0.0;0.0;0.0;0.000142050264472;0.0;0.0;0.0;0.0;0.0;0.0;0.0;0.0;0.0;0.0;0.0;0.0;0.0;0.0;0.0;0.0;0.0;0.0;0.0;0.0;0.0;0.0;0.0;0.0;0.0;0.0;0.0
276044000000;153;276044000000;map;20.4075014906;-0.0410249160086;0.0;0.0;0.0;-0.00105965876731;0.999999438561;0.000661307756104;-0.000535118050652;0.00184283818896;0.0;0.0;0.0;0.0;0.0;0.000126797694123;0.0;0.0;0.0;0.0;0.0;0.0;0.0;0.0;0.0;0.0;0.0;0.0;0.0;0.0;0.0;0.0;0.0;0.0;0.0;0.0;0.0;0.0;0.0;0.0;0.0;0.0;0.0
276247000000;154;276247000000;map;20.5117231062;-0.0449443510291;0.0;0.0;0.0;-0.000998306973619;0.999999501691;0.000678513022649;-0.000483115276693;0.00166892536646;0.0;0.0;0.0;0.0;0.0;0.000119822556735;0.0;0.0;0.0;0.0;0.0;0.0;0.0;0.0;0.0;0.0;0.0;0.0;0.0;0.0;0.0;0.0;0.0;0.0;0.0;0.0;0.0;0.0;0.0;0.0;0.0;0.0;0.0
276456000000;155;276456000000;map;20.6230558431;-0.0467056612283;0.0;0.0;0.0;-0.00101180005586;0.99999948813;0.000673463705823;-0.000416657942287;0.00140675814042;0.0;0.0;0.0;0.0;0.0;0.000114389820962;0.0;0.0;0.0;0.0;0.0;0.0;0.0;0.0;0.0;0.0;0.0;0.0;0.0;0.0;0.0;0.0;0.0;0.0;0.0;0.0;0.0;0.0;0.0;0.0;0.0;0.0;0.0
276654000000;156;276654000000;map;20.7358431908;-0.0479483436452;0.0;0.0;0.0;-0.00113329479283;0.999999357821;0.000627061948308;-0.000422810990863;0.00129933163192;0.0;0.0;0.0;0.0;0.0;0.000104381530236;0.0;0.0;0.0;0.0;0.0;0.0;0.0;0.0;0.0;0.0;0.0;0.0;0.0;0.0;0.0;0.0;0.0;0.0;0.0;0.0;0.0;0.0;0.0;0.0;0.0;0.0;0.0
276846000000;157;276846000000;map;20.8391066477;-0.0482444767815;0.0;0.0;0.0;-0.0011557073777;0.99999933217;0.000615131963002;-0.000375353609883;0.00133089301498;0.0;0.0;0.0;0.0;0.0;0.000123262633083;0.0;0.0;0.0;0.0;0.0;0.0;0.0;0.0;0.0;0.0;0.0;0.0;0.0;0.0;0.0;0.0;0.0;0.0;0.0;0.0;0.0;0.0;0.0;0.0;0.0;0.0;0.0
277047000000;158;277047000000;map;20.9494185935;-0.0518855520174;0.0;0.0;0.0;-0.00179375018883;0.999998391229;0.000589889049479;-0.00038939620139;0.00131665245372;0.0;0.0;0.0;0.0;0.0;0.000121075863854;0.0;0.0;0.0;0.0;0.0;0.0;0.0;0.0;0.0;0.0;0.0;0.0;0.0;0.0;0.0;0.0;0.0;0.0;0.0;0.0;0.0;0.0;0.0;0.0;0.0;0.0;0.0
277247000000;159;277247000000;map;21.0620460635;-0.0528940598014;0.0;0.0;0.0;-0.00139722218551;0.999999023885;0.000593976682183;-0.000433960565412;0.00137793776745;0.0;0.0;0.0;0.0;0.0;0.000139860521941;0.0;0.0;0.0;0.0;0.0;0.0;0.0;0.0;0.0;0.0;0.0;0.0;0.0;0.0;0.0;0.0;0.0;0.0;0.0;0.0;0.0;0.0;0.0;0.0;0.0;0.0;0.0
277547000000;160;277547000000;map;21.1684831968;-0.0547379882962;0.0;0.0;0.0;-0.00132762610887;0.999999118704;0.000607409671886;-0.000379612303846;0.0013964286752;0.0;0.0;0.0;0.0;0.0;0.00014766460449;0.0;0.0;0.0;0.0;0.0;0.0;0.0;0.0;0.0;0.0;0.0;0.0;0.0;0.0;0.0;0.0;0.0;0.0;0.0;0.0;0.0;0.0;0.0;0.0;0.0;0.0;0.0
277742000000;161;277742000000;map;21.2799689232;-0.0558675671409;0.0;0.0;0.0;-0.00128465004447;0.999999174837;0.000597941546289;-0.000289976000497;0.00110117710285;0.0;0.0;0.0;0.0;0.0;0.000138352500435;0.0;0.0;0.0;0.0;0.0;0.0;0.0;0.0;0.0;0.0;0.0;0.0;0.0;0.0;0.0;0.0;0.0;0.0;0.0;0.0;0.0;0.0;0.0;0.0;0.0;0.0;0.0
277949884634;162;277949884634;map;21.3927227285;-0.0600020656083;0.0;0.0;0.0;-0.00134769775744;0.999999091855;0.000642805614973;-0.000316534690506;0.00107534001643;0.0;0.0;0.0;0.0;0.0;0.000145805050557;0.0;0.0;0.0;0.0;0.0;0.0;0.0;0.0;0.0;0.0;0.0;0.0;0.0;0.0;0.0;0.0;0.0;0.0;0.0;0.0;0.0;0.0;0.0;0.0;0.0;0.0;0.0
278146000000;163;278146000000;map;21.5043292312;-0.0594645343514;0.0;0.0;0.0;-0.000865568088433;0.999999625396;0.000691654867353;-0.000275362192325;0.00102148917698;0.0;0.0;0.0;0.0;0.0;0.000150654375401;0.0;0.0;0.0;0.0;0.0;0.0;0.0;0.0;0.0;0.0;0.0;0.0;0.0;0.0;0.0;0.0;0.0;0.0;0.0;0.0;0.0;0.0;0.0;0.0;0.0;0.0;0.0
278346000000;164;278346000000;map;21.6051619451;-0.0586342607822;0.0;0.0;0.0;-0.000163677991258;0.999999986605;0.000671900327347;-0.000186245807489;0.000915439533786;0.0;0.0;0.0;0.0;0.0;0.00016485277097;0.0;0.0;0.0;0.0;0.0;0.0;0.0;0.0;0.0;0.0;0.0;0.0;0.0;0.0;0.0;0.0;0.0;0.0;0.0;0.0;0.0;0.0;0.0;0.0;0.0;0.0;0.0
278551000000;165;278551000000;map;21.705753143;-0.0589646848545;0.0;0.0;0.0;-0.000106548527361;0.999999994324;0.000651912240471;-0.000174125555641;0.00101941831737;0.0;0.0;0.0;0.0;0.0;0.000193803538398;0.0;0.0;0.0;0.0;0.0;0.0;0.0;0.0;0.0;0.0;0.0;0.0;0.0;0.0;0.0;0.0;0.0;0.0;0.0;0.0;0.0;0.0;0.0;0.0;0.0;0.0;0.0
278748000000;166;278748000000;map;21.7765336991;-0.0648595374039;0.0;0.0;0.0;-0.0006594310194;0.999999782575;0.000592029802135;-0.000184689009238;0.000918644302753;0.0;0.0;0.0;0.0;0.0;0.000190087512928;0.0;0.0;0.0;0.0;0.0;0.0;0.0;0.0;0.0;0.0;0.0;0.0;0.0;0.0;0.0;0.0;0.0;0.0;0.0;0.0;0.0;0.0;0.0;0.0;0.0;0.0;0.0
279046000000;167;279046000000;map;21.8874070518;-0.0664138894232;0.0;0.0;0.0;-0.000590279551111;0.999999825785;0.000584823348618;-0.000162009708443;0.000914566832372;0.0;0.0;0.0;0.0;0.0;0.000212375470146;0.0;0.0;0.0;0.0;0.0;0.0;0.0;0.0;0.0;0.0;0.0;0.0;0.0;0.0;0.0;0.0;0.0;0.0;0.0;0.0;0.0;0.0;0.0;0.0;0.0;0.0;0.0
279243000000;168;279243000000;map;21.9907687696;-0.0666356934883;0.0;0.0;0.0;-0.000991358762193;0.999999508604;0.000643538893485;-0.000157423146897;0.000919577898951;0.0;0.0;0.0;0.0;0.0;0.000209412638579;0.0;0.0;0.0;0.0;0.0;0.0;0.0;0.0;0.0;0.0;0.0;0.0;0.0;0.0;0.0;0.0;0.0;0.0;0.0;0.0;0.0;0.0;0.0;0.0;0.0;0.0;0.0
279457139223;169;279457139223;map;22.1019341825;-0.065889623554;0.0;0.0;0.0;-0.00108624200774;0.999999410039;0.000718012486686;-0.000147742640217;0.000829836334063;0.0;0.0;0.0;0.0;0.0;0.000184242822636;0.0;0.0;0.0;0.0;0.0;0.0;0.0;0.0;0.0;0.0;0.0;0.0;0.0;0.0;0.0;0.0;0.0;0.0;0.0;0.0;0.0;0.0;0.0;0.0;0.0;0.0;0.0
279647000000;170;279647000000;map;22.2393732734;-0.0638830639209;0.0;0.0;0.0;-2.9863125243e-05;0.999999999554;0.000660011050513;-0.000130571464866;0.000709196893848;0.0;0.0;0.0;0.0;0.0;0.000172638383793;0.0;0.0;0.0;0.0;0.0;0.0;0.0;0.0;0.0;0.0;0.0;0.0;0.0;0.0;0.0;0.0;0.0;0.0;0.0;0.0;0.0;0.0;0.0;0.0;0.0;0.0;0.0
279847000000;171;279847000000;map;22.3174073406;-0.0647978367483;0.0;0.0;0.0;-0.000456160481202;0.999999895959;0.00062236908002;-0.000153468807038;0.000620961236684;0.0;0.0;0.0;0.0;0.0;0.000139636486313;0.0;0.0;0.0;0.0;0.0;0.0;0.0;0.0;0.0;0.0;0.0;0.0;0.0;0.0;0.0;0.0;0.0;0.0;0.0;0.0;0.0;0.0;0.0;0.0;0.0;0.0;0.0
280044000000;172;280044000000;map;22.4522778682;-0.0638852676106;0.0;0.0;0.0;2.16289579463e-05;0.999999999766;0.000651470888442;-0.00016182248809;0.000603089105975;0.0;0.0;0.0;0.0;0.0;0.000131494394814;0.0;0.0;0.0;0.0;0.0;0.0;0.0;0.0;0.0;0.0;0.0;0.0;0.0;0.0;0.0;0.0;0.0;0.0;0.0;0.0;0.0;0.0;0.0;0.0;0.0;0.0;0.0
280348000000;173;280348000000;map;22.5598211458;-0.0625993146758;0.0;0.0;0.0;-0.000229567161885;0.999999973649;0.000667591057152;-0.000161124214396;0.000571356555272;0.0;0.0;0.0;0.0;0.0;0.00013470223496;0.0;0.0;0.0;0.0;0.0;0.0;0.0;0.0;0.0;0.0;0.0;0.0;0.0;0.0;0.0;0.0;0.0;0.0;0.0;0.0;0.0;0.0;0.0;0.0;0.0;0.0;0.0
280548000000;174;280548000000;map;22.6598401722;-0.0612801193119;0.0;0.0;0.0;-0.000218437378732;0.999999976143;0.000664317214614;-0.000140178640499;0.00052884675784;0.0;0.0;0.0;0.0;0.0;0.000139477131166;0.0;0.0;0.0;0.0;0.0;0.0;0.0;0.0;0.0;0.0;0.0;0.0;0.0;0.0;0.0;0.0;0.0;0.0;0.0;0.0;0.0;0.0;0.0;0.0;0.0;0.0;0.0
280744000000;175;280744000000;map;22.7405429941;-0.0648073694409;0.0;0.0;0.0;-0.00061470194;0.999999811071;0.000598253201133;-0.00011798557002;0.00051606491252;0.0;0.0;0.0;0.0;0.0;0.000139685614373;0.0;0.0;0.0;0.0;0.0;0.0;0.0;0.0;0.0;0.0;0.0;0.0;0.0;0.0;0.0;0.0;0.0;0.0;0.0;0.0;0.0;0.0;0.0;0.0;0.0;0.0;0.0
280945000000;176;280945000000;map;22.8437733099;-0.0652699283406;0.0;0.0;0.0;-0.000891319370427;0.999999602775;0.000592459301174;-0.000169830603153;0.000600062413465;0.0;0.0;0.0;0.0;0.0;0.000137919799726;0.0;0.0;0.0;0.0;0.0;0.0;0.0;0.0;0.0;0.0;0.0;0.0;0.0;0.0;0.0;0.0;0.0;0.0;0.0;0.0;0.0;0.0;0.0;0.0;0.0;0.0;0.0
281147000000;177;281147000000;map;22.9592785723;-0.0589220187753;0.0;0.0;0.0;-0.000354964315006;0.999999937;0.000648751134008;-0.000126625943802;0.000572099203261;0.0;0.0;0.0;0.0;0.0;0.000135798085527;0.0;0.0;0.0;0.0;0.0;0.0;0.0;0.0;0.0;0.0;0.0;0.0;0.0;0.0;0.0;0.0;0.0;0.0;0.0;0.0;0.0;0.0;0.0;0.0;0.0;0.0;0.0
281346000000;178;281346000000;map;23.0626499131;-0.0581881572557;0.0;0.0;0.0;-0.000104766350108;0.999999994512;0.000676030354498;-8.43507922015e-05;0.000521690143634;0.0;0.0;0.0;0.0;0.0;0.000140983382326;0.0;0.0;0.0;0.0;0.0;0.0;0.0;0.0;0.0;0.0;0.0;0.0;0.0;0.0;0.0;0.0;0.0;0.0;0.0;0.0;0.0;0.0;0.0;0.0;0.0;0.0;0.0
281547000000;179;281547000000;map;23.161972639;-0.0594542425922;0.0;0.0;0.0;7.7653545146e-05;0.999999996985;0.000645427968607;-0.000116165194388;0.000539682880788;0.0;0.0;0.0;0.0;0.0;0.000128220897415;0.0;0.0;0.0;0.0;0.0;0.0;0.0;0.0;0.0;0.0;0.0;0.0;0.0;0.0;0.0;0.0;0.0;0.0;0.0;0.0;0.0;0.0;0.0;0.0;0.0;0.0;0.0
281741699920;180;281741699920;map;23.2648213131;-0.0565509703981;0.0;0.0;0.0;0.000618056617874;0.999999809003;0.000640554694542;-5.22576172803e-05;0.00045402062133;0.0;0.0;0.0;0.0;0.0;0.000130587449693;0.0;0.0;0.0;0.0;0.0;0.0;0.0;0.0;0.0;0.0;0.0;0.0;0.0;0.0;0.0;0.0;0.0;0.0;0.0;0.0;0.0;0.0;0.0;0.0;0.0;0.0;0.0
281947103290;181;281947103290;map;23.3539291111;-0.0632155474928;0.0;0.0;0.0;-0.000100078164193;0.999999994992;0.000667790140369;4.08631470321e-05;0.00042919229163;0.0;0.0;0.0;0.0;0.0;0.000119780252024;0.0;0.0;0.0;0.0;0.0;0.0;0.0;0.0;0.0;0.0;0.0;0.0;0.0;0.0;0.0;0.0;0.0;0.0;0.0;0.0;0.0;0.0;0.0;0.0;0.0;0.0;0.0
282144000000;182;282144000000;map;23.4624920514;-0.0641081830328;0.0;0.0;0.0;-0.000211842173973;0.999999977561;0.000617330677073;5.17065131695e-05;0.000448486730665;0.0;0.0;0.0;0.0;0.0;0.000136547249885;0.0;0.0;0.0;0.0;0.0;0.0;0.0;0.0;0.0;0.0;0.0;0.0;0.0;0.0;0.0;0.0;0.0;0.0;0.0;0.0;0.0;0.0;0.0;0.0;0.0;0.0;0.0
282345000000;183;282345000000;map;23.563231057;-0.0638985731436;0.0;0.0;0.0;0.000478712931269;0.999999885417;0.00060442217648;0.000120042996234;0.000457552492504;0.0;0.0;0.0;0.0;0.0;0.000151448192077;0.0;0.0;0.0;0.0;0.0;0.0;0.0;0.0;0.0;0.0;0.0;0.0;0.0;0.0;0.0;0.0;0.0;0.0;0.0;0.0;0.0;0.0;0.0;0.0;0.0;0.0;0.0
282538000000;184;282538000000;map;23.666003584;-0.0636607128435;0.0;0.0;0.0;0.000462922442493;0.999999892851;0.000561856480545;0.000108454483467;0.000446664714207;0.0;0.0;0.0;0.0;0.0;0.00016758784625;0.0;0.0;0.0;0.0;0.0;0.0;0.0;0.0;0.0;0.0;0.0;0.0;0.0;0.0;0.0;0.0;0.0;0.0;0.0;0.0;0.0;0.0;0.0;0.0;0.0;0.0;0.0
282743000000;185;282743000000;map;23.7650771507;-0.0654344177093;0.0;0.0;0.0;0.000540742900292;0.999999853799;0.000594709155507;0.000129978211854;0.000405885148987;0.0;0.0;0.0;0.0;0.0;0.00011767576649;0.0;0.0;0.0;0.0;0.0;0.0;0.0;0.0;0.0;0.0;0.0;0.0;0.0;0.0;0.0;0.0;0.0;0.0;0.0;0.0;0.0;0.0;0.0;0.0;0.0;0.0;0.0
282945000000;186;282945000000;map;23.8683168727;-0.0660719025042;0.0;0.0;0.0;0.00113892115456;0.999999351429;0.000622459916258;0.000132956677738;0.000384598714157;0.0;0.0;0.0;0.0;0.0;9.99274449513e-05;0.0;0.0;0.0;0.0;0.0;0.0;0.0;0.0;0.0;0.0;0.0;0.0;0.0;0.0;0.0;0.0;0.0;0.0;0.0;0.0;0.0;0.0;0.0;0.0;0.0;0.0;0.0
283142000000;187;283142000000;map;23.9779155515;-0.0669857110813;0.0;0.0;0.0;0.000960961584586;0.999999538276;0.000614940792616;0.000108728974641;0.000409074333751;0.0;0.0;0.0;0.0;0.0;0.000119755348883;0.0;0.0;0.0;0.0;0.0;0.0;0.0;0.0;0.0;0.0;0.0;0.0;0.0;0.0;0.0;0.0;0.0;0.0;0.0;0.0;0.0;0.0;0.0;0.0;0.0;0.0;0.0
283447000000;188;283447000000;map;24.0869502072;-0.0664812298523;0.0;0.0;0.0;0.000753084180566;0.999999716432;0.000699112876873;0.000139593751656;0.000440117602009;0.0;0.0;0.0;0.0;0.0;0.000116823194257;0.0;0.0;0.0;0.0;0.0;0.0;0.0;0.0;0.0;0.0;0.0;0.0;0.0;0.0;0.0;0.0;0.0;0.0;0.0;0.0;0.0;0.0;0.0;0.0;0.0;0.0;0.0
283645000000;189;283645000000;map;24.1868784328;-0.0665991058633;0.0;0.0;0.0;0.000338946821329;0.999999942558;0.000681306063711;0.000143665986206;0.000414295896381;0.0;0.0;0.0;0.0;0.0;0.000106163413692;0.0;0.0;0.0;0.0;0.0;0.0;0.0;0.0;0.0;0.0;0.0;0.0;0.0;0.0;0.0;0.0;0.0;0.0;0.0;0.0;0.0;0.0;0.0;0.0;0.0;0.0;0.0
283840000000;190;283840000000;map;24.2871285423;-0.0682789811629;0.0;0.0;0.0;0.0002171512476;0.999999976423;0.000717792064165;0.000196112017009;0.00037836185785;0.0;0.0;0.0;0.0;0.0;9.22399598279e-05;0.0;0.0;0.0;0.0;0.0;0.0;0.0;0.0;0.0;0.0;0.0;0.0;0.0;0.0;0.0;0.0;0.0;0.0;0.0;0.0;0.0;0.0;0.0;0.0;0.0;0.0;0.0
284040000000;191;284040000000;map;24.397129581;-0.0665478526544;0.0;0.0;0.0;-6.01366453568e-05;0.999999998192;0.000760529643912;0.00018147095527;0.000393792495809;0.0;0.0;0.0;0.0;0.0;9.6186689561e-05;0.0;0.0;0.0;0.0;0.0;0.0;0.0;0.0;0.0;0.0;0.0;0.0;0.0;0.0;0.0;0.0;0.0;0.0;0.0;0.0;0.0;0.0;0.0;0.0;0.0;0.0;0.0
284240000000;192;284240000000;map;24.5089529348;-0.067184941757;0.0;0.0;0.0;-0.000228529814542;0.999999973887;0.000864964300035;0.000200493975857;0.000413146765117;0.0;0.0;0.0;0.0;0.0;9.80919054806e-05;0.0;0.0;0.0;0.0;0.0;0.0;0.0;0.0;0.0;0.0;0.0;0.0;0.0;0.0;0.0;0.0;0.0;0.0;0.0;0.0;0.0;0.0;0.0;0.0;0.0;0.0;0.0
284455000000;193;284455000000;map;24.6201578413;-0.0664863392162;0.0;0.0;0.0;-2.32514111032e-06;0.999999999997;0.000793040881831;0.000148926638158;0.000422601211163;0.0;0.0;0.0;0.0;0.0;0.000103320407172;0.0;0.0;0.0;0.0;0.0;0.0;0.0;0.0;0.0;0.0;0.0;0.0;0.0;0.0;0.0;0.0;0.0;0.0;0.0;0.0;0.0;0.0;0.0;0.0;0.0;0.0;0.0
284639000000;194;284639000000;map;24.71933224;-0.0664019885897;0.0;0.0;0.0;-0.00020656163803;0.999999978666;0.000761017035188;0.000109698053993;0.000517220281795;0.0;0.0;0.0;0.0;0.0;0.000102515097293;0.0;0.0;0.0;0.0;0.0;0.0;0.0;0.0;0.0;0.0;0.0;0.0;0.0;0.0;0.0;0.0;0.0;0.0;0.0;0.0;0.0;0.0;0.0;0.0;0.0;0.0;0.0
284841000000;195;284841000000;map;24.8200951981;-0.0671073771997;0.0;0.0;0.0;0.000168452418292;0.999999985812;0.000802396813583;0.000159681990584;0.000497608607643;0.0;0.0;0.0;0.0;0.0;9.5433876271e-05;0.0;0.0;0.0;0.0;0.0;0.0;0.0;0.0;0.0;0.0;0.0;0.0;0.0;0.0;0.0;0.0;0.0;0.0;0.0;0.0;0.0;0.0;0.0;0.0;0.0;0.0;0.0
285043000000;196;285043000000;map;24.917781014;-0.0664265237903;0.0;0.0;0.0;0.00017808690658;0.999999984143;0.000899425264151;0.000165739305206;0.000501381870992;0.0;0.0;0.0;0.0;0.0;7.95066500861e-05;0.0;0.0;0.0;0.0;0.0;0.0;0.0;0.0;0.0;0.0;0.0;0.0;0.0;0.0;0.0;0.0;0.0;0.0;0.0;0.0;0.0;0.0;0.0;0.0;0.0;0.0;0.0
285241000000;197;285241000000;map;25.0175163793;-0.067012464526;0.0;0.0;0.0;-4.51030305129e-05;0.999999998983;0.000960603145927;0.000232751371027;0.000494674382851;0.0;0.0;0.0;0.0;0.0;6.33545705822e-05;0.0;0.0;0.0;0.0;0.0;0.0;0.0;0.0;0.0;0.0;0.0;0.0;0.0;0.0;0.0;0.0;0.0;0.0;0.0;0.0;0.0;0.0;0.0;0.0;0.0;0.0;0.0
285443019621;198;285443019621;map;25.1202732823;-0.0662994543332;0.0;0.0;0.0;0.000215744795041;0.999999976727;0.000921003349958;0.000212949664159;0.000501732606843;0.0;0.0;0.0;0.0;0.0;6.70259922021e-05;0.0;0.0;0.0;0.0;0.0;0.0;0.0;0.0;0.0;0.0;0.0;0.0;0.0;0.0;0.0;0.0;0.0;0.0;0.0;0.0;0.0;0.0;0.0;0.0;0.0;0.0;0.0
285640000000;199;285640000000;map;25.2216843224;-0.0684055769817;0.0;0.0;0.0;3.56298646239e-05;0.999999999365;0.000926669915998;0.000240026228743;0.000551776664841;0.0;0.0;0.0;0.0;0.0;6.10255531676e-05;0.0;0.0;0.0;0.0;0.0;0.0;0.0;0.0;0.0;0.0;0.0;0.0;0.0;0.0;0.0;0.0;0.0;0.0;0.0;0.0;0.0;0.0;0.0;0.0;0.0;0.0;0.0
285945000000;200;285945000000;map;25.3334565576;-0.0673520530245;0.0;0.0;0.0;-0.00028249300892;0.999999960099;0.000873740830343;0.000214299246202;0.000540180560486;0.0;0.0;0.0;0.0;0.0;6.62498282397e-05;0.0;0.0;0.0;0.0;0.0;0.0;0.0;0.0;0.0;0.0;0.0;0.0;0.0;0.0;0.0;0.0;0.0;0.0;0.0;0.0;0.0;0.0;0.0;0.0;0.0;0.0;0.0
286145000000;201;286145000000;map;25.4357426801;-0.0686916169713;0.0;0.0;0.0;-0.000322638460486;0.999999947952;0.000936594340487;0.000223738732449;0.000577584242391;0.0;0.0;0.0;0.0;0.0;6.63513604544e-05;0.0;0.0;0.0;0.0;0.0;0.0;0.0;0.0;0.0;0.0;0.0;0.0;0.0;0.0;0.0;0.0;0.0;0.0;0.0;0.0;0.0;0.0;0.0;0.0;0.0;0.0;0.0
286348000000;202;286348000000;map;25.5443469147;-0.067488379091;0.0;0.0;0.0;-0.000142152800717;0.999999989896;0.00089130146273;0.000181509333739;0.000556479091547;0.0;0.0;0.0;0.0;0.0;7.88857982693e-05;0.0;0.0;0.0;0.0;0.0;0.0;0.0;0.0;0.0;0.0;0.0;0.0;0.0;0.0;0.0;0.0;0.0;0.0;0.0;0.0;0.0;0.0;0.0;0.0;0.0;0.0;0.0
286542000000;203;286542000000;map;25.647961716;-0.0668687180933;0.0;0.0;0.0;-1.91768923317e-05;0.999999999816;0.000810375330957;0.000151224190717;0.00052312990268;0.0;0.0;0.0;0.0;0.0;7.80092107863e-05;0.0;0.0;0.0;0.0;0.0;0.0;0.0;0.0;0.0;0.0;0.0;0.0;0.0;0.0;0.0;0.0;0.0;0.0;0.0;0.0;0.0;0.0;0.0;0.0;0.0;0.0;0.0
286743000000;204;286743000000;map;25.7493919568;-0.0667408977324;0.0;0.0;0.0;8.77089435029e-05;0.999999996154;0.000783763995287;0.000134733975301;0.000465612062166;0.0;0.0;0.0;0.0;0.0;7.33973554159e-05;0.0;0.0;0.0;0.0;0.0;0.0;0.0;0.0;0.0;0.0;0.0;0.0;0.0;0.0;0.0;0.0;0.0;0.0;0.0;0.0;0.0;0.0;0.0;0.0;0.0;0.0;0.0
286940000000;205;286940000000;map;25.860401687;-0.0660636706359;0.0;0.0;0.0;0.000781959694796;0.999999694269;0.000721687396435;9.18247998503e-05;0.000474029511869;0.0;0.0;0.0;0.0;0.0;7.78853658163e-05;0.0;0.0;0.0;0.0;0.0;0.0;0.0;0.0;0.0;0.0;0.0;0.0;0.0;0.0;0.0;0.0;0.0;0.0;0.0;0.0;0.0;0.0;0.0;0.0;0.0;0.0;0.0
287141000000;206;287141000000;map;25.9635811593;-0.0670184314114;0.0;0.0;0.0;0.000632485144707;0.999999799981;0.000754527572212;0.000125660941647;0.000518382386716;0.0;0.0;0.0;0.0;0.0;8.8482088889e-05;0.0;0.0;0.0;0.0;0.0;0.0;0.0;0.0;0.0;0.0;0.0;0.0;0.0;0.0;0.0;0.0;0.0;0.0;0.0;0.0;0.0;0.0;0.0;0.0;0.0;0.0;0.0
287347000000;207;287347000000;map;26.0725785222;-0.0679980601497;0.0;0.0;0.0;0.000277744298993;0.999999961429;0.000723725965372;0.000117441698236;0.000488410947111;0.0;0.0;0.0;0.0;0.0;9.04169138742e-05;0.0;0.0;0.0;0.0;0.0;0.0;0.0;0.0;0.0;0.0;0.0;0.0;0.0;0.0;0.0;0.0;0.0;0.0;0.0;0.0;0.0;0.0;0.0;0.0;0.0;0.0;0.0
287545000000;208;287545000000;map;26.1732633787;-0.0669982427576;0.0;0.0;0.0;-0.000259398857169;0.999999966356;0.000712013651196;5.61855900201e-05;0.00049079688234;0.0;0.0;0.0;0.0;0.0;0.000111870829417;0.0;0.0;0.0;0.0;0.0;0.0;0.0;0.0;0.0;0.0;0.0;0.0;0.0;0.0;0.0;0.0;0.0;0.0;0.0;0.0;0.0;0.0;0.0;0.0;0.0;0.0;0.0
287846000000;209;287846000000;map;26.2826527229;-0.0657758034409;0.0;0.0;0.0;8.3166194501e-05;0.999999996542;0.000770491696585;6.2978436155e-05;0.000555462899301;0.0;0.0;0.0;0.0;0.0;0.000129955263073;0.0;0.0;0.0;0.0;0.0;0.0;0.0;0.0;0.0;0.0;0.0;0.0;0.0;0.0;0.0;0.0;0.0;0.0;0.0;0.0;0.0;0.0;0.0;0.0;0.0;0.0;0.0
288044000000;210;288044000000;map;26.382626614;-0.0655922459203;0.0;0.0;0.0;-0.000251874953112;0.99999996828;0.000752174438276;4.34054916199e-05;0.000581816845014;0.0;0.0;0.0;0.0;0.0;0.000148887997236;0.0;0.0;0.0;0.0;0.0;0.0;0.0;0.0;0.0;0.0;0.0;0.0;0.0;0.0;0.0;0.0;0.0;0.0;0.0;0.0;0.0;0.0;0.0;0.0;0.0;0.0;0.0
288243000000;211;288243000000;map;26.4915218639;-0.0668673671534;0.0;0.0;0.0;6.41944451674e-05;0.99999999794;0.000775928992653;8.41222194343e-05;0.000560030309612;0.0;0.0;0.0;0.0;0.0;0.000154635429046;0.0;0.0;0.0;0.0;0.0;0.0;0.0;0.0;0.0;0.0;0.0;0.0;0.0;0.0;0.0;0.0;0.0;0.0;0.0;0.0;0.0;0.0;0.0;0.0;0.0;0.0;0.0
288447000000;212;288447000000;map;26.5937494901;-0.0679392793295;0.0;0.0;0.0;1.97683575133e-05;0.999999999805;0.000714356016033;1.54659329008e-05;0.000609576680849;0.0;0.0;0.0;0.0;0.0;0.000126275395314;0.0;0.0;0.0;0.0;0.0;0.0;0.0;0.0;0.0;0.0;0.0;0.0;0.0;0.0;0.0;0.0;0.0;0.0;0.0;0.0;0.0;0.0;0.0;0.0;0.0;0.0;0.0
288641000000;213;288641000000;map;26.7045609695;-0.0688559517695;0.0;0.0;0.0;-0.000440815236274;0.999999902841;0.00064297234178;-3.13767709796e-05;0.000581232964478;0.0;0.0;0.0;0.0;0.0;0.000105152096342;0.0;0.0;0.0;0.0;0.0;0.0;0.0;0.0;0.0;0.0;0.0;0.0;0.0;0.0;0.0;0.0;0.0;0.0;0.0;0.0;0.0;0.0;0.0;0.0;0.0;0.0;0.0
288840000000;214;288840000000;map;26.8150798296;-0.0701272260884;0.0;0.0;0.0;-0.000901434021529;0.999999593708;0.000617973356725;8.82505541955e-06;0.000583058548329;0.0;0.0;0.0;0.0;0.0;9.4001201441e-05;0.0;0.0;0.0;0.0;0.0;0.0;0.0;0.0;0.0;0.0;0.0;0.0;0.0;0.0;0.0;0.0;0.0;0.0;0.0;0.0;0.0;0.0;0.0;0.0;0.0;0.0;0.0
289045000000;215;289045000000;map;26.9142428002;-0.0705609802264;0.0;0.0;0.0;-0.00105900748669;0.999999439251;0.000556143802328;2.04632245513e-05;0.000642374916448;0.0;0.0;0.0;0.0;0.0;0.000100704964171;0.0;0.0;0.0;0.0;0.0;0.0;0.0;0.0;0.0;0.0;0.0;0.0;0.0;0.0;0.0;0.0;0.0;0.0;0.0;0.0;0.0;0.0;0.0;0.0;0.0;0.0;0.0
289243000000;216;289243000000;map;27.0144672098;-0.0705430948919;0.0;0.0;0.0;-0.000687461703117;0.999999763698;0.000544085818319;-3.65439682017e-05;0.000610981952644;0.0;0.0;0.0;0.0;0.0;7.34497128743e-05;0.0;0.0;0.0;0.0;0.0;0.0;0.0;0.0;0.0;0.0;0.0;0.0;0.0;0.0;0.0;0.0;0.0;0.0;0.0;0.0;0.0;0.0;0.0;0.0;0.0;0.0;0.0
289449000000;217;289449000000;map;27.1162232843;-0.0700594468219;0.0;0.0;0.0;-0.000434234491883;0.99999990572;0.000488086070277;-4.0886696518e-05;0.000564100408845;0.0;0.0;0.0;0.0;0.0;8.07761683869e-05;0.0;0.0;0.0;0.0;0.0;0.0;0.0;0.0;0.0;0.0;0.0;0.0;0.0;0.0;0.0;0.0;0.0;0.0;0.0;0.0;0.0;0.0;0.0;0.0;0.0;0.0;0.0
289643000000;218;289643000000;map;27.2256351578;-0.0695802082865;0.0;0.0;0.0;-0.000766473651248;0.999999706259;0.000441041681597;-9.24212862849e-05;0.000580904660244;0.0;0.0;0.0;0.0;0.0;7.79722904689e-05;0.0;0.0;0.0;0.0;0.0;0.0;0.0;0.0;0.0;0.0;0.0;0.0;0.0;0.0;0.0;0.0;0.0;0.0;0.0;0.0;0.0;0.0;0.0;0.0;0.0;0.0;0.0
289843737519;219;289843737519;map;27.3360045312;-0.0696681525091;0.0;0.0;0.0;-0.00081048958842;0.999999671553;0.00043344101482;-9.2717496798e-05;0.000556764940119;0.0;0.0;0.0;0.0;0.0;8.78519511001e-05;0.0;0.0;0.0;0.0;0.0;0.0;0.0;0.0;0.0;0.0;0.0;0.0;0.0;0.0;0.0;0.0;0.0;0.0;0.0;0.0;0.0;0.0;0.0;0.0;0.0;0.0;0.0
290145000000;220;290145000000;map;27.446325029;-0.0677323559203;0.0;0.0;0.0;-0.000700533889699;0.999999754626;0.000426878630492;-9.5653262473e-05;0.000533200915601;0.0;0.0;0.0;0.0;0.0;8.55602840248e-05;0.0;0.0;0.0;0.0;0.0;0.0;0.0;0.0;0.0;0.0;0.0;0.0;0.0;0.0;0.0;0.0;0.0;0.0;0.0;0.0;0.0;0.0;0.0;0.0;0.0;0.0;0.0
290350000000;221;290350000000;map;27.5574067101;-0.069950787342;0.0;0.0;0.0;-0.00168555411787;0.999998579453;0.000500739563449;-8.95329931623e-05;0.00061233583574;0.0;0.0;0.0;0.0;0.0;0.000107647797633;0.0;0.0;0.0;0.0;0.0;0.0;0.0;0.0;0.0;0.0;0.0;0.0;0.0;0.0;0.0;0.0;0.0;0.0;0.0;0.0;0.0;0.0;0.0;0.0;0.0;0.0;0.0
290543000000;222;290543000000;map;27.6612278516;-0.0693449823231;0.0;0.0;0.0;-0.000944563898769;0.999999553899;0.000480166950638;-8.85688213748e-05;0.000586824954742;0.0;0.0;0.0;0.0;0.0;0.00010441974055;0.0;0.0;0.0;0.0;0.0;0.0;0.0;0.0;0.0;0.0;0.0;0.0;0.0;0.0;0.0;0.0;0.0;0.0;0.0;0.0;0.0;0.0;0.0;0.0;0.0;0.0;0.0
290748000000;223;290748000000;map;27.7726510694;-0.0689860784078;0.0;0.0;0.0;-0.000417791167934;0.999999912725;0.000478056862562;-0.000150894909963;0.000554122367966;0.0;0.0;0.0;0.0;0.0;0.000107449221817;0.0;0.0;0.0;0.0;0.0;0.0;0.0;0.0;0.0;0.0;0.0;0.0;0.0;0.0;0.0;0.0;0.0;0.0;0.0;0.0;0.0;0.0;0.0;0.0;0.0;0.0;0.0
290945000000;224;290945000000;map;27.882772868;-0.0682228118709;0.0;0.0;0.0;-0.000465511249574;0.99999989165;0.000501127964753;-0.000142754234005;0.000585179329474;0.0;0.0;0.0;0.0;0.0;0.000109952100034;0.0;0.0;0.0;0.0;0.0;0.0;0.0;0.0;0.0;0.0;0.0;0.0;0.0;0.0;0.0;0.0;0.0;0.0;0.0;0.0;0.0;0.0;0.0;0.0;0.0;0.0;0.0
291143000000;225;291143000000;map;27.9874256292;-0.0688641579828;0.0;0.0;0.0;9.06333365161e-05;0.999999995893;0.000485826712179;-0.000105619941346;0.000598800609929;0.0;0.0;0.0;0.0;0.0;0.000114530844754;0.0;0.0;0.0;0.0;0.0;0.0;0.0;0.0;0.0;0.0;0.0;0.0;0.0;0.0;0.0;0.0;0.0;0.0;0.0;0.0;0.0;0.0;0.0;0.0;0.0;0.0;0.0
291446000000;226;291446000000;map;28.0913903541;-0.0667551404229;0.0;0.0;0.0;0.000894274928564;0.999999600136;0.000445093562234;-0.000128621486683;0.000517332720668;0.0;0.0;0.0;0.0;0.0;0.000117101666122;0.0;0.0;0.0;0.0;0.0;0.0;0.0;0.0;0.0;0.0;0.0;0.0;0.0;0.0;0.0;0.0;0.0;0.0;0.0;0.0;0.0;0.0;0.0;0.0;0.0;0.0;0.0
291647000000;227;291647000000;map;28.2011159054;-0.0651631708839;0.0;0.0;0.0;0.00135134046329;0.999999086939;0.000469686170959;-7.58357800807e-05;0.000526782404036;0.0;0.0;0.0;0.0;0.0;0.000111263621227;0.0;0.0;0.0;0.0;0.0;0.0;0.0;0.0;0.0;0.0;0.0;0.0;0.0;0.0;0.0;0.0;0.0;0.0;0.0;0.0;0.0;0.0;0.0;0.0;0.0;0.0;0.0
291842000000;228;291842000000;map;28.3103535526;-0.0667578203745;0.0;0.0;0.0;0.00141652543028;0.999998996727;0.000466913309879;-5.72709746975e-05;0.000530758703702;0.0;0.0;0.0;0.0;0.0;0.00012385949371;0.0;0.0;0.0;0.0;0.0;0.0;0.0;0.0;0.0;0.0;0.0;0.0;0.0;0.0;0.0;0.0;0.0;0.0;0.0;0.0;0.0;0.0;0.0;0.0;0.0;0.0;0.0
292042000000;229;292042000000;map;28.4118857126;-0.0657312004168;0.0;0.0;0.0;0.00106093675108;0.999999437206;0.000439051924673;-5.4109952716e-05;0.000446629797965;0.0;0.0;0.0;0.0;0.0;0.000138910844025;0.0;0.0;0.0;0.0;0.0;0.0;0.0;0.0;0.0;0.0;0.0;0.0;0.0;0.0;0.0;0.0;0.0;0.0;0.0;0.0;0.0;0.0;0.0;0.0;0.0;0.0;0.0
292248000000;230;292248000000;map;28.5120186974;-0.0657480710782;0.0;0.0;0.0;0.00122143075763;0.999999254053;0.000448840597414;-5.65874887659e-05;0.000441145524905;0.0;0.0;0.0;0.0;0.0;0.000142659476629;0.0;0.0;0.0;0.0;0.0;0.0;0.0;0.0;0.0;0.0;0.0;0.0;0.0;0.0;0.0;0.0;0.0;0.0;0.0;0.0;0.0;0.0;0.0;0.0;0.0;0.0;0.0
292446000000;231;292446000000;map;28.61456845;-0.0644635622652;0.0;0.0;0.0;0.00184618457202;0.9999982958;0.000386961334698;-3.77751107346e-05;0.000418062307207;0.0;0.0;0.0;0.0;0.0;0.000106558075736;0.0;0.0;0.0;0.0;0.0;0.0;0.0;0.0;0.0;0.0;0.0;0.0;0.0;0.0;0.0;0.0;0.0;0.0;0.0;0.0;0.0;0.0;0.0;0.0;0.0;0.0;0.0
292650000000;232;292650000000;map;28.7235999363;-0.0658805218719;0.0;0.0;0.0;0.00152735953218;0.999998833586;0.000328854569602;-7.15797297004e-05;0.000414739495406;0.0;0.0;0.0;0.0;0.0;0.000120843592017;0.0;0.0;0.0;0.0;0.0;0.0;0.0;0.0;0.0;0.0;0.0;0.0;0.0;0.0;0.0;0.0;0.0;0.0;0.0;0.0;0.0;0.0;0.0;0.0;0.0;0.0;0.0
292850899777;233;292850899777;map;28.8248241593;-0.0679159366573;0.0;0.0;0.0;0.000984220611598;0.999999515655;0.000320417595958;-4.78602887499e-05;0.000385303636271;0.0;0.0;0.0;0.0;0.0;0.000130718452759;0.0;0.0;0.0;0.0;0.0;0.0;0.0;0.0;0.0;0.0;0.0;0.0;0.0;0.0;0.0;0.0;0.0;0.0;0.0;0.0;0.0;0.0;0.0;0.0;0.0;0.0;0.0
293055000000;234;293055000000;map;28.9292349881;-0.0673817783359;0.0;0.0;0.0;0.00116432195243;0.999999322177;0.000342998975157;-1.99341054283e-05;0.000395200470537;0.0;0.0;0.0;0.0;0.0;0.000133843464325;0.0;0.0;0.0;0.0;0.0;0.0;0.0;0.0;0.0;0.0;0.0;0.0;0.0;0.0;0.0;0.0;0.0;0.0;0.0;0.0;0.0;0.0;0.0;0.0;0.0;0.0;0.0
293251000000;235;293251000000;map;29.030366379;-0.0678923450599;0.0;0.0;0.0;0.000602197203003;0.999999818679;0.000318568861303;2.16402298552e-05;0.000423177854625;0.0;0.0;0.0;0.0;0.0;0.000133503456732;0.0;0.0;0.0;0.0;0.0;0.0;0.0;0.0;0.0;0.0;0.0;0.0;0.0;0.0;0.0;0.0;0.0;0.0;0.0;0.0;0.0;0.0;0.0;0.0;0.0;0.0;0.0
293456000000;236;293456000000;map;29.1337444507;-0.0678871599287;0.0;0.0;0.0;0.000895665755756;0.999999598891;0.00028481176787;8.3734536211e-05;0.000491705505748;0.0;0.0;0.0;0.0;0.0;0.000146674245292;0.0;0.0;0.0;0.0;0.0;0.0;0.0;0.0;0.0;0.0;0.0;0.0;0.0;0.0;0.0;0.0;0.0;0.0;0.0;0.0;0.0;0.0;0.0;0.0;0.0;0.0;0.0
293752000000;237;293752000000;map;29.2439226231;-0.0668854429023;0.0;0.0;0.0;0.000835998944946;0.999999650553;0.000323839122416;8.3773135936e-05;0.000518071792287;0.0;0.0;0.0;0.0;0.0;0.000165876278491;0.0;0.0;0.0;0.0;0.0;0.0;0.0;0.0;0.0;0.0;0.0;0.0;0.0;0.0;0.0;0.0;0.0;0.0;0.0;0.0;0.0;0.0;0.0;0.0;0.0;0.0;0.0
293953302241;238;293953302241;map;29.353028845;-0.0679638738796;0.0;0.0;0.0;0.000341003541855;0.999999941858;0.000309102748588;0.000107467634642;0.000606927648905;0.0;0.0;0.0;0.0;0.0;0.000157361588053;0.0;0.0;0.0;0.0;0.0;0.0;0.0;0.0;0.0;0.0;0.0;0.0;0.0;0.0;0.0;0.0;0.0;0.0;0.0;0.0;0.0;0.0;0.0;0.0;0.0;0.0;0.0
294151000000;239;294151000000;map;29.4641238829;-0.0658105550205;0.0;0.0;0.0;0.000481003628986;0.999999884318;0.000331891003952;7.92744787561e-05;0.00056888836736;0.0;0.0;0.0;0.0;0.0;0.000134752647579;0.0;0.0;0.0;0.0;0.0;0.0;0.0;0.0;0.0;0.0;0.0;0.0;0.0;0.0;0.0;0.0;0.0;0.0;0.0;0.0;0.0;0.0;0.0;0.0;0.0;0.0;0.0
