%time,field.x,field.y,field.z
1521813188806613922,5.99998306517,5.59956551069,0.132273097032
1521813188806781053,5.99998306517,5.59956544474,0.132273097033
1521813188806879043,5.99998306517,5.59956537879,0.132273097034
1521813188806956052,5.99998306517,5.59956531283,0.132273097035
1521813188807018041,5.99998306517,5.59956524688,0.132273097036
1521813188807077884,5.99998306516,5.59956518093,0.132273097037
1521813188807137012,5.99998306516,5.59956511497,0.132273097038
1521813188807195901,5.99998306516,5.59956504902,0.132273097039
1521813188807259082,5.99998306516,5.59956498307,0.13227309704
1521813188812367916,5.99998306516,5.59956491711,0.132273097041
1521813188812707901,5.99998306516,5.59956485116,0.132273097042
1521813188812916994,5.99998306516,5.59956478521,0.132273097043
1521813188819351911,5.99998306516,5.59956471926,0.132273097044
1521813188822160005,5.99998306516,5.5995646533,0.132273097045
1521813188822285890,5.99998306516,5.59956458735,0.132273097046
1521813188822361946,5.99998306516,5.5995645214,0.132273097047
1521813188822423934,5.99998306516,5.59956445544,0.132273097048
1521813188822489023,5.99998306515,5.59956438949,0.132273097049
1521813188831414937,5.99998306515,5.59956432354,0.13227309705
1521813188844118118,5.99998306515,5.59956425758,0.132273097051
1521813188959091901,5.99998306515,5.59956419163,0.132273097052
1521813188987891912,5.99998306515,5.59956412568,0.132273097053
1521813189008444070,5.99998306515,5.59956405973,0.132273097054
1521813189051335096,5.9999829884,5.59945952142,0.132273004224
1521813189064109086,5.99998285804,5.59789075965,0.132273039091
1521813189096795082,5.99998250801,5.59444681556,0.132273040952
1521813189142102003,5.99998195842,5.5891278591,0.132273041576
1521813189142913103,5.99998121192,5.58193389738,0.132273041808
1521813189147948026,5.99998026975,5.57286493295,0.132273041934
1521813189174245119,5.9999791325,5.56192096668,0.132273042059
1521813189176507949,5.99997780053,5.54910199884,0.132273042231
1521813189188589096,5.99997627412,5.53440802946,0.13227304248
1521813189191374063,5.99997455359,5.51783905854,0.13227304283
1521813189217885971,5.99997263926,5.49939508607,0.132273043307
1521813189218024969,5.99997053151,5.47907611207,0.13227304393
1521813189218101978,5.99996823076,5.4568821366,0.132273044718
1521813189240915060,5.99996573746,5.43281315981,0.132273045683
1521813189256218910,5.99996321422,5.40781141249,0.132273100556
1521813189312433958,5.99996070071,5.38281131392,0.132273097831
1521813189349997997,5.99995821325,5.35781123529,0.132273096838
1521813189350161075,5.99995573623,5.33281116471,0.132273096434
1521813189389947891,5.9999532635,5.30781109855,0.132273096224
1521813189401232957,5.99995079263,5.28281103547,0.132273096081
1521813189437894105,5.99994832251,5.25781097493,0.132273095965
1521813189504539966,5.99994585246,5.23281091664,0.132273095863
1521813189542144060,5.99994338196,5.20781086038,0.132273095773
1521813189542257070,5.99994091052,5.1828108059,0.132273095697
1521813189542320013,5.99993843774,5.15781075292,0.132273095635
1521813189542382001,5.99993596322,5.13281070114,0.132273095588
1521813189583275079,5.9999334866,5.10781065023,0.132273095557
1521813189625844955,5.99993100759,5.08281059983,0.132273095544
1521813189662358999,5.99992852594,5.05781054959,0.132273095548
1521813189662533044,5.99992604146,5.03281049914,0.13227309557
1521813189662638902,5.99992355404,5.00781044811,0.132273095609
1521813189702861070,5.99992106361,4.98281039616,0.132273095664
1521813189705024957,5.9999185702,4.95781034297,0.132273095734
1521813189741868972,5.99991607389,4.93281028823,0.132273095817
1521813189782936096,5.99991357483,4.90781023168,0.132273095911
1521813189783305883,5.99991107323,4.88281017311,0.132273096015
1521813189830018043,5.99990856936,4.85781011232,0.132273096126
1521813189836169004,5.99990606355,4.83281004921,0.132273096241
1521813189875107049,5.99990355615,4.8078099837,0.132273096357
1521813189915318965,5.99990104759,4.78280991577,0.132273096473
1521813189915923118,5.99989853827,4.75780984546,0.132273096585
1521813189955280065,5.99989602866,4.73280977287,0.132273096692
1521813189955631017,5.99989351921,4.70780969814,0.132273096789
1521813190002171993,5.99989101037,4.68280962147,0.132273096877
1521813190042042970,5.99988850256,4.65780954309,0.132273096951
1521813190083126068,5.99988599622,4.63280946329,0.132273097012
1521813190083548069,5.99988349171,4.60780938236,0.132273097057
1521813190083684921,5.99988098937,4.58280930066,0.132273097085
1521813190121922016,5.99987848949,4.55780921854,0.132273097097
1521813190130518913,5.99987599231,4.53280913635,0.132273097091
1521813190171077966,5.99987349798,4.50780905447,0.132273097068
1521813190209944963,5.99987100663,4.48280897325,0.132273097028
1521813190210063934,5.99986851827,4.45780889303,0.132273096972
1521813190255815982,5.99986603288,4.43280881415,0.132273096902
1521813190260346889,5.99986355036,4.40780873687,0.13227309682
1521813190321963071,5.99986107055,4.38280866147,0.132273096726
1521813190362588882,5.99985859321,4.35780858814,0.132273096624
1521813190362750053,5.99985611806,4.33280851706,0.132273096515
1521813190406306028,5.99985364476,4.30780844833,0.132273096402
1521813190406526088,5.99985117294,4.28280838201,0.132273096288
1521813190445873022,5.99984870219,4.2578083181,0.132273096175
1521813190445982933,5.99984623207,4.23280825656,0.132273096066
1521813190486994028,5.99984376214,4.20780819726,0.132273095964
1521813190487387895,5.99984129193,4.18280814006,0.13227309587
1521813190526709079,5.999838821,4.15780808475,0.132273095788
1521813190530734062,5.99983634892,4.13280803108,0.132273095719
1521813190570791006,5.99983387528,4.10780797876,0.132273095664
1521813190611695051,5.99983139972,4.08280792747,0.132273095625
1521813190652014970,5.9998289219,4.05780787688,0.132273095603
1521813190652561902,5.99982644156,4.03280782662,0.132273095599
1521813190690274953,5.99982395847,4.00780777633,0.132273095612
1521813190690371036,5.99982147249,3.98280772564,0.132273095642
1521813190729800939,5.99981898353,3.9578076742,0.132273095689
1521813190738509893,5.99981649157,3.93280762168,0.132273095752
1521813190777929067,5.99981399666,3.90780756775,0.132273095829
1521813190818624019,5.99981149891,3.88280751214,0.132273095918
1521813190818954944,5.99980899851,3.8578074546,0.132273096017
1521813190857770919,5.9998064957,3.83280739493,0.132273096124
1521813190860163927,5.99980399078,3.807807333,0.132273096237
1521813190904504060,5.9998014841,3.78280726869,0.132273096353
1521813190941741943,5.99979897603,3.75780720196,0.13227309647
1521813190941813945,5.99979646701,3.73280713283,0.132273096584
1521813190981937885,5.99979395747,3.70780706137,0.132273096693
1521813190982027053,5.99979144786,3.68280698768,0.132273096796
1521813191021733045,5.99978893863,3.65780691195,0.132273096888
1521813191040569067,5.99978643024,3.6328068344,0.132273096969
1521813191077935934,5.9997839231,3.60780675527,0.132273097037
1521813191118985891,5.99978141761,3.58280667487,0.132273097089
1521813191119349956,5.99977891413,3.55780659352,0.132273097126
1521813191158062934,5.99977641298,3.53280651158,0.132273097146
1521813191161945104,5.99977391442,3.50780642938,0.132273097148
1521813191202037096,5.99977141864,3.48280634732,0.132273097134
1521813191242902040,5.99976892578,3.45780626574,0.132273097102
1521813191281996011,5.99976643592,3.43280618499,0.132273097054
1521813191282126903,5.99976394904,3.40780610542,0.132273096991
1521813191322020053,5.9997614651,3.38280602733,0.132273096914
1521813191322601079,5.99975898395,3.35780595098,0.132273096826
1521813191361891031,5.99975650539,3.33280587662,0.132273096727
1521813191405122041,5.99975402917,3.30780580442,0.132273096621
1521813191405392885,5.99975155498,3.28280573453,0.13227309651
1521813191442074060,5.99974908245,3.25780566702,0.132273096396
1521813191442193984,5.9997466112,3.23280560194,0.132273096282
1521813191481955051,5.9997441408,3.20780553924,0.132273096171
1521813191482064962,5.99974167081,3.18280547886,0.132273096065
1521813191522106885,5.99973920076,3.15780542066,0.132273095967
1521813191563317060,5.99973673022,3.13280536446,0.132273095879
1521813191602161884,5.99973425873,3.10780531002,0.132273095802
1521813191641967058,5.99973178588,3.08280525708,0.13227309574
1521813191642117977,5.99972931129,3.05780520534,0.132273095693
1521813191642165899,5.9997268346,3.03280515446,0.132273095663
1521813191686685085,5.99972435551,3.00780510409,0.13227309565
1521813191687623023,5.99972187377,2.98280505387,0.132273095654
1521813191732956886,5.99971938921,2.95780500343,0.132273095676
1521813191771231889,5.9997169017,2.93280495242,0.132273095715
1521813191771573066,5.99971441119,2.90780490048,0.13227309577
1521813191810949087,5.9997119177,2.88280484729,0.132273095839
1521813191811256885,5.99970942131,2.85780479256,0.132273095923
1521813191850116014,5.99970692216,2.83280473601,0.132273096017
1521813191866925954,5.99970442048,2.80780467743,0.132273096121
1521813191906900882,5.99970191654,2.78280461664,0.132273096231
1521813191950090885,5.99969941065,2.75780455352,0.132273096346
1521813191950242996,5.99969690319,2.732804488,0.132273096462
1521813191990396022,5.99969439456,2.70780442007,0.132273096578
1521813191993531942,5.99969188519,2.68280434976,0.13227309669
1521813192030534982,5.99968937553,2.65780427716,0.132273096796
1521813192070025920,5.99968686602,2.63280420243,0.132273096893
1521813192111203908,5.99968435714,2.60780412576,0.13227309698
1521813192111721038,5.99968184929,2.58280404738,0.132273097055
1521813192149908065,5.99967934291,2.55780396758,0.132273097115
1521813192149990081,5.99967683837,2.53280388667,0.132273097159
1521813192192357063,5.99967433601,2.50780380499,0.132273097187
1521813192192950963,5.99967183611,2.48280372288,0.132273097198
1521813192230325937,5.9996693389,2.45780364072,0.132273097192
1521813192270945072,5.99966684456,2.43280355886,0.132273097169
1521813192271365880,5.99966435318,2.40780347767,0.132273097129
1521813192310007095,5.9996618648,2.38280339749,0.132273097073
1521813192310127019,5.99965937939,2.35780331864,0.132273097003
1521813192349838972,5.99965689685,2.33280324141,0.13227309692
1521813192356393098,5.99965441701,2.30780316605,0.132273096826
1521813192397953987,5.99965193964,2.28280309277,0.132273096723
1521813192471462965,5.99964946446,2.25780302173,0.132273096614
1521813192510965108,5.99964699113,2.23280295305,0.132273096501
1521813192511123895,5.99964451927,2.20780288678,0.132273096386
1521813192511179924,5.99964204847,2.18280282292,0.132273096274
1521813192511220932,5.9996395783,2.15780276143,0.132273096165
1521813192550308942,5.9996371083,2.13280270218,0.132273096062
1521813192564341068,5.99963463803,2.10780264502,0.132273095969
1521813192602529048,5.99963216703,2.08280258975,0.132273095886
1521813192642730951,5.99962969488,2.05780253612,0.132273095817
1521813192682360887,5.99962722116,2.03280248384,0.132273095762
1521813192682629108,5.99962474551,2.00780243258,0.132273095723
1521813192682713985,5.99962226761,1.98280238201,0.132273095701
1521813192722438097,5.99961978718,1.95780233177,0.132273095697
1521813192729484081,5.999617304,1.9328022815,0.13227309571
1521813192766834974,5.99961481793,1.90780223083,0.132273095741
1521813192806094884,5.99961232887,1.8828021794,0.132273095788
1521813192806236028,5.99960983682,1.85780212688,0.13227309585
1521813192845958948,5.99960734181,1.83280207295,0.132273095927
1521813192855737924,5.99960484397,1.80780201734,0.132273096016
1521813192894257068,5.99960234348,1.7828019598,0.132273096115
1521813192935026884,5.99959984058,1.75780190013,0.132273096222
1521813192935375928,5.99959733558,1.73280183819,0.132273096335
1521813192974041938,5.99959482882,1.70780177387,0.132273096451
1521813192983613014,5.99959232068,1.68280170714,0.132273096567
1521813193021891117,5.99958981159,1.657801638,0.132273096681
1521813193061945915,5.99958730198,1.63280156653,0.132273096791
1521813193102987051,5.99958479231,1.60780149284,0.132273096893
1521813193141863107,5.99958228302,1.58280141711,0.132273096985
1521813193141963958,5.99957977458,1.55780133955,0.132273097066
1521813193142033100,5.99957726739,1.53280126043,0.132273097133
1521813193183569908,5.99957476187,1.50780118004,0.132273097185
1521813193194053888,5.99957225835,1.4828010987,0.132273097221
1521813193234579086,5.99956975717,1.45780101677,0.132273097241
1521813193274152994,5.99956725857,1.4328009346,0.132273097243
1521813193274292945,5.99956476276,1.40780085255,0.132273097228
1521813193315056085,5.99956226987,1.382800771,0.132273097196
1521813193360255956,5.99955977998,1.35780069029,0.132273097148
1521813193398159027,5.99955729308,1.33280061075,0.132273097084
1521813193439198017,5.9995548091,1.3078005327,0.132273097007
1521813193439737081,5.99955232792,1.28280045639,0.132273096918
1521813193439897060,5.99954984932,1.25780038207,0.13227309682
1521813193478127956,5.99954737306,1.23280030992,0.132273096713
1521813193491132974,5.99954489883,1.20780024008,0.132273096602
1521813193530088901,5.99954242625,1.18280017262,0.132273096488
1521813193530234098,5.99953995495,1.15780010758,0.132273096374
1521813193569977045,5.99953748449,1.13280004494,0.132273096262
1521813193570070028,5.99953501443,1.1077999846,0.132273096156
1521813193610013008,5.99953254432,1.08279992645,0.132273096058
1521813193610126972,5.9995300737,1.05779987029,0.13227309597
1521813193649915933,5.99952760213,1.03279981589,0.132273095894
1521813193656039953,5.9995251292,1.00779976298,0.132273095831
1521813193694185018,5.99952265451,0.98279971127,0.132273095784
1521813193733952045,5.99952017772,0.957799660416,0.132273095754
1521813193775468111,5.99951769854,0.93279961007,0.132273095741
1521813193775978088,5.9995152167,0.907799559869,0.132273095745
1521813193813900947,5.99951273204,0.882799509448,0.132273095767
1521813193814002990,5.99951024443,0.857799458447,0.132273095806
1521813193855263948,5.99950775382,0.832799406516,0.132273095861
1521813193857208967,5.99950526022,0.807799353331,0.132273095931
1521813193893834114,5.99950276373,0.782799298594,0.132273096014
1521813193937922954,5.99950026448,0.757799242043,0.132273096108
1521813193979095935,5.9994977627,0.732799183457,0.132273096212
1521813193979382038,5.99949525867,0.707799122662,0.132273096322
1521813194019241094,5.99949275269,0.682799059536,0.132273096437
1521813194019444942,5.99949024514,0.657798994008,0.132273096553
1521813194057878971,5.99948773643,0.632798926064,0.132273096669
1521813194083715915,5.99948522698,0.607798855743,0.13227309678
1521813194122488975,5.99948271725,0.582798783141,0.132273096886
1521813194162106037,5.99948020768,0.557798708404,0.132273096983
1521813194162266016,5.99947769873,0.532798631728,0.13227309707
1521813194202982902,5.99947519083,0.507798553354,0.132273097144
1521813194203361988,5.9994726844,0.48279847356,0.132273097204
1521813194242440938,5.99947017981,0.457798392658,0.132273097248
1521813194263231039,5.9994676774,0.432798310984,0.132273097276
1521813194303021907,5.99946517746,0.407798228894,0.132273097286
1521813194303302049,5.99946268021,0.38279814675,0.13227309728
1521813194342032909,5.99946018583,0.357798064919,0.132273097256
1521813194342164039,5.99945769441,0.332797983759,0.132273097216
1521813194397923946,5.999455206,0.307797903612,0.132273097159
1521813194432419061,5.99945272055,0.282797824797,0.132273097089
1521813194470360994,5.99945023797,0.257797747605,0.132273097006
1521813194470472097,5.99944775808,0.232797672287,0.132273096911
1521813194470530986,5.99944528067,0.207797599053,0.132273096808
1521813194524411916,5.99944280544,0.182797528063,0.132273096699
1521813194524672031,5.99944033205,0.157797459428,0.132273096586
1521813194575391054,5.99943786013,0.132797393204,0.132273096471
1521813194614116907,5.99943538927,0.107797329393,0.132273096358
1521813194614465951,5.99943291903,0.0827972679395,0.132273096249
1521813194654015064,5.99943044896,0.0577972087363,0.132273096147
1521813194654159069,5.9994279786,0.0327971516236,0.132273096053
1521813194693907976,5.99942550752,0.0077970963939,0.132273095971
1521813194694041013,5.99942303527,-0.0172029572034,0.132273095901
1521813194734988927,5.99942056146,-0.0422030094563,0.132273095847
1521813194735331058,5.99941808571,-0.0672030606834,0.132273095808
1521813194802658081,5.99941560771,-0.0922031112269,0.132273095786
1521813194802912950,5.99941312717,-0.117203161445,0.132273095782
1521813194841967105,5.99941064388,-0.142203211702,0.132273095795
1521813194842133998,5.9994081577,-0.167203262363,0.132273095825
1521813194882699012,5.99940566853,-0.192203313783,0.132273095873
1521813194883069992,5.99940317636,-0.2172033663,0.132273095935
1521813194921849966,5.99940068124,-0.242203420227,0.132273096012
1521813194929286003,5.9993981833,-0.267203475842,0.132273096101
1521813194966135025,5.9993956827,-0.292203533389,0.1322730962
1521813195007025957,5.9993931797,-0.317203593065,0.132273096307
1521813195007576942,5.9993906746,-0.342203655018,0.13227309642
1521813195058927059,5.99938816773,-0.367203719345,0.132273096536
1521813195060005903,5.9993856595,-0.392203786088,0.132273096652
1521813195107883930,5.99938315032,-0.417203855234,0.132273096766
1521813195150264978,5.99938064063,-0.442203926715,0.132273096875
1521813195150609016,5.99937813089,-0.46720400041,0.132273096976
1521813195189896106,5.99937562153,-0.492204076146,0.132273097068
1521813195189985036,5.99937311302,-0.517204153705,0.132273097149
1521813195229974031,5.99937060577,-0.542204232825,0.132273097216
1521813195260682106,5.99936810019,-0.567204313212,0.132273097268
1521813195298000097,5.99936559662,-0.592204394539,0.132273097304
1521813195298134088,5.99936309538,-0.61720447646,0.132273097323
1521813195338270902,5.99936059674,-0.642204558614,0.132273097325
1521813195338813066,5.99935810088,-0.667204640636,0.132273097309
1521813195377880096,5.99935560795,-0.692204722164,0.132273097277
1521813195380043029,5.99935311801,-0.717204802844,0.132273097228
1521813195419267892,5.99935063106,-0.742204882347,0.132273097164
1521813195457942008,5.99934814704,-0.767204960366,0.132273097087
1521813195458060026,5.9993456658,-0.792205036631,0.132273096998
1521813195499171972,5.99934318716,-0.817205110909,0.132273096899
1521813195550725936,5.99934071084,-0.842205183017,0.132273096793
1521813195590194940,5.99933823654,-0.867205252818,0.132273096681
1521813195590347051,5.99933576391,-0.892205320228,0.132273096567
1521813195630072116,5.99933329253,-0.91720538522,0.132273096452
1521813195630198001,5.999330822,-0.942205447819,0.132273096341
1521813195669776916,5.99932835186,-0.967205508109,0.132273096235
1521813195669909000,5.99932588166,-0.992205566223,0.132273096137
1521813195709897041,5.99932341095,-1.01720562235,0.132273096048
1521813195730953931,5.99932093928,-1.04220567671,0.132273095972
1521813195770734071,5.99931846625,-1.06720572958,0.13227309591
1521813195810456037,5.99931599146,-1.09220578126,0.132273095863
1521813195810527086,5.99931351456,-1.11720583209,0.132273095833
1521813195850805997,5.99931103526,-1.14220588242,0.13227309582
1521813195856203079,5.99930855331,-1.1672059326,0.132273095824
1521813195894131898,5.99930606853,-1.19220598301,0.132273095846
1521813195894248962,5.9993035808,-1.217206034,0.132273095885
1521813195935132980,5.99930109007,-1.24220608593,0.13227309594
1521813195935621976,5.99929859636,-1.26720613911,0.13227309601
1521813195974280118,5.99929609974,-1.29220619385,0.132273096093
1521813195980148077,5.99929360038,-1.31720625041,0.132273096187
1521813196032222986,5.99929109849,-1.342206309,0.132273096291
1521813196070209980,5.99928859434,-1.36720636981,0.132273096401
1521813196070353984,5.99928608826,-1.39220643294,0.132273096516
1521813196109939098,5.99928358061,-1.41720649848,0.132273096632
1521813196110009908,5.9992810718,-1.44220656644,0.132273096747
1521813196151276111,5.99927856227,-1.46720663677,0.132273096859
1521813196160898923,5.99927605244,-1.49220670938,0.132273096964
1521813196199064016,5.99927354279,-1.51720678412,0.132273097061
1521813196238369941,5.99927103377,-1.5422068608,0.132273097147
1521813196238459110,5.9992685258,-1.56720693918,0.132273097221
1521813196278887987,5.9992660193,-1.59220701897,0.132273097281
1521813196279577016,5.99926351465,-1.61720709987,0.132273097325
1521813196319317102,5.99926101218,-1.64220718153,0.132273097352
1521813196358757972,5.99925851218,-1.66720726361,0.132273097362
1521813196398715019,5.99925601488,-1.69220734573,0.132273097355
1521813196398813009,5.99925352044,-1.71720742754,0.132273097331
1521813196438195943,5.99925102897,-1.74220750867,0.13227309729
1521813196438417911,5.9992485405,-1.76720758879,0.132273097234
1521813196478069067,5.999246055,-1.79220766757,0.132273097163
1521813196478189945,5.99924357237,-1.81720774472,0.13227309708
1521813196522516012,5.99924109242,-1.84220782,0.132273096985
1521813196533029079,5.99923861495,-1.8672078932,0.132273096882
1521813196569859027,5.99923613965,-1.89220796414,0.132273096772
1521813196610008955,5.99923366619,-1.91720803273,0.132273096659
1521813196610162973,5.9992311942,-1.94220809891,0.132273096544
1521813196671327114,5.99922872326,-1.96720816268,0.132273096431
1521813196674410104,5.99922625293,-1.99220822409,0.132273096322
1521813196713967084,5.99922378277,-2.01720828325,0.13227309622
1521813196754749059,5.99922131232,-2.04220834032,0.132273096126
1521813196755733966,5.99921884114,-2.06720839551,0.132273096044
1521813196793844938,5.99921636879,-2.09220844908,0.132273095974
1521813196793937921,5.99921389486,-2.1172085013,0.13227309592
1521813196835134983,5.999211419,-2.1422085525,0.132273095881
1521813196840728998,5.99920894087,-2.16720860302,0.132273095859
1521813196877990007,5.99920646021,-2.19220865322,0.132273095855
1521813196919146060,5.99920397681,-2.21720870347,0.132273095868
1521813196919327020,5.9992014905,-2.24220875412,0.132273095899
1521813196958188056,5.9991990012,-2.26720880553,0.132273095946
1521813196958386898,5.99919650891,-2.29220885805,0.132273096009
1521813196998699903,5.99919401366,-2.31720891198,0.132273096085
1521813197048556089,5.99919151559,-2.3422089676,0.132273096174
1521813197086100101,5.99918901487,-2.36720902515,0.132273096273
1521813197086257934,5.99918651176,-2.39220908484,0.132273096381
1521813197125932931,5.99918400654,-2.4172091468,0.132273096493
1521813197126020908,5.99918149957,-2.44220921114,0.132273096609
1521813197166053056,5.99917899123,-2.46720927789,0.132273096725
1521813197166186094,5.99917648195,-2.49220934705,0.132273096839
1521813197206963062,5.99917397216,-2.51720941854,0.132273096947
1521813197212687015,5.99917146232,-2.54220949225,0.132273097049
1521813197251521110,5.99916895289,-2.56720956799,0.13227309714
1521813197290425062,5.99916644429,-2.59220964555,0.132273097221
1521813197290493011,5.99916393697,-2.61720972467,0.132273097287
1521813197330179929,5.99916143131,-2.64220980506,0.132273097339
1521813197367149114,5.99915892768,-2.66720988638,0.132273097375
1521813197406610965,5.99915642638,-2.69220996829,0.132273097393
1521813197406704902,5.99915392767,-2.71721005043,0.132273097395
1521813197406750917,5.99915143175,-2.74221013243,0.132273097379
1521813197461333036,5.99914893876,-2.76721021393,0.132273097346
1521813197480232954,5.99914644876,-2.79221029459,0.132273097297
1521813197518148899,5.99914396175,-2.81721037406,0.132273097233
1521813197558891057,5.99914147767,-2.84221045204,0.132273097156
1521813197559003114,5.99913899637,-2.86721052827,0.132273097066
1521813197559067010,5.99913651766,-2.89221060251,0.132273096967
1521813197598025083,5.99913404127,-2.91721067457,0.132273096861
1521813197614640951,5.9991315669,-2.94221074433,0.132273096749
1521813197655505895,5.99912909418,-2.9672108117,0.132273096634
1521813197694122076,5.99912662273,-2.99221087664,0.13227309652
1521813197694267034,5.9991241521,-3.0172109392,0.132273096409
1521813197734911918,5.99912168187,-3.04221099945,0.132273096302
1521813197734994888,5.99911921157,-3.06721105752,0.132273096204
1521813197774101018,5.99911674075,-3.09221111361,0.132273096116
1521813197806760072,5.99911426898,-3.11721116794,0.13227309604
1521813197845999956,5.99911179583,-3.14221122077,0.132273095977
1521813197846141099,5.99910932092,-3.16721127243,0.132273095931
1521813197886593103,5.9991068439,-3.19221132324,0.1322730959
1521813197886812925,5.99910436448,-3.21721137354,0.132273095887
1521813197926526069,5.9991018824,-3.24221142371,0.132273095892
1521813197931101083,5.99909939749,-3.26721147411,0.132273095914
1521813197987196922,5.99909690962,-3.2922115251,0.132273095953
1521813198026376962,5.99909441876,-3.31721157702,0.132273096008
1521813198026508092,5.99909192491,-3.3422116302,0.132273096078
1521813198066207885,5.99908942817,-3.36721168495,0.132273096161
1521813198115711927,5.99908692868,-3.39221174151,0.132273096255
1521813198155047893,5.99908442666,-3.41721180012,0.132273096359
1521813198155255079,5.99908192239,-3.44221186093,0.132273096469
1521813198194679975,5.99907941619,-3.46721192408,0.132273096584
1521813198194828987,5.99907690843,-3.49221198963,0.1322730967
1521813198194895029,5.99907439951,-3.5172120576,0.132273096815
1521813198235796928,5.99907188987,-3.54221212794,0.132273096926
1521813198235893011,5.99906937994,-3.56721220056,0.132273097031
1521813198255146980,5.9990668702,-3.59221227532,0.132273097128
1521813198308636903,5.99906436108,-3.617212352,0.132273097214
1521813198346956014,5.99906185303,-3.64221243038,0.132273097288
1521813198347069978,5.99905934645,-3.66721251017,0.132273097347
1521813198387717962,5.99905684172,-3.69221259107,0.132273097391
1521813198412734031,5.99905433918,-3.71721267272,0.132273097418
1521813198450175046,5.99905183911,-3.74221275478,0.132273097428
1521813198450305938,5.99904934174,-3.76721283689,0.13227309742
1521813198489892005,5.99904684724,-3.79221291868,0.132273097396
1521813198489979028,5.99904435571,-3.81721299979,0.132273097355
1521813198530471086,5.99904186717,-3.84221307988,0.132273097298
1521813198568926095,5.99903938161,-3.86721315863,0.132273097227
1521813198606446027,5.9990368989,-3.89221323575,0.132273097143
1521813198646291017,5.99903441889,-3.91721331099,0.132273097048
1521813198646739006,5.99903194134,-3.94221338414,0.132273096945
1521813198646841049,5.99902946596,-3.96721345504,0.132273096835
1521813198686652898,5.99902699242,-3.99221352359,0.132273096722
1521813198686789035,5.99902452034,-4.01721358973,0.132273096607
1521813198707425117,5.99902204931,-4.04221365345,0.132273096494
1521813198730093002,5.99901957889,-4.06721371482,0.132273096385
1521813198794256925,5.99901710862,-4.09221377394,0.132273096282
1521813198832207918,5.99901463807,-4.11721383097,0.132273096188
1521813198832298994,5.99901216677,-4.14221388613,0.132273096106
1521813198870398998,5.9990096943,-4.16721393966,0.132273096037
1521813198892358064,5.99900722025,-4.19221399186,0.132273095982
1521813198930444955,5.99900474426,-4.21721404303,0.132273095943
1521813198930600881,5.99900226601,-4.24221409354,0.132273095922
1521813198969961881,5.99899978521,-4.26721414372,0.132273095918
1521813198970081090,5.99899730167,-4.29221419395,0.132273095931
1521813199009937047,5.99899481522,-4.31721424459,0.132273095962
1521813199010054111,5.99899232579,-4.34221429601,0.132273096009
1521813199051047086,5.99898983336,-4.36721434852,0.132273096072
1521813199070301055,5.99898733797,-4.39221440245,0.132273096148
1521813199105838060,5.99898483977,-4.41721445808,0.132273096237
1521813199153032064,5.99898233891,-4.44221451564,0.132273096337
1521813199190023899,5.99897983567,-4.46721457534,0.132273096444
1521813199190161943,5.99897733032,-4.49221463732,0.132273096556
1521813199190217971,5.99897482323,-4.51721470167,0.132273096672
1521813199244117975,5.99897231477,-4.54221476844,0.132273096788
1521813199247193098,5.99896980538,-4.56721483761,0.132273096901
1521813199286446094,5.99896729549,-4.59221490911,0.13227309701
1521813199325992107,5.99896478554,-4.61721498283,0.132273097111
1521813199326122999,5.99896227601,-4.64221505858,0.132273097202
1521813199368505001,5.99895976732,-4.66721513615,0.132273097282
1521813199368716001,5.99895725991,-4.69221521527,0.132273097349
1521813199406919956,5.99895475417,-4.71721529565,0.1322730974
1521813199437128067,5.99895225046,-4.74221537697,0.132273097435
1521813199474044084,5.99894974908,-4.76721545887,0.132273097454
1521813199474271059,5.9989472503,-4.79221554099,0.132273097455
1521813199514147043,5.99894475431,-4.81721562298,0.132273097439
1521813199514252901,5.99894226124,-4.84221570446,0.132273097406
1521813199557763099,5.99893977117,-4.86721578509,0.132273097357
1521813199583606958,5.99893728409,-4.89221586453,0.132273097292
1521813199623398065,5.99893479994,-4.91721594248,0.132273097215
1521813199662756919,5.99893231856,-4.94221601867,0.132273097125
1521813199662972927,5.99892983977,-4.96721609287,0.132273097026
1521813199707175016,5.99892736331,-4.9922161649,0.132273096919
1521813199707607984,5.99892488885,-5.01721623461,0.132273096807
1521813199745989084,5.99892241604,-5.04221630194,0.132273096692
1521813199746119022,5.99891994449,-5.06721636684,0.132273096578
1521813199794157028,5.99891747377,-5.09221642936,0.132273096466
1521813199796792984,5.99891500343,-5.11721648957,0.13227309636
1521813199835666894,5.99891253302,-5.1422165476,0.132273096262
1521813199836266994,5.99891006209,-5.16721660365,0.132273096173
1521813199873980045,5.99890759019,-5.19221665795,0.132273096097
1521813199918267011,5.99890511692,-5.21721671076,0.132273096035
1521813199957988977,5.99890264188,-5.24221676239,0.132273095989
1521813199958148002,5.99890016472,-5.26721681317,0.132273095958
1521813199958229064,5.99889768516,-5.29221686346,0.132273095945
1521813199998712062,5.99889520294,-5.31721691362,0.13227309595
1521813200028814077,5.99889271789,-5.342216964,0.132273095972
1521813200066072940,5.99889022988,-5.36721701499,0.132273096011
1521813200066220998,5.99888773887,-5.39221706691,0.132273096066
1521813200106555938,5.99888524488,-5.4172171201,0.132273096136
1521813200138539075,5.998882748,-5.44221717485,0.13227309622
1521813200178039073,5.99888024837,-5.46721723142,0.132273096314
1521813200178180932,5.99887774621,-5.49221729003,0.132273096417
1521813200225024938,5.99887524181,-5.51721735086,0.132273096528
1521813200225702047,5.99887273548,-5.54221741403,0.132273096642
1521813200261898994,5.99887022759,-5.56721747959,0.132273096758
1521813200262008905,5.99886771855,-5.59221754758,0.132273096873
1521813200307048082,5.99886520879,-5.61721761793,0.132273096984
1521813200325910091,5.99886269876,-5.64221769057,0.132273097089
1521813200361921072,5.99886018891,-5.66721776533,0.132273097186
1521813200362031936,5.99885767969,-5.69221784202,0.132273097272
1521813200404759883,5.99885517155,-5.71721792041,0.132273097345
1521813200409188032,5.99885266488,-5.7422180002,0.132273097404
1521813200446150064,5.99885016006,-5.76721808109,0.132273097447
1521813200486134052,5.99884765744,-5.79221816274,0.132273097474
1521813200486278057,5.99884515729,-5.81721824479,0.132273097484
1521813200525922060,5.99884265984,-5.84221832688,0.132273097476
1521813200529948949,5.99884016526,-5.86721840865,0.132273097451
1521813200570812940,5.99883767365,-5.89221848974,0.13227309741
1521813200610198020,5.99883518504,-5.9172185698,0.132273097353
1521813200610375881,5.9988326994,-5.94221864852,0.132273097281
1521813200656737089,5.99883021661,-5.9672187256,0.132273097197
1521813200657725095,5.99882773652,-5.99221880081,0.132273097102
1521813200695198059,5.99882525888,-6.01721887392,0.132273096999
1521813200746041059,5.99882278342,-6.04221894478,0.132273096889
1521813200781915903,5.99882030978,-6.06721901329,0.132273096775
1521813200782047033,5.99881783761,-6.09221907939,0.13227309666
1521813200828324079,5.99881536647,-6.11721914307,0.132273096547
1521813200828428030,5.99881289594,-6.1422192044,0.132273096438
1521813200866048097,5.99881042557,-6.16721926348,0.132273096335
1521813200866146087,5.99880795489,-6.19221932048,0.132273096242
1521813200910444974,5.99880548347,-6.2172193756,0.132273096159
1521813200910559892,5.99880301087,-6.2422194291,0.13227309609
1521813200973397016,5.99880053669,-6.26721948127,0.132273096036
1521813200974127054,5.99879806056,-6.29221953242,0.132273095997
1521813201014018058,5.99879558216,-6.31721958291,0.132273095975
1521813201053787946,5.99879310123,-6.34221963308,0.132273095971
1521813201053855895,5.99879061754,-6.3672196833,0.132273095985
1521813201094291925,5.99878813094,-6.39221973393,0.132273096016
1521813201103923082,5.99878564136,-6.41721978534,0.132273096063
1521813201142405986,5.99878314878,-6.44221983786,0.132273096126
1521813201142569065,5.99878065325,-6.4672198918,0.132273096202
1521813201182164907,5.9987781549,-6.49221994743,0.132273096292
1521813201182307004,5.9987756539,-6.51722000501,0.132273096391
1521813201242664098,5.99877315051,-6.54222006472,0.132273096498
1521813201243228912,5.99877064503,-6.56722012671,0.13227309661
1521813201282735109,5.99876813781,-6.59222019108,0.132273096726
1521813201282879114,5.99876562923,-6.61722025786,0.132273096842
1521813201322894096,5.99876311971,-6.64222032705,0.132273096955
1521813201345875978,5.9987606097,-6.66722039857,0.132273097063
1521813201385972023,5.99875809964,-6.69222047229,0.132273097164
1521813201426076889,5.99875559,-6.71722054805,0.132273097256
1521813201466862916,5.99875308121,-6.74222062563,0.132273097335
1521813201467189073,5.9987505737,-6.76722070476,0.132273097401
1521813201467340946,5.99874806787,-6.79222078514,0.132273097453
1521813201505975961,5.99874556406,-6.81722086645,0.132273097488
1521813201506081104,5.9987430626,-6.84222094834,0.132273097506
1521813201535201072,5.99874056373,-6.86722103046,0.132273097507
1521813201556462049,5.99873806766,-6.89222111242,0.13227309749
1521813201594048023,5.99873557452,-6.91722119388,0.132273097457
1521813201665977001,5.99873308437,-6.94222127449,0.132273097407
1521813201703569889,5.99873059721,-6.9672213539,0.132273097343
1521813201703656911,5.99872811296,-6.99222143182,0.132273097265
1521813201742059946,5.99872563151,-7.01722150798,0.132273097175
1521813201742156982,5.99872315263,-7.04222158214,0.132273097075
1521813201742212057,5.99872067607,-7.06722165413,0.132273096968
1521813201784992933,5.99871820152,-7.0922217238,0.132273096856
1521813201785326004,5.99871572862,-7.11722179109,0.132273096741
1521813201805021047,5.99871325696,-7.14222185595,0.132273096627
1521813201868165969,5.99871078613,-7.16722191843,0.132273096515
1521813201906107902,5.99870831567,-7.1922219786,0.132273096409
1521813201906241893,5.99870584514,-7.2172220366,0.132273096311
1521813201946079015,5.99870337408,-7.24222209261,0.132273096223
1521813201946252107,5.99870090206,-7.26722214688,0.132273096147
1521813201986655950,5.99869842865,-7.29222219966,0.132273096085
1521813201986800909,5.99869595347,-7.31722225126,0.132273096038
1521813202026055097,5.99869347617,-7.34222230203,0.132273096008
1521813202060522079,5.99869099646,-7.3672223523,0.132273095995
1521813202100542068,5.99868851409,-7.39222240244,0.132273096
1521813202100984096,5.99868602888,-7.41722245283,0.132273096022
1521813202139390945,5.99868354073,-7.4422225038,0.132273096061
1521813202139559984,5.99868104957,-7.46722255573,0.132273096117
1521813202182004928,5.99867855542,-7.49222260892,0.132273096187
1521813202182442903,5.99867605838,-7.51722266368,0.13227309627
1521813202243066072,5.99867355861,-7.54222272026,0.132273096364
1521813202281985044,5.99867105631,-7.56722277889,0.132273096468
1521813202282104015,5.99866855176,-7.59222283973,0.132273096578
1521813202321908950,5.99866604529,-7.61722290291,0.132273096692
1521813202322032928,5.99866353727,-7.64222296849,0.132273096808
1521813202362790107,5.9986610281,-7.66722303649,0.132273096923
1521813202382693052,5.99865851821,-7.69222310686,0.132273097034
1521813202421889066,5.99865600806,-7.71722317951,0.132273097139
1521813202422015905,5.9986534981,-7.74222325429,0.132273097235
1521813202463120937,5.99865098877,-7.76722333099,0.132273097321
1521813202463260889,5.99864848052,-7.79222340938,0.132273097394
1521813202524774074,5.99864597375,-7.81722348917,0.132273097452
1521813202529247999,5.99864346884,-7.84222357006,0.132273097495
1521813202567414045,5.99864096612,-7.86722365171,0.132273097522
1521813202567893028,5.99863846588,-7.89222373375,0.132273097531
1521813202608180046,5.99863596835,-7.91722381583,0.132273097523
1521813202609082937,5.99863347369,-7.94222389758,0.132273097498
1521813202645843029,5.99863098199,-7.96722397865,0.132273097457
1521813202686964988,5.9986284933,-7.99222405868,0.132273097399
1521813202725775957,5.99862600756,-8.01722413737,0.132273097328
1521813202725869894,5.99862352469,-8.04222421442,0.132273097243
1521813202766176939,5.99862104451,-8.06722428959,0.132273097148
1521813202767039060,5.99861856678,-8.09222436267,0.132273097044
1521813202806543111,5.99861609122,-8.11722443349,0.132273096934
1521813202846137046,5.99861361748,-8.14222450196,0.132273096821
1521813202887162923,5.9986111452,-8.16722456802,0.132273096706
1521813202887643098,5.99860867395,-8.19222463166,0.132273096592
1521813202887901067,5.99860620331,-8.21722469295,0.132273096483
1521813202931622028,5.99860373281,-8.24222475199,0.132273096381
1521813202931894063,5.99860126201,-8.26722480896,0.132273096287
1521813202970556974,5.99859879045,-8.29222486405,0.132273096205
1521813203009879112,5.99859631772,-8.31722491752,0.132273096135
1521813203009985923,5.99859384339,-8.34222496966,0.132273096081
1521813203050659894,5.99859136712,-8.3672250208,0.132273096043
1521813203088907003,5.99858888857,-8.39222507126,0.132273096021
1521813203125948905,5.99858640748,-8.41722512142,0.132273096017
1521813203166541099,5.99858392364,-8.44222517163,0.132273096031
1521813203166899919,5.99858143689,-8.46722522226,0.132273096062
1521813203167007923,5.99857894715,-8.49222527367,0.132273096109
1521813203206063985,5.99857645441,-8.51722532619,0.132273096172
1521813203206195116,5.99857395873,-8.54222538014,0.132273096249
1521813203279535055,5.99857146022,-8.56722543578,0.132273096338
1521813203280481100,5.99856895907,-8.59222549337,0.132273096437
1521813203321861982,5.99856645553,-8.61722555309,0.132273096544
1521813203321949958,5.99856394991,-8.6422256151,0.132273096657
1521813203362047910,5.99856144254,-8.66722567949,0.132273096772
1521813203362162113,5.99855893382,-8.69222574629,0.132273096888
1521813203405190944,5.99855642418,-8.71722581549,0.132273097001
1521813203405388116,5.99855391404,-8.74222588702,0.132273097109
1521813203452065944,5.99855140386,-8.76722596076,0.13227309721
1521813203489923000,5.99854889411,-8.79222603653,0.132273097301
1521813203490032911,5.99854638521,-8.81722611412,0.132273097381
1521813203529920101,5.99854387759,-8.84222619325,0.132273097446
1521813203530137062,5.99854137165,-8.86722627363,0.132273097497
1521813203602324008,5.99853886775,-8.89222635494,0.132273097532
1521813203642512083,5.99853636619,-8.91722643683,0.13227309755
1521813203642615079,5.99853386724,-8.94222651893,0.13227309755
1521813203682276964,5.99853137107,-8.96722660088,0.132273097534
1521813203682421922,5.99852887784,-8.99222668233,0.1322730975
1521813203723110914,5.9985263876,-9.01722676291,0.13227309745
1521813203723541021,5.99852390035,-9.04222684229,0.132273097386
1521813203761979103,5.99852141602,-9.06722692018,0.132273097307
1521813203768601894,5.99851893447,-9.0922269963,0.132273097217
1521813203805929899,5.9985164555,-9.11722707043,0.132273097117
1521813203846127986,5.99851397884,-9.14222714238,0.13227309701
1521813203846256971,5.99851150419,-9.16722721202,0.132273096898
1521813203887221097,5.99850903117,-9.19222727926,0.132273096783
1521813203902482032,5.9985065594,-9.21722734409,0.132273096669
1521813203942915916,5.99850408845,-9.24222740653,0.132273096557
1521813203943021059,5.99850161788,-9.26722746666,0.132273096451
1521813203983263969,5.99849914722,-9.29222752462,0.132273096353
1521813203983746051,5.99849667603,-9.31722758061,0.132273096264
1521813204021857976,5.99849420386,-9.34222763484,0.132273096188
1521813204030838012,5.99849173031,-9.3672276876,0.132273096126
1521813204070444107,5.99857758647,-9.39124995069,0.132311482816
1521813204110071897,5.99916672047,-9.41304474463,0.132320057505
1521813204153567075,5.99892684583,-9.43357266501,0.132760313737
1521813204194443941,6.0010688952,-9.45123085709,0.132385439422
1521813204194574117,5.9984852056,-9.47123007076,0.132421078742
1521813204194689035,5.99704733894,-9.49252010967,0.13226676227
1521813204234565973,5.99593865356,-9.51686016042,0.132272529916
1521813204234661102,5.99508425721,-9.54070589474,0.132315055882
1521813204256367921,5.99544215575,-9.56209957375,0.132287919167
1521813204304678916,5.99505941263,-9.58139676776,0.132771404893
1521813204342075109,5.99507561886,-9.59969193965,0.132638667103
1521813204342215061,5.99385958441,-9.61604148343,0.132899104506
1521813204382978916,5.99470363987,-9.63005024241,0.132507815482
1521813204384068012,5.9915029768,-9.64478954756,0.132369182828
1521813204421802043,5.98853291552,-9.66111166646,0.132307135081
1521813204462023019,5.98719672133,-9.67734989879,0.132285436491
1521813204502036094,5.9862947666,-9.6915312561,0.132591854672
1521813204502175092,5.98415390764,-9.70564467314,0.132445097598
1521813204542895078,5.9845668067,-9.71547882535,0.132748783298
1521813204563203096,5.98318197399,-9.72602908076,0.132464747598
1521813204603137969,5.98369005902,-9.73235664345,0.13280541326
1521813204603481054,5.98299789404,-9.73904512097,0.132491742195
1521813204641992092,5.98373923636,-9.74189249211,0.132849998534
1521813204642136096,5.9833296111,-9.74522192764,0.132466765488
1521813204683049917,5.98170859984,-9.74873534934,0.132321332277
1521813204683981895,5.97937938186,-9.75530197634,0.132269640161
1521813204722901105,5.97746388704,-9.76439731159,0.132272035109
1521813204762994050,5.97515327576,-9.77535417236,0.132272228042
1521813204803029060,5.9724626693,-9.78814234471,0.132271734539
1521813204803291082,5.96938459582,-9.8027638356,0.132272109551
1521813204842314958,5.96592240304,-9.81922023813,0.132273004686
1521813204867463111,5.96207062478,-9.83751119811,0.132273108559
1521813204906006097,5.95783228876,-9.85763682505,0.132273125806
1521813204946449041,5.95335737952,-9.87891811435,0.132278139021
1521813204946590900,5.94897349283,-9.89883976771,0.132380199193
1521813204946664094,5.94540341585,-9.91697925933,0.132269034702
1521813204986073970,5.94498035023,-9.93177843065,0.132449349208
1521813204986219882,5.93964777651,-9.94726655614,0.13229077724
1521813205018768072,5.9397628389,-9.95816940014,0.132540290364
1521813205031061887,5.93568549181,-9.96985092716,0.132332545702
1521813205070911884,5.93692138766,-9.97729417083,0.132593039715
1521813205114913940,5.93366058891,-9.98526759818,0.132446393065
1521813205115066051,5.93479660126,-9.98907784917,0.132590994903
1521813205154731988,5.93285638718,-9.99314654086,0.132349783126
1521813205155863046,5.93594481628,-9.99323876138,0.132572485283
1521813205194073915,5.93448367825,-9.99404445087,0.132297346323
1521813205234935045,5.93711382474,-9.99166149152,0.132322591551
1521813205274053096,5.93490125362,-9.99040039899,0.132664670394
1521813205274173021,5.93631354575,-9.98723579391,0.132429882688
1521813205314532995,5.93577640604,-9.98462830303,0.13293507819
1521813205314862012,5.93571741282,-9.98182625275,0.1324425727
1521813205355345964,5.9367202549,-9.97846914092,0.132856658501
1521813205359075069,5.93512700748,-9.9761278429,0.132264241401
1521813205402385950,5.9379091964,-9.97203082986,0.132475209525
1521813205441888093,5.93579956506,-9.97005813952,0.132603813113
1521813205441981077,5.9383894186,-9.96620170891,0.132296035141
1521813205482738018,5.9371572986,-9.96389724664,0.132931880567
1521813205507015943,5.93810093287,-9.96071822264,0.132387858673
1521813205561688899,5.93932183432,-9.95759760668,0.132920819815
1521813205601942062,5.93802255522,-9.95537131953,0.132265676887
1521813205602050065,5.94112062009,-9.95168277658,0.132498145707
1521813205602092981,5.93946815635,-9.94966613754,0.132678168852
1521813205642131090,5.94207088263,-9.94614711926,0.132342149217
1521813205642255067,5.94092883264,-9.94378436036,0.132889304565
1521813205655029058,5.94212672159,-9.94071275442,0.132453165472
1521813205679946899,5.94254114399,-9.93777731755,0.132946085604
1521813205725735902,5.94219562709,-9.93510743132,0.132391895404
1521813205763431072,5.94428253807,-9.9317961418,0.132800349374
1521813205801913022,5.94341870413,-9.92936799499,0.132573127214
1521813205802028894,5.94680487157,-9.92564007503,0.13222889476
1521813205843122959,5.94570435417,-9.92327638445,0.132936101192
1521813205847233057,5.94770769822,-9.92011606008,0.132394862729
1521813205886317968,5.94718566529,-9.91816049085,0.132620916616
1521813205886409997,5.94552758998,-9.91914114854,0.132307264692
1521813205926002979,5.9428288398,-9.92294085021,0.132272339622
1521813205931195020,5.93903591072,-9.92887651466,0.132273084558
1521813205970860958,5.93422890975,-9.93638801452,0.132273103993
1521813206010968923,5.92840962665,-9.94547707401,0.132272945942
1521813206011034011,5.92157903141,-9.95614463013,0.132272801541
1521813206049807071,5.91373732321,-9.96839094821,0.132272665821
1521813206060422897,5.90488455563,-9.98221611568,0.132272536843
1521813206098207950,5.89502074231,-9.99762016422,0.132272414121
1521813206138523101,5.88414588462,-10.014603107,0.132272297735
1521813206138643980,5.87225998025,-10.0331649511,0.13227218803
1521813206177762031,5.85936302578,-10.0533057016,0.132272085511
1521813206201215028,5.84588791861,-10.0743617405,0.132272421344
1521813206239721059,5.83240635113,-10.0954177838,0.132272519665
1521813206240124940,5.81892479519,-10.1164737414,0.13227254912
1521813206278036117,5.80544329811,-10.1375296455,0.132272559729
1521813206285052061,5.79196186,-10.1585855028,0.132272564563
1521813206321899890,5.77848047853,-10.179641318,0.132272567401
1521813206362150907,5.76499915109,-10.2006970945,0.132272569244
1521813206402348041,5.75151787516,-10.2217528356,0.132272570271
1521813206402498006,5.73803664835,-10.2428085442,0.132272570428
1521813206441987037,5.72455546844,-10.2638642231,0.13227256961
1521813206442115068,5.7110743334,-10.2849198744,0.132272567712
1521813206482443094,5.6975932414,-10.3059755002,0.132272564653
1521813206510159969,5.6841121908,-10.3270311021,0.13227256038
1521813206546325922,5.67118000333,-10.3473267487,0.132291394695
1521813206546755075,5.65897784707,-10.3658956151,0.13243154032
1521813206602797985,5.64742216109,-10.3820014573,0.133042399429
1521813206603370904,5.63901162759,-10.397703286,0.132440712386
1521813206642065048,5.62658185775,-10.4129158078,0.132398473061
1521813206642165899,5.61373463954,-10.4304896517,0.132273191383
1521813206682030916,5.60179412971,-10.4486773537,0.132339691762
1521813206690043926,5.59185223875,-10.4652415232,0.132517758727
1521813206725909948,5.57983883678,-10.4811178801,0.132519813268
1521813206766015052,5.57271038668,-10.4947002396,0.132615506234
1521813206806052923,5.56274226553,-10.5074043758,0.132342060512
1521813206806138038,5.55815234405,-10.5175443805,0.132767676356
1521813206806197881,5.55082909891,-10.5273120866,0.132418898312
1521813206846813917,5.54778667744,-10.5346450113,0.132676754286
1521813206854855060,5.54044712731,-10.5416737537,0.132266970779
1521813206914551019,5.53333013796,-10.5493741733,0.13226666138
1521813206950979948,5.52435718608,-10.5598219527,0.132272427655
1521813206951251029,5.51403713477,-10.5720423984,0.132272284368
1521813206989967107,5.50250926868,-10.5856920085,0.132272217076
1521813207009763002,5.48977103563,-10.6007729617,0.132272085076
1521813207046139001,5.4758228468,-10.6172859385,0.132271983688
1521813207046277999,5.46066477044,-10.6352311356,0.132271893757
1521813207087388038,5.44459084491,-10.6542702435,0.132272144577
1521813207101954936,5.42845813118,-10.6733711283,0.132272252072
1521813207141911983,5.41232538153,-10.6924718669,0.132272272186
1521813207182955980,5.39619270342,-10.7115725716,0.132272276313
1521813207183248996,5.38006008843,-10.7306732416,0.132272277596
1521813207222237110,5.36392753214,-10.7497738774,0.132272279773
1521813207222398996,5.3477950319,-10.7688744799,0.132272283839
1521813207262017965,5.33166258566,-10.7879750499,0.132272289959
1521813207279098033,5.31553019153,-10.8070755886,0.132272298025
1521813207318422079,5.29939784773,-10.8261760971,0.132272307818
1521813207318515062,5.2832655525,-10.8452765764,0.132272319062
1521813207358001947,5.26713330412,-10.8643770279,0.132272331446
1521813207358109951,5.25100110094,-10.8834774528,0.132272344629
1521813207398243904,5.23486894138,-10.9025778524,0.132272358255
1521813207409215927,5.21873682389,-10.9216782279,0.13227237196
1521813207446021080,5.20260474702,-10.9407785807,0.132272385379
1521813207485974073,5.1864727094,-10.9598789119,0.132272398153
1521813207526201963,5.17034070974,-10.9789792229,0.132272409942
1521813207526269912,5.15420874685,-10.9980795147,0.132272420428
1521813207567049980,5.13807681961,-11.0171797885,0.132272429324
1521813207567589044,5.12206834454,-11.0361369995,0.132272542165
1521813207607435941,5.10734967647,-11.0539744681,0.132294907747
1521813207608798980,5.09130564113,-11.0696623511,0.132428022582
1521813207646090984,5.08202452068,-11.0842494224,0.132579764152
1521813207686844110,5.0686500669,-11.0980128667,0.132327653479
1521813207687232971,5.06175942489,-11.1098364707,0.13278090597
1521813207725828886,5.05074808721,-11.1212931331,0.132404847149
1521813207729980945,5.03970606941,-11.132098389,0.132347542811
1521813207781327009,5.02621388784,-11.145230666,0.132269725238
1521813207818875074,5.01157309819,-11.1606164953,0.132272214688
1521813207858119010,4.9956465691,-11.1773710072,0.132272439055
1521813207897882938,4.97858707783,-11.1953243646,0.132272097709
1521813207897995948,4.96136109847,-11.2134464177,0.132272456767
1521813207898047924,4.94413437293,-11.2315677676,0.132272509648
1521813207938244104,4.92690771065,-11.2496890541,0.132272506586
1521813207938419103,4.90968112906,-11.2678103085,0.132272491083
1521813207983057022,4.89245462232,-11.2859315312,0.132272471889
1521813207983302116,4.87543836186,-11.3038356408,0.132274716921
1521813208032316923,4.86000075216,-11.3206896577,0.132291473442
1521813208071322917,4.8436590284,-11.3352428333,0.132736818812
1521813208071990966,4.83350254657,-11.3497616771,0.132253196107
1521813208110894918,4.81832824053,-11.3619797231,0.13241982935
1521813208111207962,4.81099757321,-11.3739649083,0.132224961473
1521813208154206991,4.79894498935,-11.3834546961,0.132598355471
1521813208210098981,4.79407905455,-11.3928967017,0.13230877299
1521813208246326923,4.7847993813,-11.399794328,0.132653803503
1521813208246520042,4.78244318736,-11.4063599079,0.132585761602
1521813208246618986,4.77455200238,-11.4112560862,0.132252995442
1521813208287400007,4.76752560091,-11.4165508992,0.132286000188
1521813208287519931,4.75818067454,-11.4241635832,0.13227260943
1521813208328229904,4.74719961708,-11.4335091951,0.132272098829
1521813208343960046,4.73479429891,-11.4440687636,0.132272271237
1521813208382839918,4.72108071842,-11.4557442217,0.132271466594
1521813208422979116,4.70824227912,-11.4670025026,0.132285354111
1521813208423127889,4.69495322755,-11.4761809271,0.132494429717
1521813208463036060,4.68800471433,-11.4852742782,0.132435760276
1521813208463275909,4.67692610097,-11.4925640103,0.132386189365
1521813208501841068,4.67310767421,-11.4994521261,0.132688282111
1521813208509051084,4.66536484399,-11.5048926827,0.132503751502
1521813208546535968,4.66281181591,-11.5088933839,0.132842684329
1521813208586261987,4.65951095671,-11.5126827178,0.132517604003
1521813208586431026,4.65886414271,-11.5142404228,0.132995699961
1521813208626377105,4.65980635163,-11.5161204703,0.132510870512
1521813208638802051,4.65945996994,-11.515314328,0.13290169859
1521813208678025960,4.65942452906,-11.5144629609,0.132256597178
1521813208717869043,4.65811412264,-11.5147304576,0.132301422945
1521813208717956066,4.65389104418,-11.5171815966,0.13227204131
1521813208759107112,4.64795519373,-11.5211113583,0.132272145769
1521813208762497901,4.64045787184,-11.5260762228,0.132272051534
1521813208803155899,4.63139745459,-11.5320757571,0.132271984175
1521813208842120885,4.62077442399,-11.5391113918,0.132272182033
1521813208842221021,4.60859132199,-11.54718567,0.132272811332
1521813208882966995,4.59484224379,-11.556291168,0.132272923747
1521813208893644094,4.57952982774,-11.566431862,0.132272954955
1521813208931240081,4.56265414396,-11.5776078154,0.132272966017
1521813208931612968,4.54421519597,-11.5898190324,0.13227297232
1521813208970762014,4.52421298523,-11.6030655142,0.132272978294
1521813208994687080,4.50336679497,-11.616868258,0.132272573715
1521813209035243034,4.48252243403,-11.6306720582,0.132272573606
1521813209073858022,4.46167807166,-11.6444758898,0.132272575273
1521813209114018917,4.44083369924,-11.6582797189,0.13227257694
1521813209114132881,4.41998932488,-11.6720835466,0.132272578828
1521813209114193916,4.39914495154,-11.6858873732,0.132272580961
1521813209155194044,4.37830058064,-11.6996911985,0.132272583306
1521813209160901069,4.35745621313,-11.7134950225,0.132272585809
1521813209198791980,4.33661184974,-11.7272988449,0.132272588411
1521813209241856098,4.31576749108,-11.7411026658,0.132272591048
1521813209278064012,4.29492313766,-11.7549064851,0.132272593655
1521813209278167963,4.27407878985,-11.7687103029,0.13227259617
1521813209319236040,4.25323444792,-11.7825141193,0.132272598531
1521813209327642917,4.23239011197,-11.7963179344,0.132272600678
1521813209367340087,4.21154578202,-11.8101217483,0.132272602559
1521813209367780923,4.19128888341,-11.8235835186,0.132291171413
1521813209405967950,4.17276434933,-11.836358584,0.132359914714
1521813209412888050,4.15329752726,-11.8463768054,0.132854811032
1521813209450754880,4.1411000278,-11.8581312235,0.13235478987
1521813209490232944,4.12419512815,-11.8664254938,0.132310102629
1521813209490406990,4.11496564555,-11.8754523121,0.132644675417
1521813209530271053,4.10175341667,-11.8823916183,0.13228332056
1521813209568756103,4.09489329101,-11.889156896,0.13277728959
1521813209606317043,4.08553772251,-11.8946311642,0.132484741158
1521813209606528997,4.07766385586,-11.8986419924,0.132313703194
1521813209651355028,4.06671831762,-11.9031349732,0.132277409911
1521813209651550054,4.05424949898,-11.9095403172,0.132283005324
1521813209689999103,4.04351549464,-11.9161222271,0.132499832964
1521813209690107107,4.03321693145,-11.9221038718,0.132381964778
1521813209729969024,4.02832007918,-11.9281681484,0.132685384438
1521813209751218080,4.0200883258,-11.9319971573,0.132355021951
1521813209790927886,4.01776258421,-11.9355602501,0.13289257548
1521813209791287899,4.01420601989,-11.938530572,0.132508328484
1521813209830730915,4.01398106453,-11.9398313527,0.13299739651
1521813209831676959,4.01275739195,-11.9406250701,0.132390149044
1521813209870467901,4.01060604803,-11.9407460309,0.132325478263
1521813209910325050,4.00530053395,-11.9424402639,0.132271552705
1521813209910475015,3.99811212514,-11.9455237778,0.132272225072
1521813209949917078,3.98920730187,-11.9493530662,0.13227197981
1521813209975832939,3.97858072341,-11.9539225897,0.132271847643
1521813210014374971,3.96623194672,-11.9592326712,0.132271794113
1521813210014672040,3.95216141136,-11.9652860997,0.132272197701
1521813210054246902,3.93637049271,-11.9720818979,0.13227267318
1521813210086844921,3.91885528962,-11.9796149297,0.132272718634
1521813210125941991,3.89961765143,-11.9878887422,0.132272722181
1521813210126041889,3.8786575802,-11.9969033442,0.132272714381
1521813210166603088,3.85606916112,-12.0066168655,0.132272463663
1521813210166995048,3.83310202845,-12.0164934416,0.132272415738
1521813210206604957,3.81013535881,-12.0263706736,0.132272410938
1521813210212487936,3.78716866555,-12.0362478994,0.132272403887
1521813210250401973,3.76420196056,-12.0461251247,0.132272396706
1521813210290966987,3.74123524833,-12.0560023517,0.132272390204
1521813210291414022,3.71826853028,-12.0658795814,0.132272384733
1521813210330344915,3.69530180699,-12.0757568138,0.132272380488
1521813210341804027,3.67233507882,-12.085634049,0.132272377599
1521813210399864912,3.64936834621,-12.0955112868,0.132272376151
1521813210438617944,3.62640160965,-12.1053885271,0.132272376192
1521813210438859939,3.60343486973,-12.1152657698,0.132272377737
1521813210438914060,3.58046812714,-12.1251430145,0.132272380764
1521813210477760076,3.55750138262,-12.1350202611,0.13227238522
1521813210483095884,3.53453463699,-12.1448975092,0.132272391015
1521813210542994976,3.51156789107,-12.1547747585,0.132272398031
1521813210583194017,3.48860114573,-12.1646520088,0.132272406123
1521813210583569049,3.46563440184,-12.1745292597,0.132272415119
1521813210621854066,3.44266766022,-12.1844065109,0.132272424827
1521813210621942996,3.41970092166,-12.1942837622,0.132272435039
1521813210662267923,3.39673418691,-12.2041610132,0.132272445537
1521813210663480043,3.37376745662,-12.2140382638,0.132272456092
1521813210707578897,3.35080073137,-12.2239155137,0.132272466479
1521813210746237993,3.32783401161,-12.2337927626,0.132272476473
1521813210746365070,3.30486729769,-12.2436700106,0.13227248586
1521813210785998106,3.28190058985,-12.2535472574,0.13227249444
1521813210786271095,3.25893388818,-12.2634245031,0.132272502029
1521813210826355934,3.23596719265,-12.2733017476,0.132272508468
1521813210830846071,3.21300050311,-12.2831789909,0.132272513624
1521813210869901895,3.19003381925,-12.2930562332,0.132272517392
1521813210910360097,3.16706714069,-12.3029334746,0.132272519702
1521813210950172901,3.14410046585,-12.3128107174,0.132272519679
1521813210950306892,3.12113379112,-12.3226879631,0.132272517795
1521813210990809917,3.09816711645,-12.3325652092,0.132272514746
1521813210991293907,3.07520044216,-12.3424424553,0.132272510613
1521813211029808998,3.05223376855,-12.3523197014,0.132272505505
1521813211031121015,3.02926709591,-12.362196947,0.13227249955
1521813211071929931,3.00630042448,-12.3720741921,0.132272492897
1521813211111167907,2.98333375453,-12.3819514365,0.132272485711
1521813211111583948,2.96036708627,-12.3918286801,0.132272478167
1521813211149928092,2.93740041982,-12.4017059229,0.132272470331
1521813211156968116,2.91443375195,-12.4115831702,0.132272461003
1521813211194125890,2.89146708046,-12.42146042,0.13227245169
1521813211235080957,2.86850040477,-12.4313376723,0.1322724426
1521813211274008989,2.84553372447,-12.4412149271,0.132272433957
1521813211274110078,2.82256703922,-12.4510921847,0.132272425971
1521813211314141035,2.79960034884,-12.4609694452,0.13227241884
1521813211314273118,2.77663365326,-12.4708467084,0.13227241274
1521813211375121116,2.75366695254,-12.4807239746,0.132272407826
1521813211375365018,2.73070024688,-12.4906012435,0.132272404222
1521813211413928031,2.7077335366,-12.5004785152,0.132272402026
1521813211453807115,2.68476682213,-12.5103557894,0.132272401301
1521813211453892946,2.661800104,-12.520233066,0.132272402078
1521813211493850946,2.63883338287,-12.5301103447,0.132272404352
1521813211493942975,2.61586665944,-12.5399876254,0.132272408085
1521813211538639068,2.59289993449,-12.5498649078,0.132272413205
1521813211538844108,2.56993320885,-12.5597421915,0.132272419609
1521813211580157041,2.54696648338,-12.5696194762,0.132272427164
1521813211604304075,2.52399975893,-12.5794967618,0.13227243571
1521813211642050027,2.50103303635,-12.5893740477,0.132272445065
1521813211642143964,2.47806631646,-12.5992513338,0.132272455028
1521813211686934947,2.45509960003,-12.6091286198,0.132272465386
1521813211687283992,2.43213288776,-12.6190059054,0.132272475915
1521813211725975036,2.40916618025,-12.6288831904,0.132272486387
1521813211734520912,2.38619947804,-12.6387604745,0.132272496576
1521813211770275115,2.36323278152,-12.6486377576,0.132272506262
1521813211810058116,2.34026609098,-12.6585150397,0.132272515237
1521813211810158967,2.31729940659,-12.6683923206,0.132272523309
1521813211850174903,2.29443073154,-12.6782350053,0.132272827851
1521813211856827974,2.2724625256,-12.6875304221,0.132302568022
1521813211898375988,2.25363938301,-12.6971982958,0.132306792771
1521813211937916994,2.23352676819,-12.7043199985,0.132479215052
