%time,field.x,field.y,field.z
1521813188806307077,0.000391790237369,7.54627373929e-08,0.0
1521813188806441068,0.000391842953114,7.54746814459e-08,0.0
1521813188806507110,0.000391895668849,7.54866261521e-08,0.0
1521813188816478013,0.000391948384574,7.54985714652e-08,0.0
1521813188816596984,0.000392001100288,7.55105173967e-08,0.0
1521813188816674947,0.000392053815993,7.55224640654e-08,0.0
1521813188816749095,0.000392135525314,7.55409823766e-08,0.0
1521813188841233968,0.000392159247372,7.55463589519e-08,0.0
1521813188841352939,0.000392240956662,7.55648793437e-08,0.0
1521813188841433048,0.000392293672321,7.55768285789e-08,0.0
1521813188841589927,0.00039234638797,7.55887783469e-08,0.0
1521813188841664075,0.000392370110009,7.55941559546e-08,0.0
1521813188856981039,0.000392451819237,7.56126796933e-08,0.0
1521813188979006052,0.000392504534856,7.56246309291e-08,0.0
1521813188988718986,0.000392557250464,7.5636582427e-08,0.0
1521813189009018898,0.000392609966063,7.5648534359e-08,0.0
1521813189009134054,0.000392662681652,7.56604867029e-08,0.0
1521813189061331033,0.000398550020131,7.6994838564e-08,0.0
1521813189064227104,0.00140931174013,3.05459620529e-07,0.0
1521813189096999883,0.00363855857312,8.05867928431e-07,0.0
1521813189140531063,0.00707702657437,1.57316978477e-06,0.0
1521813189145059108,0.0117200854567,2.60585483014e-06,0.0
1521813189145375967,0.0213681280493,4.74820421105e-06,0.0
1521813189170584917,0.0289513619379,6.43013426905e-06,0.0
1521813189174844980,0.0377318744398,8.37718231649e-06,0.0
1521813189179462909,0.0477110681494,1.05897369905e-05,0.0
1521813189188405990,0.0588896436399,1.30680363313e-05,0.0
1521813189188502073,0.0712679503998,1.58121899889e-05,0.0
1521813189191274881,0.0848461623216,1.88222995852e-05,0.0
1521813189230994939,0.0996243654557,2.20984452949e-05,0.0
1521813189231125116,0.115602601891,2.56406550899e-05,0.0
1521813189231187105,0.132780891695,2.94488780665e-05,0.0
1521813189269814014,0.151159243888,3.3523220565e-05,0.0
1521813189269943952,0.170591076147,3.78311635516e-05,0.0
1521813189271244049,0.201158997927,4.46402140917e-05,0.0
1521813189311815977,0.210170951,4.66705123594e-05,0.0
1521813189350055932,0.230101915908,5.11751529097e-05,0.0
1521813189350164890,0.250068131945,5.56983463437e-05,0.0
1521813189391139984,0.270051966428,6.02298797302e-05,0.0
1521813189398646116,0.301184795888,6.72930544476e-05,0.0
1521813189438254117,0.310041630004,6.93029503378e-05,0.0
1521813189478272914,0.330040845419,7.38415932018e-05,0.0
1521813189522535085,0.361184268828,8.09099619649e-05,0.0
1521813189522811889,0.381183896809,8.54496027261e-05,0.0
1521813189522892951,0.401183502091,8.99895067126e-05,0.0
1521813189522939920,0.421183098796,9.45296518616e-05,0.0
1521813189558398962,0.450046838928,0.000101082525361,0.0
1521813189558518886,0.470048124372,0.000105623630467,0.0
1521813189613811016,0.481181891996,0.000108151537242,0.0
1521813189625283956,0.510050669139,0.000114706496603,0.0
1521813189662058115,0.541180723651,0.000121775288087,0.0
1521813189662220954,0.561180344686,0.00012631685522,0.0
1521813189662283897,0.581179971095,0.000130858593155,0.0
1521813189702864885,0.601179602895,0.000135400604419,0.0
1521813189703207969,0.62117924009,0.000139942833926,0.0
1521813189720127105,0.641178882673,0.000144485311016,0.0
1521813189741307020,0.661178530631,0.000149028080694,0.0
1521813189777884006,0.681178183944,0.000153571125767,0.0
1521813189818094015,0.701177842588,0.000158114333218,0.0
1521813189818238973,0.721177506529,0.000162657578474,0.0
1521813189857876062,0.741177175728,0.00016720089717,0.0
1521813189857975959,0.770065867302,0.000173763706956,0.0
1521813189903321981,0.79006694288,0.000178307465923,0.0
1521813189903809070,0.810068005987,0.000182851412628,0.0
1521813189942042112,0.83006905677,0.000187395596292,0.0
1521813189942142009,0.841175598693,0.000189918969867,0.0
1521813189983038902,0.870071121894,0.000196484135179,0.0
1521813189993879079,0.890072136475,0.000201028553293,0.0
1521813190035867929,0.910073139211,0.000205573067297,0.0
1521813190036293983,0.9300741302,0.000210117719714,0.0
1521813190074085950,0.950075109527,0.000214662377607,0.0
1521813190074203968,0.970076077273,0.000219207155365,0.0
1521813190074256896,0.990077033511,0.000223752145739,0.0
1521813190115001916,1.02117305631,0.000230818481164,0.0
1521813190120608091,1.04117279453,0.000235363398894,0.0
1521813190158010959,1.06117253641,0.000239908459715,0.0
1521813190158159017,1.08117228183,0.000244453690229,0.0
1521813190198559999,1.10117203065,0.000248999199768,0.0
1521813190198726892,1.12117178275,0.000253544963553,0.0
1521813190238962888,1.14117153799,0.000258090887205,0.0
1521813190259780883,1.16117129626,0.00026263694944,0.0
1521813190297888040,1.18117105745,0.000267183171158,0.0
1521813190338663101,1.20117082144,0.000271729622411,0.0
1521813190338965892,1.2300876328,0.000278303660896,0.0
1521813190339098930,1.25008844497,0.000282850960341,0.0
1521813190378231048,1.27008924654,0.000287398565334,0.0
1521813190406358957,1.28116990362,0.000289918098992,0.0
1521813190445887088,1.3100908183,0.000296494641705,0.0
1521813190445982933,1.3300915887,0.000301043080676,0.0
1521813190446043968,1.34116924073,0.000303562373773,0.0
1521813190488373041,1.37009309915,0.000310140837391,0.0
1521813190488579034,1.39009383945,0.000314690233396,0.0
1521813190490391969,1.41009457001,0.000319239897883,0.0
1521813190520445108,1.43009529096,0.000323789826613,0.0
1521813190557852029,1.46116797604,0.00033085894187,0.0
1521813190597990989,1.48116777311,0.000335409290034,0.0
1521813190598104953,1.50116757248,0.000339959886983,0.0
1521813190638133049,1.52116737417,0.000344510685568,0.0
1521813190638245105,1.54116717822,0.000349061591202,0.0
1521813190677733898,1.56116698467,0.000353612623542,0.0
1521813190677798986,1.58116679355,0.00035816385535,0.0
1521813190719048023,1.6101013747,0.000364748640009,0.0
1521813190719249963,1.63010200887,0.000369300390883,0.0
1521813190757922887,1.65010263531,0.000373852284664,0.0
1521813190758012056,1.6701032542,0.00037840435606,0.0
1521813190799199104,1.69010386569,0.000382956535402,0.0
1521813190799611091,1.71010446993,0.000387508874137,0.0
1521813190839293003,1.73010506708,0.000392061333143,0.0
1521813190839653968,1.75010565725,0.000396613884152,0.0
1521813190878124952,1.77010624059,0.00040116654416,0.0
1521813190902189970,1.80116486252,0.000408236525333,0.0
1521813190938546895,1.82116470309,0.000412789341776,0.0
1521813190938682079,1.84116454633,0.000417342356188,0.0
1521813190938725948,1.86116439222,0.000421895510566,0.0
1521813190977916955,1.88116424072,0.000426448792537,0.0
1521813190978023052,1.90116409176,0.000431002199224,0.0
1521813190996212959,1.92116394531,0.000435555720982,0.0
1521813191040555000,1.94116380129,0.000440109330039,0.0
1521813191077961921,1.96116365962,0.000444662945879,0.0
1521813191078088045,1.98116352024,0.000449216580389,0.0
1521813191121145963,2.01011274088,0.000455807800222,0.0
1521813191121710062,2.02116324795,0.00045832381805,0.0
1521813191158026933,2.04116311487,0.000462877608075,0.0
1521813191158133029,2.06116298369,0.000467431640939,0.0
1521813191202104091,2.08116285433,0.00047198595465,0.0
1521813191202233076,2.11011518913,0.000478579321749,0.0
1521813191202316999,2.13011566067,0.000483134226079,0.0
1521813191242975950,2.15011612616,0.000487689169442,0.0
1521813191243238925,2.1701165856,0.000492244269853,0.0
1521813191282001972,2.190117039,0.000496799558367,0.0
1521813191322021007,2.21011748636,0.000501355081306,0.0
1521813191362437963,2.23011792769,0.000505910884605,0.0
1521813191362497091,2.25011836301,0.000510467014854,0.0
1521813191362531900,2.27011879233,0.000515023385197,0.0
1521813191406642913,2.29011921569,0.000519579999069,0.0
1521813191406955003,2.31011963313,0.000524137030933,0.0
1521813191409984111,2.33012004468,0.000528694441079,0.0
1521813191433249950,2.3501204504,0.000533252069151,0.0
1521813191470602989,2.38116106844,0.000540325949199,0.0
1521813191510833024,2.3901212446,0.000542367979512,0.0
1521813191511162042,2.41012163324,0.00054692616626,0.0
1521813191549995899,2.4411607354,0.000554000391367,0.0
1521813191574537992,2.46116062591,0.000558558854282,0.0
1521813191614094972,2.48116051722,0.000563117518549,0.0
1521813191614252090,2.4901231334,0.000565160492512,0.0
1521813191614310979,2.52116030241,0.000572235628067,0.0
1521813191654786109,2.54116019637,0.000576795026823,0.0
1521813191655272960,2.56116009132,0.000581354731947,0.0
1521813191687865972,2.59012489458,0.000587958731422,0.0
1521813191688278913,2.61012523285,0.00059251901019,0.0
1521813191725848913,2.62115978264,0.000595035049778,0.0
1521813191767008066,2.66115958286,0.000604155967818,0.0
1521813191807750940,2.68115948495,0.000608716633086,0.0
1521813191808096885,2.70115938845,0.000613277424944,0.0
1521813191808211088,2.72115929339,0.000617838400725,0.0
1521813191845946073,2.74115919982,0.000622399544506,0.0
1521813191846084117,2.7611591078,0.000626960934358,0.0
1521813191867760896,2.78115901735,0.000631522561527,0.0
1521813191876507997,2.80115892849,0.000636084357343,0.0
1521813191914581060,2.82115884126,0.000640646231502,0.0
1521813191954691886,2.84115875565,0.00064520823251,0.0
1521813191955137014,2.87012927758,0.00065181684521,0.0
1521813191993959903,2.89012956503,0.000656379334465,0.0
1521813191994066953,2.91012984943,0.000660941883712,0.0
1521813192035043954,2.93013013081,0.000665504491023,0.0
1521813192077229976,2.96115827564,0.000672583079883,0.0
1521813192114177942,2.98115820096,0.000677145958027,0.0
1521813192114279985,3.00115812767,0.000681708866811,0.0
1521813192114335060,3.01013122632,0.000683756065906,0.0
1521813192153966903,3.04115798499,0.00069083484047,0.0
1521813192154088020,3.07013201629,0.000697445369338,0.0
1521813192192341089,3.08115784699,0.000699961042946,0.0
1521813192193222045,3.11013252753,0.00070657221589,0.0
1521813192230331897,3.13013277842,0.000711135811143,0.0
1521813192270941972,3.14115764732,0.000713651485394,0.0
1521813192310007095,3.20115745432,0.000727343259974,0.0
1521813192310127019,3.22115739107,0.000731907538718,0.0
1521813192350878953,3.24115732822,0.000736472043311,0.0
1521813192350980043,3.26115726572,0.000741036827388,0.0
1521813192389957904,3.28115720348,0.000745601877671,0.0
1521813192390089035,3.30115714146,0.000750167171897,0.0
1521813192463305950,3.32115707961,0.00075473274934,0.0
1521813192472023010,3.35013532039,0.00076134834722,0.0
1521813192510232925,3.37013553119,0.00076591463034,0.0
1521813192510371923,3.38115689463,0.000768431005283,0.0
1521813192510423898,3.41013594273,0.000775047755954,0.0
1521813192510464906,3.43013614354,0.000779614628098,0.0
1521813192552957057,3.45013634112,0.000784181723866,0.0
1521813192553659915,3.47013653552,0.00078874905891,0.0
1521813192566279888,3.4901367268,0.000793316568608,0.0
1521813192586383104,3.51013691505,0.000797884305603,0.0
1521813192625989913,3.53013710034,0.000802452269088,0.0
1521813192667164087,3.55013728277,0.00080702042776,0.0
1521813192667649030,3.57013746242,0.000811588703657,0.0
1521813192705892086,3.59013763939,0.000816157191338,0.0
1521813192706007003,3.61013781379,0.000820725898608,0.0
1521813192745891094,3.63013798572,0.000825294770874,0.0
1521813192745990991,3.65013815528,0.000829863853414,0.0
1521813192785840988,3.67013832259,0.000834433101149,0.0
1521813192785917997,3.69013848773,0.000839002534946,0.0
1521813192825860977,3.71013865083,0.000843572076753,0.0
1521813192825938940,3.73013881198,0.000848141715961,0.0
1521813192866086959,3.75013897127,0.000852711501784,0.0
1521813192866185903,3.77013912879,0.000857281551463,0.0
1521813192907372951,3.79013928464,0.000861851728405,0.0
1521813192907875061,3.82115560868,0.000868939418602,0.0
1521813192945992946,3.84115555832,0.000873509888197,0.0
1521813192946162939,3.86115550906,0.000878080518684,0.0
1521813192986093997,3.88115546093,0.000882651249907,0.0
1521813192986207008,3.90115541393,0.000887222043741,0.0
1521813193025927066,3.92115536806,0.000891792922763,0.0
1521813193026020050,3.94115532331,0.000896363939066,0.0
1521813193072087049,3.96115527966,0.000900935098648,0.0
1521813193095101118,3.98115523707,0.000905506368879,0.0
1521813193134085893,4.00115519551,0.000910077707515,0.0
1521813193134217977,4.02115515494,0.000914649062028,0.0
1521813193174029111,4.07014131785,0.000925845890189,0.0
1521813193174195051,4.09014145293,0.000930417497968,0.0
1521813193214188098,4.10115500132,0.000932935063915,0.0
1521813193226593017,4.1301417186,0.000939561203004,0.0
1521813193266019105,4.15014184909,0.000944133085778,0.0
1521813193266190052,4.17014197794,0.000948705111104,0.0
1521813193305891990,4.1901421051,0.000953277315749,0.0
1521813193306001901,4.22115478875,0.000960367305384,0.0
1521813193360915899,4.23014235412,0.000962422111527,0.0
1521813193361179113,4.26115472008,0.000969512840551,0.0
1521813193399116992,4.27014259572,0.000971567937707,0.0
1521813193439197063,4.30115465149,0.000978659300556,0.0
1521813193439779996,4.32115461706,0.000983232933135,0.0
1521813193478193998,4.33014294343,0.00098528844539,0.0
1521813193478323936,4.36115454768,0.000992380713382,0.0
1521813193517996072,4.39014327282,0.000999010966428,0.0
1521813193518115997,4.41014337848,0.00100358561093,0.0
1521813193518187999,4.43014348209,0.00100816062508,0.0
1521813193557894945,4.45014358365,0.00101273588131,0.0
1521813193557981014,4.4701436832,0.00101731129085,0.0
1521813193569428920,4.49014378078,0.00102188694428,0.0
1521813193599437952,4.51014387642,0.00102646292051,0.0
1521813193638037919,4.53014397018,0.0010310392526,0.0
1521813193638170003,4.55014406213,0.00103561573089,0.0
1521813193678129911,4.56115418511,0.00103813515641,0.0
1521813193678555965,4.60115411023,0.00104728888148,0.0
1521813193734947919,4.62115407279,0.00105186615786,0.0
1521813193775515079,4.65014449714,0.001058501447,0.0
1521813193775943040,4.67014457978,0.0010630792586,0.0
1521813193814380884,4.69014466118,0.00106765729734,0.0
1521813193814472913,4.72115388828,0.00107475592757,0.0
1521813193855362892,4.74115385243,0.00107933456781,0.0
1521813193855530023,4.7611538171,0.00108391328593,0.0
1521813193894597053,4.78115378235,0.00108849214773,0.0
1521813193894671916,4.80115374825,0.00109307116587,0.0
1521813193937160015,4.82115371485,0.00109765024145,0.0
1521813193937638044,4.8411536822,0.00110222939112,0.0
1521813193975195884,4.87014535224,0.00110886750789,0.0
1521813193975672006,4.88115361934,0.00111138808506,0.0
1521813194015454053,4.91014549888,0.00111802655277,0.0
1521813194015785932,4.93014557156,0.00112260623358,0.0
1521813194054548025,4.94115353153,0.0011251268783,0.0
1521813194083878040,4.97014571575,0.00113176573981,0.0
1521813194122535943,4.99014578728,0.0011363457278,0.0
1521813194162091970,5.01014585842,0.00114092576619,0.0
1521813194162242889,5.04115340262,0.00114802674539,0.0
1521813194203036069,5.06115337925,0.00115260704536,0.0
1521813194203355073,5.0901461387,0.00115924699927,0.0
1521813194203521966,5.11014620752,0.00116382754995,0.0
1521813194262043952,5.13014627574,0.00116840814988,0.0
1521813194263106107,5.1501463433,0.00117298891759,0.0
1521813194303002119,5.17014641015,0.00117756981343,0.0
1521813194303314924,5.19014647623,0.00118215088106,0.0
1521813194303389072,5.22115321193,0.00118925328005,0.0
1521813194342032909,5.24115319236,0.00119383468491,0.0
1521813194342159032,5.26115317283,0.00119841631959,0.0
1521813194344069957,5.28115315327,0.00120299819119,0.0
1521813194432421922,5.29014679264,0.00120505866483,0.0
1521813194470447063,5.32115311373,0.00121216266172,0.0
1521813194470530986,5.33014691154,0.00121422336236,0.0
1521813194470580101,5.36115307322,0.00122132784967,0.0
1521813194470627069,5.38115305247,0.00122591064869,0.0
1521813194514679908,5.40115303134,0.00123049367946,0.0
1521813194524548053,5.42115300978,0.00123507695829,0.0
1521813194561980962,5.44115298778,0.00123966051174,0.0
1521813194562150955,5.45014723711,0.00124172190297,0.0
1521813194602673053,5.49014733473,0.00125089007817,0.0
1521813194602807044,5.51014738151,0.00125547465729,0.0
1521813194642222881,5.53014742698,0.00126005951648,0.0
1521813194642422914,5.55014747117,0.0012646446885,0.0
1521813194683654069,5.57014751412,0.00126923011346,0.0
1521813194684156894,5.5901475559,0.0012738158691,0.0
1521813194722111940,5.61014759657,0.00127840182282,0.0
1521813194722290992,5.63014763618,0.00128298804866,0.0
1521813194761996984,5.65014767481,0.00128757456321,0.0
1521813194775473117,5.68115269287,0.0012946853497,0.0
1521813194815035104,5.70115266696,0.00129927267069,0.0
1521813194815386056,5.72115264114,0.00130386024688,0.0
1521813194855201005,5.7411526155,0.00130844802518,0.0
1521813194863233089,5.7611525901,0.00131303602056,0.0
1521813194902206897,5.78115256501,0.0013176242035,0.0
1521813194902384042,5.80115254032,0.00132221250266,0.0
1521813194942965984,5.82115251608,0.00132680093245,0.0
1521813194943237066,5.84115249236,0.00133138948395,0.0
1521813194943301916,5.86115246922,0.00133597813398,0.0
1521813194983263969,5.88115244671,0.00134056686336,0.0
1521813194986463069,5.91014812472,0.00134721966812,0.0
1521813195023185968,5.93014815789,0.00135180870089,0.0
1521813195062057018,5.95014819113,0.00135639790266,0.0
1521813195062385082,5.97014822445,0.00136098719056,0.0
1521813195102015018,5.99014825787,0.00136557669976,0.0
1521813195113744020,6.0101482914,0.00137016631753,0.0
1521813195151287078,6.03014832502,0.00137475608141,0.0
1521813195151607990,6.05014835874,0.00137934596618,0.0
1521813195189898967,6.07014839252,0.00138393591872,0.0
1521813195189985036,6.09014842633,0.0013885258961,0.0
1521813195229958057,6.11014846014,0.00139311600302,0.0
1521813195230087995,6.13014849389,0.00139770625458,0.0
1521813195271460056,6.14115221977,0.00140023180146,0.0
1521813195271986961,6.17014856102,0.00140688718351,0.0
1521813195311001062,6.19014859427,0.0014114777517,0.0
1521813195311599016,6.21014862723,0.00141606845374,0.0
1521813195350054025,6.23014865982,0.00142065927973,0.0
1521813195350208997,6.25014869199,0.00142525029341,0.0
1521813195390894889,6.28115213431,0.00143236751211,0.0
1521813195391884088,6.31014878516,0.00143902437132,0.0
1521813195435192108,6.33014881489,0.00144361609121,0.0
1521813195435766935,6.35014884385,0.00144820798354,0.0
1521813195473942041,6.37014887198,0.00145280010374,0.0
1521813195474069118,6.39014889923,0.00145739246855,0.0
1521813195514060974,6.41014892556,0.00146198493033,0.0
1521813195550925970,6.43014895093,0.00146657760468,0.0
1521813195594363927,6.45014897531,0.00147117056987,0.0
1521813195594415903,6.47014899869,0.00147576379984,0.0
1521813195594453096,6.49014902105,0.00148035730584,0.0
1521813195635150909,6.51014904239,0.00148495110008,0.0
1521813195635499000,6.53014906272,0.00148954520386,0.0
1521813195635560989,6.55014908205,0.00149413960676,0.0
1521813195674057006,6.58116028159,0.00150126382997,0.0
1521813195674168109,6.59014942489,0.00150332906116,0.0
1521813195689799070,6.61014970047,0.00150792415473,0.0
1521813195731534004,6.64115258746,0.00151504746669,0.0
1521813195771224021,6.66115267532,0.00151964305312,0.0
1521813195771486997,6.68115270289,0.00152423877421,0.0
1521813195810020923,6.69015009195,0.00152630627319,0.0
1521813195810131072,6.72115268424,0.00153343060991,0.0
1521813195850800991,6.73015011722,0.00153549832748,0.0
1521813195856204032,6.77015012597,0.00154469132293,0.0
1521813195894103050,6.79015012855,0.00154928811004,0.0
1521813195894248962,6.81015013077,0.00155388513475,0.0
1521813195935146093,6.83015013292,0.00155848237124,0.0
1521813195939054012,6.86115249236,0.00156560890773,0.0
1521813195978193044,6.87015013762,0.00156767728964,0.0
1521813195978329896,6.9011524389,0.00157480448942,0.0
1521813196018366098,6.92115241329,0.00157940260204,0.0
1521813196057792901,6.9411523885,0.00158400080797,0.0
1521813196094187974,6.96115236457,0.00158859915832,0.0
1521813196094290971,6.9811523415,0.0015931976719,0.0
1521813196094345092,7.00115231933,0.00159779632057,0.0
1521813196134057998,7.02115229805,0.00160239506088,0.0
1521813196142684936,7.04115227766,0.00160699381761,0.0
1521813196181957006,7.07015018623,0.00161366166002,0.0
1521813196182065010,7.08115223948,0.00161619154983,0.0
1521813196222851037,7.11015020207,0.00162285967521,0.0
1521813196223160028,7.13015021065,0.00162745874048,0.0
1521813196261914968,7.15015021962,0.00163205789882,0.0
1521813196270446062,7.17015022891,0.00163665720692,0.0
1521813196309863090,7.19015023847,0.00164125666318,0.0
1521813196309961080,7.21015024824,0.00164585620624,0.0
1521813196309994935,7.23015025813,0.00165045584162,0.0
1521813196358758926,7.26115210209,0.00165758595744,0.0
1521813196358983993,7.28115208901,0.0016621859016,0.0
1521813196398112058,7.30115207609,0.00166678605115,0.0
1521813196438198089,7.32115206324,0.00167138643591,0.0
1521813196438389062,7.34115205038,0.00167598706609,0.0
1521813196478116989,7.36115203744,0.00168058793011,0.0
1521813196478221893,7.38115202434,0.00168518898964,0.0
1521813196518965005,7.41015034076,0.00169186040306,0.0
1521813196519138097,7.43015034792,0.0016964617488,0.0
1521813196558265924,7.45015035445,0.00170106323869,0.0
1521813196558420896,7.47015036032,0.00170566494251,0.0
1521813196598995923,7.4901503655,0.00171026694384,0.0
1521813196599348068,7.51015036995,0.00171486927227,0.0
1521813196639034986,7.53015037367,0.00171947190823,0.0
1521813196669836997,7.55015037665,0.0017240748353,0.0
1521813196706098079,7.5701503789,0.00172867799351,0.0
1521813196706219911,7.60115185563,0.00173581378076,0.0
1521813196745961904,7.63015038141,0.00174248896786,0.0
1521813196746066093,7.64115181895,0.00174502150036,0.0
1521813196746109962,7.66115180003,0.00174962570328,0.0
1521813196785811901,7.68115178077,0.00175423015999,0.0
1521813196795779943,7.71015037625,0.00176090682379,0.0
1521813196835200071,7.73015037381,0.00176551195377,0.0
1521813196835539102,7.75015037103,0.00177011741168,0.0
1521813196878298997,7.77015036799,0.00177472316445,0.0
1521813196878477096,7.79015036477,0.00177932920263,0.0
1521813196919065952,7.81015036145,0.0017839355109,0.0
1521813196919229030,7.83015035811,0.0017885420756,0.0
1521813196958483934,7.86115160331,0.00179568272173,0.0
1521813196959997892,7.88115158444,0.00180028956981,0.0
1521813196998217105,7.90115156601,0.00180489661897,0.0
1521813197048594951,7.93015034353,0.00181157688523,0.0
1521813197086260080,7.95015034151,0.00181618429433,0.0
1521813197086416006,7.97015033992,0.001820791729,0.0
1521813197126008033,7.98115149777,0.0018233261202,0.0
1521813197126095056,8.01015033815,0.00183000677946,0.0
1521813197126147985,8.02115146754,0.00183254119834,0.0
1521813197126197099,8.05015033846,0.0018392220551,0.0
1521813197166062116,8.07015033942,0.00184382989079,0.0
1521813197166193008,8.09015034092,0.0018484378479,0.0
1521813197182060003,8.11015034294,0.0018530458589,0.0
1521813197204353094,8.13015034546,0.00185765391543,0.0
1521813197242063045,8.15015034846,0.00186226215805,0.0
1521813197242158889,8.17015035188,0.00186687049837,0.0
1521813197282994031,8.19015035569,0.00187147893551,0.0
1521813197289951086,8.21015035983,0.00187608754655,0.0
1521813197325911998,8.23015036424,0.00188069631821,0.0
1521813197367193937,8.26115134196,0.00188784046572,0.0
1521813197406780004,8.29015037841,0.00189452351574,0.0
1521813197406877994,8.31015038321,0.00189913286635,0.0
1521813197406946897,8.3211513203,0.00190166834089,0.0
1521813197460159063,8.35015039247,0.00190835230722,0.0
1521813197480338096,8.37015039678,0.00191296232511,0.0
1521813197518198013,8.39015040078,0.00191757250812,0.0
1521813197518309116,8.4101504044,0.0019221827851,0.0
1521813197559422969,8.43015040757,0.00192679320843,0.0
1521813197559621095,8.45015041023,0.00193140388427,0.0
1521813197559741020,8.47015041234,0.00193601478835,0.0
1521813197598074913,8.49015041384,0.00194062587424,0.0
1521813197598176956,8.51015041469,0.00194523713066,0.0
1521813197599040031,8.52115123864,0.00194777363984,0.0
1521813197629604101,8.55015041436,0.00195446043486,0.0
1521813197670833110,8.57015041313,0.00195907243239,0.0
1521813197714020967,8.59015041119,0.00196368476557,0.0
1521813197714143037,8.61015040855,0.00196829732095,0.0
1521813197754004955,8.64115116661,0.00197544750382,0.0
1521813197754170894,8.66115115263,0.00198006080835,0.0
1521813197793929100,8.69015039133,0.00198675043616,0.0
1521813197806157112,8.71015038555,0.00199136440383,0.0
1521813197845998048,8.73015037928,0.00199597856945,0.0
1521813197846139907,8.75015037258,0.00200059295358,0.0
1521813197887732028,8.77015036552,0.00200520756031,0.0
1521813197887849092,8.79015035817,0.00200982241104,0.0
1521813197925880908,8.8101503506,0.00201443755726,0.0
1521813197925975084,8.8301503429,0.00201905299557,0.0
1521813197966588973,8.85015033513,0.00202366857285,0.0
1521813197966836929,8.87015032737,0.00202828430189,0.0
1521813198007102966,8.89015031971,0.00203290018329,0.0
1521813198007577896,8.92115094714,0.00204005526078,0.0
1521813198046001911,8.94115093195,0.00204467151441,0.0
1521813198046108961,8.9611509172,0.00204928796847,0.0
1521813198046164035,8.97015029138,0.00205136528585,0.0
1521813198115466117,9.00115088924,0.00205852133043,0.0
1521813198117070913,9.02115087612,0.00206313830398,0.0
1521813198176362991,9.06115085178,0.00207237264044,0.0
1521813198214102983,9.0811508406,0.00207699004213,0.0
1521813198214231967,9.10115083008,0.00208160750334,0.0
1521813198254384040,9.13015025648,0.00208830278015,0.0
1521813198254523038,9.15015025461,0.00209292042994,0.0
1521813198254575014,9.17015025328,0.00209753818604,0.0
1521813198298110008,9.19015025244,0.0021021559814,0.0
1521813198308633089,9.22115078037,0.00210931361486,0.0
1521813198346183061,9.24115077399,0.00211393146862,0.0
1521813198346311092,9.25015025249,0.00211600946317,0.0
1521813198387357950,9.28115076241,0.00212316783384,0.0
1521813198419814109,9.31015025516,0.002129864351,0.0
1521813198458308935,9.33015025632,0.00213448291219,0.0
1521813198458416938,9.35015025749,0.00213910163117,0.0
1521813198458465099,9.36115074195,0.00214164206963,0.0
1521813198499748945,9.39015025955,0.00214833937745,0.0
1521813198500415086,9.4101502603,0.00215295847131,0.0
1521813198502173900,9.43015026075,0.00215757777575,0.0
1521813198565720081,9.44115072102,0.00216011861271,0.0
1521813198603540897,9.47015026053,0.00216681730938,0.0
1521813198604051113,9.49015025973,0.00217143758924,0.0
1521813198641922950,9.52115069502,0.00217859979744,0.0
1521813198642019987,9.54115068729,0.00218322094127,0.0
1521813198682807922,9.57015025075,0.00218992203409,0.0
1521813198683135986,9.59015024691,0.00219454384268,0.0
1521813198723326921,9.61015024238,0.002199165888,0.0
1521813198723795890,9.63015023717,0.0022037881142,0.0
1521813198761939048,9.65015023128,0.00220841058256,0.0
1521813198794493913,9.67015022474,0.00221303321565,0.0
1521813198834213018,9.69015021756,0.00221765605049,0.0
1521813198834439039,9.71015020979,0.00222227914878,0.0
1521813198834530115,9.73015020145,0.00222690243291,0.0
1521813198875189065,9.76115056345,0.00223406900778,0.0
1521813198876344919,9.78115054916,0.00223869282039,0.0
1521813198919270992,9.80115053458,0.002243316853,0.0
1521813198919658899,9.82115051977,0.00224794115356,0.0
1521813198919821023,9.8411505048,0.00225256576066,0.0
1521813198961761951,9.86115048975,0.00225719062915,0.0
1521813198962929010,9.8811504747,0.00226181568644,0.0
1521813199003083944,9.90115045973,0.00226644096145,0.0
1521813199003365039,9.92115044491,0.00227106650055,0.0
1521813199041996955,9.94115043031,0.00227569226344,0.0
1521813199070338010,9.97015008084,0.00228239975776,0.0
1521813199105845928,9.99015007127,0.0022870257611,0.0
1521813199105961084,10.0101500621,0.00229165187916,0.0
1521813199153033018,10.0301500534,0.00229627813302,0.0
1521813199155628919,10.0501500452,0.00230090445807,0.0
1521813199193844079,10.0611503511,0.00230344902256,0.0
1521813199193953037,10.0901500303,0.00231015721088,0.0
1521813199234210968,10.1211503191,0.002317328399,0.0
1521813199244137048,10.1411503097,0.00232195508994,0.0
1521813199286425113,10.161150301,0.00232658188775,0.0
1521813199286684989,10.1811502929,0.00233120879155,0.0
1521813199326044082,10.2011502855,0.00233583572353,0.0
1521813199326143026,10.2211502786,0.00234046270092,0.0
1521813199326184988,10.2411502722,0.00234508983666,0.0
1521813199366892099,10.2501499942,0.00234717202525,0.0
1521813199370424032,10.2901499902,0.00235642670137,0.0
1521813199410046100,10.3101499887,0.00236105428807,0.0
1521813199450177907,10.3301499874,0.00236568200218,0.0
1521813199450297117,10.3501499863,0.00237030986394,0.0
1521813199450345039,10.3701499853,0.00237493788082,0.0
1521813199491846084,10.3901499843,0.00237956602244,0.0
1521813199496854066,10.4101499833,0.00238419427488,0.0
1521813199533929109,10.4301499821,0.00238882269091,0.0
1521813199534022092,10.4501499808,0.002393451274,0.0
1521813199573915004,10.4611502213,0.00239599711874,0.0
1521813199606857061,10.5011502114,0.00240525528958,0.0
1521813199646162033,10.5211502058,0.00240988477375,0.0
1521813199646238088,10.5301499719,0.00241196807851,0.0
1521813199646279096,10.5611501933,0.00241914447049,0.0
1521813199688927888,10.5701499646,0.00242122800864,0.0
1521813199696860074,10.6101499549,0.00243048912003,0.0
1521813199735016107,10.6301499491,0.0024351200546,0.0
1521813199735434055,10.6501499427,0.0024397512907,0.0
1521813199774158000,10.6701499355,0.00244438282981,0.0
1521813199779947996,10.6811501416,0.00244693034147,0.0
1521813199818016052,10.7101499193,0.00245364680491,0.0
1521813199818125009,10.7301499103,0.00245827921579,0.0
1521813199858444929,10.7501499007,0.00246291191835,0.0
1521813199858555078,10.7701498906,0.00246754492453,0.0
1521813199917311906,10.7901498799,0.00247217821643,0.0
1521813199917659997,10.8101498689,0.00247681178772,0.0
1521813199954463958,10.8301498575,0.00248144552309,0.0
1521813199954592943,10.8611500267,0.00248862826167,0.0
1521813199954672098,10.8701498339,0.00249071364378,0.0
1521813199994173049,10.9011499977,0.00249789716245,0.0
1521813199994299888,10.9211499832,0.0025025319739,0.0
1521813200056902885,10.9411499688,0.00250716700639,0.0
1521813200061100006,10.9611499546,0.00251180229099,0.0
1521813200098113059,10.9811499405,0.00251643777765,0.0
1521813200098239898,11.0011499268,0.00252107342443,0.0
1521813200138073921,11.0301497395,0.00252779521679,0.0
1521813200138359069,11.0411499004,0.00253034497645,0.0
1521813200178632020,11.061149888,0.00253498093565,0.0
1521813200178693056,11.081149876,0.00253961703538,0.0
1521813200222943067,11.1011498646,0.00254425330487,0.0
1521813200223210096,11.1301496917,0.0025509760967,0.0
1521813200262566089,11.1611498342,0.00255816278561,0.0
1521813200262752056,11.1811498254,0.00256279949864,0.0
1521813200306370973,11.2011498172,0.00256743641413,0.0
1521813200325661897,11.2211498096,0.00257207343741,0.0
1521813200362550020,11.2411498026,0.00257671052323,0.0
1521813200362626075,11.2611497962,0.00258134767125,0.0
1521813200362673997,11.2811497904,0.00258598492076,0.0
1521813200403397083,11.301149785,0.00259062235891,0.0
1521813200406328916,11.3211497801,0.0025952599707,0.0
1521813200443018913,11.3411497755,0.00259989768241,0.0
1521813200443116903,11.3611497712,0.00260453541722,0.0
1521813200484540939,11.3901496315,0.00261126018697,0.0
1521813200484759092,11.4101496294,0.00261589816507,0.0
1521813200525991916,11.4211497596,0.00261844918599,0.0
1521813200526079893,11.450149625,0.00262517470693,0.0
1521813200567128896,11.4701496227,0.00262981320902,0.0
1521813200567526102,11.481149748,0.00263236447445,0.0
1521813200606513023,11.5101496173,0.00263909069129,0.0
1521813200606899976,11.5301496142,0.00264372981573,0.0
1521813200646928071,11.5411497344,0.00264628148569,0.0
1521813200656665086,11.5701496066,0.00265300887059,0.0
1521813200694194078,11.5901496021,0.00265764866097,0.0
1521813200694338083,11.610149597,0.00266228862274,0.0
1521813200746542930,11.6301495914,0.00266692879518,0.0
1521813200748076915,11.6501495851,0.00267156927642,0.0
1521813200787341117,11.6701495782,0.00267620999131,0.0
1521813200787720918,11.6901495706,0.00268085087383,0.0
1521813200827452898,11.7211496667,0.00268804481384,0.0
1521813200859384059,11.7411496561,0.00269268647196,0.0
1521813200898859977,11.761149645,0.00269732842916,0.0
1521813200898993968,11.7811496332,0.00270197057593,0.0
1521813200941293954,11.801149621,0.00270661293163,0.0
1521813200941396951,11.8211496082,0.0027112555019,0.0
1521813200977880954,11.8411495951,0.00271589829813,0.0
1521813200977988004,11.8701494762,0.00272263067983,0.0
1521813200978039979,11.8811495677,0.00272518442721,0.0
1521813201018157005,11.9101494508,0.00273191715148,0.0
1521813201018259048,11.9211495395,0.00273447109238,0.0
1521813201027657032,11.9301494378,0.00273656070293,0.0
1521813201046256065,11.9701494118,0.0027458485004,0.0
1521813201087078094,11.9901493989,0.00275049272409,0.0
1521813201125936031,12.0101493862,0.00275513719442,0.0
1521813201126040935,12.0301493737,0.00275978188451,0.0
1521813201126118898,12.0411494555,0.00276233655562,0.0
1521813201166013002,12.0701493498,0.00276907180782,0.0
1521813201172806978,12.0901493385,0.00277371707828,0.0
1521813201210025072,12.1101493277,0.00277836253127,0.0
1521813201249933958,12.1301493174,0.00278300817543,0.0
1521813201250041007,12.1501493076,0.00278765391985,0.0
1521813201289881944,12.1701492985,0.0027922998303,0.0
1521813201289980888,12.2011493653,0.00279950146378,0.0
1521813201330986976,12.2101492821,0.00280159229638,0.0
1521813201345335006,12.2411493488,0.00280879420787,0.0
1521813201382050037,12.2611493415,0.00281344066457,0.0
1521813201382198095,12.270149262,0.00281553162165,0.0
1521813201423408985,12.2901492565,0.00282017834233,0.0
1521813201423779010,12.3211493231,0.00282738080392,0.0
1521813201461931943,12.3301492471,0.00282947180938,0.0
1521813201462022066,12.3701492394,0.00283876550873,0.0
1521813201503051996,12.390149236,0.00284341264629,0.0
1521813201503130912,12.4101492329,0.00284805990977,0.0
1521813201542212009,12.43014923,0.00285270724454,0.0
1521813201542274951,12.4501492272,0.00285735477911,0.0
1521813201582173109,12.4701492244,0.00286200243999,0.0
1521813201582273006,12.4901492216,0.00286665035598,0.0
1521813201622493028,12.5211492826,0.00287385504187,0.0
1521813201665585041,12.5301492154,0.00287594679201,0.0
1521813201702778100,12.5611492741,0.00288315218588,0.0
1521813201702894926,12.5811492693,0.00288780121321,0.0
1521813201742065906,12.590149204,0.00288989334881,0.0
1521813201742156982,12.6011492641,0.00289245049668,0.0
1521813201742212057,12.6411492522,0.00290174959499,0.0
1521813201742269992,12.6611492455,0.00290639933302,0.0
1521813201782906055,12.6811492381,0.00291104933402,0.0
1521813201786813974,12.7011492301,0.00291569960542,0.0
1521813201826358079,12.7211492214,0.00292035008585,0.0
1521813201826457023,12.7411492122,0.00292500080871,0.0
1521813201866174936,12.7501491507,0.00292709371408,0.0
1521813201892808914,12.7811491917,0.00293430299102,0.0
1521813201932025909,12.8101491204,0.00294104764196,0.0
1521813201932611942,12.8211491689,0.00294360610204,0.0
1521813201932945013,12.8501490975,0.00295035153748,0.0
1521813201970211029,12.8701490854,0.00295500388249,0.0
1521813201974492073,12.8901490728,0.00295965642716,0.0
1521813202014172077,12.9101490599,0.00296430920777,0.0
1521813202014377117,12.9301490468,0.00296896222178,0.0
1521813202059819936,12.9501490334,0.00297361533807,0.0
1521813202060637950,12.97014902,0.00297826861355,0.0
1521813202098721981,12.9901490065,0.00298292207138,0.0
1521813202138917922,13.0101489931,0.00298757565334,0.0
1521813202139242887,13.0301489798,0.00299222939865,0.0
1521813202139326095,13.0501489666,0.00299688333725,0.0
1521813202177902936,13.0701489538,0.0030015374085,0.0
1521813202182648897,13.0901489412,0.00300619168181,0.0
1521813202221899986,13.1101489291,0.00301084619615,0.0
1521813202262475013,13.1301489174,0.00301550095334,0.0
1521813202262763023,13.1611489436,0.00302271615232,0.0
1521813202262895107,13.1811489327,0.00302737118031,0.0
1521813202306190967,13.2011489224,0.00303202622795,0.0
1521813202306344985,13.2301488672,0.00303877606136,0.0
1521813202330957889,13.2411489037,0.00304133641576,0.0
1521813202385236978,13.2701488514,0.00304808656523,0.0
1521813202426362037,13.2901488444,0.00305274198114,0.0
1521813202426414012,13.3101488381,0.00305739753991,0.0
1521813202426445960,13.3301488323,0.00306205328159,0.0
1521813202467355012,13.350148827,0.00306670904819,0.0
1521813202468420028,13.3701488222,0.00307136495728,0.0
1521813202472510099,13.3901488179,0.00307602105029,0.0
1521813202529264926,13.4301488102,0.00308533348837,0.0
1521813202567508935,13.4501488068,0.00308998992896,0.0
1521813202568008899,13.4701488036,0.00309464654425,0.0
1521813202606390953,13.4901488004,0.0030993032722,0.0
1521813202606910943,13.5101487973,0.00310396013034,0.0
1521813202646307945,13.5411488268,0.00311117859811,0.0
1521813202646389007,13.561148823,0.00311583583729,0.0
1521813202687247991,13.5811488189,0.00312049318713,0.0
1521813202705691099,13.6011488145,0.00312515075532,0.0
1521813202742358922,13.6211488098,0.00312980857894,0.0
1521813202742573976,13.6411488046,0.00313446669186,0.0
1521813202742665052,13.6611487989,0.00313912501399,0.0
1521813202782160997,13.6811487927,0.00314378347304,0.0
1521813202782254934,13.7011487859,0.00314844217595,0.0
1521813202801367998,13.7211487785,0.00315310116916,0.0
1521813202862077951,13.7411487705,0.00315776049774,0.0
1521813202897911071,13.7611487619,0.00316242016596,0.0
1521813202898019075,13.7901487184,0.00316917726871,0.0
1521813202898066043,13.8101487086,0.00317383766625,0.0
1521813202938718080,13.8211487321,0.00317640099872,0.0
1521813202939127922,13.8501486871,0.00318315916911,0.0
1521813202951848983,13.8701486756,0.00318782025457,0.0
1521813202967029094,13.8901486635,0.00319248165339,0.0
1521813203006803035,13.910148651,0.00319714341344,0.0
1521813203046005010,13.9301486382,0.00320180546945,0.0
1521813203046145915,13.950148625,0.00320646776948,0.0
1521813203088872909,13.9701486116,0.00321113040449,0.0
1521813203089178085,13.990148598,0.00321579334993,0.0
1521813203125948905,14.0101485843,0.00322045649649,0.0
1521813203166543006,14.0301485705,0.00322511985767,0.0
1521813203166896104,14.0501485569,0.00322978347057,0.0
1521813203167010068,14.0701485433,0.00323444726935,0.0
1521813203206063985,14.09014853,0.0032391111176,0.0
1521813203206195116,14.1211485335,0.00324634024744,0.0
1521813203215068101,14.1411485206,0.00325100426664,0.0
1521813203228804111,14.1501484919,0.00325310309847,0.0
1521813203280282020,14.1701484801,0.00325776728151,0.0
1521813203319080114,14.201148485,0.00326499713282,0.0
1521813203319365024,14.2211484742,0.00326966165243,0.0
1521813203319559097,14.2301484477,0.00327176071486,0.0
1521813203357880115,14.2501484381,0.00327642533939,0.0
1521813203357969045,14.2701484292,0.0032810900072,0.0
1521813203377403974,14.2901484208,0.00328575478296,0.0
1521813203404572963,14.3101484131,0.00329041968552,0.0
1521813203441922903,14.3411484227,0.00329765042913,0.0
1521813203483304977,14.3611484163,0.00330231554999,0.0
1521813203483766078,14.3811484104,0.00330698083875,0.0
1521813203525844097,14.3901483882,0.00330908027466,0.0
1521813203525918960,14.4211484002,0.00331631195141,0.0
1521813203525959968,14.4411483957,0.00332097780462,0.0
1521813203569550037,14.4611483916,0.00332564383312,0.0
1521813203596139907,14.4811483877,0.00333031002828,0.0
1521813203634073019,14.5101483639,0.0033370762055,0.0
1521813203634203910,14.5301483606,0.00334174281225,0.0
1521813203674112081,14.5501483572,0.00334640959362,0.0
1521813203674249887,14.5701483539,0.00335107658368,0.0
1521813203674314022,14.5901483503,0.00335574371803,0.0
1521813203714708089,14.6101483466,0.00336041102351,0.0
1521813203714859962,14.6301483426,0.00336507860265,0.0
1521813203729943990,14.6501483382,0.00336974643172,0.0
1521813203767980098,14.6701483334,0.00337441459799,0.0
1521813203805946111,14.7011483419,0.00338165095665,0.0
1521813203806052923,14.7211483357,0.00338631988506,0.0
1521813203846127986,14.7301483161,0.00338842096249,0.0
1521813203846256017,14.7701483016,0.00339775960976,0.0
1521813203886930942,14.7811483133,0.00340032788949,0.0
1521813203902570962,14.8101482846,0.00340709926032,0.0
1521813203942143917,14.8301482752,0.00341176956668,0.0
1521813203942267894,14.8501482651,0.0034164401654,0.0
1521813203983263015,14.8701482545,0.00342111106619,0.0
1521813203983758926,14.9011482517,0.00342835132867,0.0
1521813204021935939,14.9211482395,0.00343302268208,0.0
1521813204022030115,14.9411482268,0.00343769429104,0.0
1521813204062150001,14.9611482137,0.00344236611794,0.0
1521813204062376022,14.9809269965,0.00344698641005,0.0
1521813204101895093,14.9993322105,0.00344155924675,0.0
1521813204149952888,15.0167319874,0.00340625680043,0.0
1521813204187515020,15.0329319528,0.00330290339083,0.0
1521813204187961101,15.0479624844,0.00310402500653,0.0
1521813204188127040,15.063917913,0.00276453366804,0.0
1521813204188242912,15.08117276,0.00225113235597,0.0
1521813204226170063,15.0996350772,0.00160899306291,0.0
1521813204226336002,15.128189463,0.00054674974774,0.0
1521813204244438886,15.1466707304,-0.000172388588676,0.0
1521813204263731002,15.1639574475,-0.000878568969452,0.0
1521813204324609994,15.1802081472,-0.00159840714306,0.0
1521813204363280057,15.195229329,-0.0023627587367,0.0
1521813204363600015,15.2091180172,-0.00319059809867,0.0
1521813204363786935,15.2218171665,-0.00407174033651,0.0
1521813204402132034,15.2338115302,-0.00501201131732,0.0
1521813204402250051,15.2465875924,-0.00611884410124,0.0
1521813204410448074,15.2602468473,-0.00741205628253,0.0
1521813204425257921,15.2740739741,-0.00879366184078,0.0
1521813204491794109,15.2870228372,-0.0101590301565,0.0
1521813204530734062,15.2990320603,-0.0114877974286,0.0
1521813204530862092,15.3098757242,-0.0127654542062,0.0
1521813204530919075,15.319621522,-0.0140094149468,0.0
1521813204574470996,15.325193483,-0.0147393519039,0.0
1521813204574697017,15.3419494542,-0.0171589420966,0.0
1521813204581056118,15.3460167679,-0.0179106749329,0.0
1521813204593401908,15.350375257,-0.0186980707714,0.0
1521813204630426883,15.3536163577,-0.0193291068728,0.0
1521813204669871091,15.3562158577,-0.0198536077698,0.0
1521813204669989109,15.360032919,-0.0205843763914,0.0
1521813204710617065,15.3650034599,-0.0215524112561,0.0
1521813204710846900,15.3684358981,-0.0222073794969,0.0
1521813204750835895,15.3785760258,-0.0242796119251,0.0
1521813204770143985,15.3871439768,-0.0260301263484,0.0
1521813204807229995,15.3968853723,-0.0280302293889,0.0
1521813204807607889,15.407799991,-0.0302793393899,0.0
1521813204807713031,15.4198888488,-0.0327773486392,0.0
1521813204867027044,15.4331518127,-0.0355240889039,0.0
1521813204869596958,15.4475888279,-0.03851941462,0.0
1521813204905940055,15.4631999794,-0.0417632833042,0.0
1521813204946254014,15.4799851433,-0.045255678548,0.0
1521813204946415901,15.4969415331,-0.0488038880643,0.0
1521813204946508884,15.5124679713,-0.0521013661247,0.0
1521813204946580886,15.5270278489,-0.0552388123136,0.0
1521813204986221075,15.5404546258,-0.0582117997775,0.0
1521813204986294031,15.5525955888,-0.0610076231955,0.0
1521813205018708944,15.5672576858,-0.0646177414251,0.0
1521813205026073932,15.5763872627,-0.0669674619759,0.0
1521813205062163114,15.5844930648,-0.0691420620115,0.0
1521813205102051019,15.5913490885,-0.0710649129873,0.0
1521813205102184057,15.59699713,-0.0727132605297,0.0
1521813205142743110,15.6015035228,-0.0740948278399,0.0
1521813205142838001,15.6047450901,-0.0751460857979,0.0
1521813205182775974,15.6070013484,-0.0759136833355,0.0
1521813205182934999,15.6080606938,-0.0763251551191,0.0
1521813205222301006,15.6084545896,-0.0765026014383,0.0
1521813205235268115,15.6086711761,-0.0765932087888,0.0
1521813205274070024,15.6087623238,-0.0766282893213,0.0
1521813205274173021,15.6088406087,-0.0766493367488,0.0
1521813205274295091,15.6088074053,-0.0766310647647,0.0
1521813205314553976,15.6088726326,-0.0766399877108,0.0
1521813205316869020,15.6088630929,-0.0766256064482,0.0
1521813205355103015,15.6089520941,-0.0766434086074,0.0
1521813205398927927,15.6089789723,-0.0766426169464,0.0
1521813205399091005,15.609047643,-0.0766560102654,0.0
1521813205399233102,15.6089876722,-0.0766183968301,0.0
1521813205437989950,15.6089461806,-0.0765898660708,0.0
1521813205438119888,15.609079457,-0.0766331419009,0.0
1521813205457308053,15.6090446157,-0.0766069909692,0.0
1521813205506769895,15.6089887655,-0.0765644363546,0.0
1521813205546130895,15.6089105394,-0.0765183759475,0.0
1521813205586030006,15.6089928165,-0.0765380397075,0.0
1521813205586189985,15.608927918,-0.0764969480914,0.0
1521813205626291036,15.6090621074,-0.0765412500953,0.0
1521813205626391887,15.6090470828,-0.0765231072801,0.0
1521813205626454114,15.609139608,-0.0765524934944,0.0
1521813205667407035,15.6091617468,-0.0765515533692,0.0
1521813205668087005,15.6092431183,-0.0765697088677,0.0
1521813205672997951,15.6092111771,-0.0765425054724,0.0
1521813205693577051,15.6092498457,-0.0765468291035,0.0
1521813205730168104,15.6091090553,-0.0764592274435,0.0
1521813205770941019,15.6092442945,-0.0765136562303,0.0
1521813205810019016,15.609216979,-0.0764884983644,0.0
1521813205810096025,15.6093343114,-0.076537860231,0.0
1521813205810141086,15.6093490851,-0.0765358005239,0.0
1521813205850949048,15.6094873297,-0.0765937522626,0.0
1521813205851285934,15.6098442999,-0.0767767531424,0.0
1521813205866055965,15.6110324125,-0.0774350616663,0.0
1521813205883536100,15.6131501238,-0.0786673334011,0.0
1521813205921920061,15.6162404559,-0.0805183651103,0.0
1521813205962965965,15.6253693186,-0.0861332012413,0.0
1521813205963130950,15.6278348977,-0.0877132275837,0.0
1521813206004276037,15.6385035842,-0.0943319454471,0.0
1521813206005296945,15.6465816929,-0.0994035226087,0.0
1521813206041951894,15.6556685698,-0.105124044328,0.0
1521813206081830978,15.6657646629,-0.111493731227,0.0
1521813206081902980,15.6827101935,-0.122254483352,0.0
1521813206123199939,15.6953895072,-0.130284189064,0.0
1521813206123658895,15.7021100944,-0.134498360619,0.0
1521813206162512063,15.7237769462,-0.148291244064,0.0
1521813206162781953,15.7394851073,-0.158268501255,0.0
1521813206202366113,15.7561997351,-0.168892952273,0.0
1521813206202522993,15.7730862517,-0.179665827091,0.0
1521813206242213964,15.7899488602,-0.190451284669,0.0
1521813206242357969,15.8067995805,-0.201242755703,0.0
1521813206281841993,15.8236443853,-0.212037058905,0.0
1521813206289916038,15.8480049848,-0.227656543923,0.0
1521813206325831890,15.8648402921,-0.238449959129,0.0
1521813206366461038,15.8816779169,-0.249245033744,0.0
1521813206406614065,15.898516713,-0.260040832315,0.0
1521813206406718015,15.9153561088,-0.270836891549,0.0
1521813206406797885,15.9321958183,-0.281632982838,0.0
1521813206448787927,15.9583626871,-0.298404469953,0.0
1521813206449086904,15.9752019291,-0.309199864054,0.0
1521813206449944972,15.9827157181,-0.314020597978,0.0
1521813206473781108,16.008880512,-0.330790128412,0.0
1521813206517528057,16.0257198562,-0.341585006078,0.0
1521813206555646896,16.0418449611,-0.351950385076,0.0
1521813206556045055,16.0568167639,-0.361624984903,0.0
1521813206599188089,16.0625799777,-0.365406694279,0.0
1521813206603007078,16.0838583813,-0.379291759109,0.0
1521813206641990900,16.096828601,-0.387897024166,0.0
1521813206642116069,16.1108964189,-0.397332099679,0.0
1521813206642169952,16.1179294492,-0.402065879492,0.0
1521813206682018041,16.1408604204,-0.417723952374,0.0
1521813206688503980,16.1546678951,-0.427291059348,0.0
1521813206726372957,16.1722949097,-0.439746903858,0.0
1521813206766362905,16.1836363173,-0.447928711258,0.0
1521813206766477108,16.1900945,-0.452604958005,0.0
1521813206806018114,16.2031304314,-0.462438126853,0.0
1521813206806107997,16.2113380049,-0.468756939751,0.0
1521813206806145906,16.2184424174,-0.474352361027,0.0
1521813206846839904,16.2246875287,-0.479385230194,0.0
1521813206850363016,16.2308434232,-0.48437052827,0.0
1521813206891540050,16.2376251151,-0.489873647397,0.0
1521813206930136919,16.2450986293,-0.496018266545,0.0
1521813206930344104,16.2534083818,-0.502897210848,0.0
1521813206971342086,16.2625897223,-0.510542183921,0.0
1521813206971705913,16.2726613798,-0.518952102454,0.0
1521813207009972095,16.2836387252,-0.528130420037,0.0
1521813207012471914,16.295526999,-0.538080745686,0.0
1521813207050054073,16.3083285718,-0.548805219137,0.0
1521813207050190925,16.3220446474,-0.560304892406,0.0
1521813207050254106,16.3366758424,-0.572580270953,0.0
1521813207090615987,16.3516848979,-0.585213309547,0.0
1521813207102624893,16.3751207923,-0.60499771337,0.0
1521813207141913890,16.3904073994,-0.617909275146,0.0
1521813207182770013,16.4056878496,-0.630822703704,0.0
1521813207183018922,16.4209652538,-0.643736956549,0.0
1521813207222237110,16.4362411618,-0.656651528702,0.0
1521813207222384929,16.4515163453,-0.669566176867,0.0
1521813207222440004,16.4667911878,-0.682480784837,0.0
1521813207261964082,16.48206588,-0.695395298106,0.0
1521813207279795885,16.4973405161,-0.708309692174,0.0
1521813207318381071,16.5126151426,-0.72122395701,0.0
1521813207318495988,16.5278897821,-0.734138089514,0.0
1521813207358011960,16.5431644455,-0.747052089922,0.0
1521813207358114004,16.5652695256,-0.765743484566,0.0
1521813207398174047,16.5737138609,-0.772879702195,0.0
1521813207398436069,16.5958201228,-0.791571513642,0.0
1521813207440994977,16.6110954631,-0.804485342922,0.0
1521813207441270112,16.6263708287,-0.817399051022,0.0
1521813207478117942,16.6416462185,-0.830312640488,0.0
1521813207489185094,16.6653628562,-0.850359632109,0.0
1521813207525815010,16.6806377938,-0.863272560349,0.0
1521813207525913000,16.7027480051,-0.881965865742,0.0
1521813207566811084,16.7180235053,-0.894878902027,0.0
1521813207567193984,16.7329763205,-0.907535259582,0.0
1521813207607430934,16.7587403388,-0.929310561574,0.0
1521813207643404960,16.7611268581,-0.931436765449,0.0
1521813207681915044,16.7809210683,-0.948336442184,0.0
1521813207682014942,16.7919991974,-0.957972153653,0.0
1521813207722562074,16.7960869405,-0.96162221133,0.0
1521813207722706079,16.8112214596,-0.975160911024,0.0
1521813207722765922,16.8203765734,-0.983540960073,0.0
1521813207762010097,16.8305229007,-0.992931015688,0.0
1521813207781884908,16.8471978345,-1.00846544422,0.0
1521813207822890043,16.8594208608,-1.01994270282,0.0
1521813207823019027,16.8724868183,-1.03223654379,0.0
1521813207862436056,16.8794420062,-1.03882453959,0.0
1521813207866329908,16.9006906094,-1.05882490107,0.0
1521813207906924962,16.9150897975,-1.07244187844,0.0
1521813207907274007,16.9295500216,-1.08612862274,0.0
1521813207946177959,16.9440408153,-1.09985014707,0.0
1521813207946278095,16.9585469192,-1.11358899622,0.0
1521813207946331977,16.9730606991,-1.12733644895,0.0
1521813207986740112,16.9875783342,-1.14108814843,0.0
1521813207987129926,17.0018580935,-1.15462802202,0.0
1521813208034810066,17.0097865935,-1.16213686766,0.0
1521813208035573005,17.028107028,-1.17963464724,0.0
1521813208077161073,17.0400314488,-1.1910807816,0.0
1521813208113897085,17.0509930706,-1.20171265711,0.0
1521813208113995075,17.0668363309,-1.21735004074,0.0
1521813208114053010,17.0754821472,-1.22613489463,0.0
1521813208154207944,17.0831329506,-1.23408777439,0.0
1521813208210125923,17.089951227,-1.24131923783,0.0
1521813208246273040,17.0958572876,-1.24770908774,0.0
1521813208246418952,17.1009567466,-1.25334457184,0.0
1521813208246527910,17.1051501355,-1.25808852356,0.0
1521813208286744117,17.109565605,-1.26309476931,0.0
1521813208286871910,17.1148845904,-1.26914178128,0.0
1521813208286941051,17.1209308857,-1.27606715837,0.0
1521813208326035022,17.1277612142,-1.28392636442,0.0
1521813208326150894,17.1316481934,-1.28836105549,0.0
1521813208349387884,17.1483422582,-1.30768459158,0.0
1521813208370982885,17.1575321261,-1.31836418965,0.0
1521813208413763046,17.166225502,-1.32855718045,0.0
1521813208450067996,17.1742218473,-1.33800239081,0.0
1521813208450193881,17.1815691493,-1.34674099781,0.0
1521813208490078926,17.1881104315,-1.35460360079,0.0
1521813208499300003,17.1939247978,-1.36170790046,0.0
1521813208539359092,17.2017887124,-1.37151828692,0.0
1521813208539720058,17.2054287499,-1.37626001165,0.0
1521813208539866924,17.2084315666,-1.38026111018,0.0
1521813208578476905,17.2106140846,-1.38326207968,0.0
1521813208578762054,17.2119996512,-1.38526640092,0.0
1521813208618474006,17.2126926425,-1.38636079731,0.0
1521813208658466100,17.2126808405,-1.38649169147,0.0
1521813208658556938,17.2128534978,-1.38679733534,0.0
1521813208697886943,17.2137740891,-1.38803585446,0.0
1521813208698061943,17.2152535473,-1.39008648758,0.0
1521813208738902091,17.217369998,-1.39308487639,0.0
1521813208739100933,17.2201287142,-1.39706024245,0.0
1521813208777941942,17.2235365037,-1.40202296029,0.0
1521813208778044939,17.227600928,-1.40797912957,0.0
1521813208819117069,17.2323253089,-1.41493221389,0.0
1521813208835030078,17.2346874187,-1.4184846566,0.0
1521813208875114917,17.2468621696,-1.43650232702,0.0
1521813208875193119,17.2539436682,-1.44701162576,0.0
1521813208875247955,17.2616883097,-1.45852148719,0.0
1521813208913872957,17.2658795523,-1.46469096292,0.0
1521813208917120933,17.2791668977,-1.48454270413,0.0
1521813208955452919,17.2889008657,-1.49905398433,0.0
1521813208993944883,17.2992979837,-1.51456566743,0.0
1521813208994076967,17.3103505506,-1.53106679004,0.0
1521813208994132995,17.3155589112,-1.53883472601,0.0
1521813209035181999,17.3325673301,-1.56438524125,0.0
1521813209044388055,17.3436505101,-1.58104366876,0.0
1521813209083086967,17.3547275185,-1.59770177213,0.0
1521813209121952056,17.3658015115,-1.61435964827,0.0
1521813209122041940,17.3768740534,-1.63101735839,0.0
1521813209122101068,17.3879459191,-1.64767493969,0.0
1521813209163075923,17.3990174918,-1.66433241443,0.0
1521813209163280010,17.4100889606,-1.68098979585,0.0
1521813209182359933,17.4211604175,-1.69764709142,0.0
1521813209202533006,17.4322319221,-1.71430432696,0.0
1521813209239176034,17.4433034675,-1.73096146646,0.0
1521813209278004884,17.4543750782,-1.74761853339,0.0
1521813209278163909,17.4654467574,-1.76427552925,0.0
1521813209318622112,17.4814695459,-1.78838469407,0.0
1521813209331631898,17.4925418002,-1.80504204318,0.0
1521813209374078035,17.5036141144,-1.82169931853,0.0
1521813209374175071,17.5146615583,-1.83832144486,0.0
1521813209374233961,17.5252045671,-1.85423373611,0.0
1521813209413831949,17.53509777,-1.86922028686,0.0
1521813209420996904,17.5444378899,-1.88343636637,0.0
1521813209458828926,17.5580265061,-1.90425917548,0.0
1521813209459003925,17.5655091939,-1.91601952064,0.0
1521813209501681089,17.5723069926,-1.92695377065,0.0
1521813209524439096,17.5783415952,-1.93687965691,0.0
1521813209568975925,17.5882381189,-1.95375929902,0.0
1521813209606415033,17.5937106344,-1.96349275305,0.0
1521813209606551885,17.5980901069,-1.97125796456,0.0
1521813209650902032,17.6029092929,-1.97988859849,0.0
1521813209651196002,17.608208874,-1.9894756282,0.0
1521813209689984083,17.6160864705,-2.00400801902,0.0
1521813209690082073,17.6220931006,-2.01514931923,0.0
1521813209730523109,17.6247706172,-2.02031111037,0.0
1521813209730653047,17.6281426147,-2.02683617406,0.0
1521813209770140886,17.6308074025,-2.0321677519,0.0
1521813209770287990,17.6329440735,-2.03658040395,0.0
1521813209809931039,17.6344533322,-2.03983272348,0.0
1521813209810043096,17.6353533828,-2.0419179532,0.0
1521813209850761890,17.6359708215,-2.04350415808,0.0
1521813209851144075,17.6363729828,-2.04438585935,0.0
1521813209890244960,17.6385046723,-2.04890241648,0.0
1521813209890389919,17.6404086713,-2.05303997965,0.0
1521813209930691957,17.6427697332,-2.05824399901,0.0
1521813209931063890,17.6455942886,-2.06452781485,0.0
1521813209974992990,17.6488898916,-2.07190157374,0.0
1521813209975620985,17.652659611,-2.08037093434,0.0
1521813210015671014,17.6569048163,-2.08993885671,0.0
1521813210058089971,17.6640532888,-2.10618852043,0.0
1521813210058295965,17.6695181553,-2.11857097507,0.0
1521813210097939968,17.675460096,-2.13205480792,0.0
1521813210098016023,17.6818791392,-2.14664000661,0.0
1521813210098058938,17.6887752579,-2.16232654552,0.0
1521813210139098882,17.6961484647,-2.1791143992,0.0
1521813210144748926,17.7039987856,-2.1970035436,0.0
1521813210182595014,17.712030427,-2.21536191422,0.0
1521813210182828903,17.7200316901,-2.23371315797,0.0
1521813210221867084,17.7280179356,-2.25206074155,0.0
1521813210242302894,17.7359967996,-2.27040641914,0.0
1521813210278158903,17.7439720601,-2.28875109262,0.0
1521813210278297901,17.7519455873,-2.30709522486,0.0
1521813210318973064,17.763481569,-2.33364346956,0.0
1521813210319209098,17.7714533632,-2.3519859662,0.0
1521813210358371973,17.779425513,-2.37032922909,0.0
1521813210392358064,17.7873978851,-2.38867284534,0.0
1521813210434839963,17.7953704113,-2.40701660925,0.0
1521813210435074090,17.8033430563,-2.4253604186,0.0
1521813210435178041,17.8113158013,-2.44370422285,0.0
1521813210435266971,17.8192886358,-2.4620479972,0.0
1521813210475235939,17.8316698583,-2.49052910948,0.0
1521813210475455999,17.8396425869,-2.50887217738,0.0
1521813210492166996,17.8476153926,-2.52721519927,0.0
1521813210542994976,17.8511807788,-2.53542265985,0.0
1521813210584247112,17.8635612357,-2.56390112551,0.0
1521813210584521055,17.8715342628,-2.58224401669,0.0
1521813210621854066,17.8795073599,-2.60058686602,0.0
1521813210621942996,17.8910475221,-2.62713983061,0.0
1521813210662120103,17.8990210631,-2.64548312254,0.0
1521813210662915945,17.9069946638,-2.66382636792,0.0
1521813210703017950,17.9149683223,-2.68216956748,0.0
1521813210742163896,17.9229420372,-2.70051272193,0.0
1521813210742264032,17.9353208435,-2.7289856829,0.0
1521813210742324113,17.9432944358,-2.74732821775,0.0
1521813210783217906,17.9512680828,-2.76567071639,0.0
1521813210785559892,17.9592417832,-2.78401317951,0.0
1521813210823158979,17.9672155357,-2.80235560785,0.0
1521813210823529958,17.9751893388,-2.82069800194,0.0
1521813210861917018,17.983163189,-2.83904035732,0.0
1521813210862035036,17.9911370851,-2.85738267491,0.0
1521813210903616905,17.9991110379,-2.87572498199,0.0
1521813210926069021,18.0070850326,-2.89406724995,0.0
1521813210966814041,18.0150590727,-2.91240948925,0.0
1521813210967195034,18.0230331583,-2.93075170328,0.0
1521813210967355966,18.031007288,-2.94909389252,0.0
1521813211006056070,18.0389814606,-2.96743605741,0.0
1521813211006160020,18.0469556752,-2.98577819835,0.0
1521813211021635055,18.0549299306,-3.00412031575,0.0
1521813211071939945,18.0664770699,-3.03068280712,0.0
1521813211111169099,18.0744516269,-3.04902528395,0.0
1521813211111561059,18.0824262183,-3.06736773356,0.0
1521813211149982929,18.0904008432,-3.08571015637,0.0
1521813211150177001,18.1027762622,-3.1141725482,0.0
1521813211189924001,18.1107507752,-3.13251451283,0.0
1521813211190057039,18.1187253227,-3.15085646062,0.0
1521813211230180025,18.1266999039,-3.16919839231,0.0
1521813211230396032,18.1346745183,-3.18754030858,0.0
1521813211269913911,18.142649165,-3.20588221007,0.0
1521813211269999027,18.1506238435,-3.22422409739,0.0
1521813211314140081,18.1585985529,-3.24256597106,0.0
1521813211314273118,18.1665732927,-3.26090783156,0.0
1521813211355671882,18.1745480622,-3.27924967927,0.0
1521813211362690925,18.1825228605,-3.29759151459,0.0
1521813211402621984,18.1904976871,-3.31593333783,0.0
1521813211402939081,18.198472541,-3.33427514922,0.0
1521813211442198038,18.2100238335,-3.36084396923,0.0
1521813211442322969,18.2179989123,-3.37918608503,0.0
1521813211482597112,18.2259740139,-3.39752818528,0.0
1521813211482749938,18.2339491377,-3.41587027003,0.0
1521813211523180007,18.2463222006,-3.44432577571,0.0
1521813211523607969,18.2498994489,-3.45255439295,0.0
1521813211561965942,18.2578746345,-3.47089643042,0.0
1521813211562071084,18.2658498469,-3.48923846827,0.0
1521813211603967905,18.2738250725,-3.50758047905,0.0
1521813211604281902,18.2818003152,-3.52592247198,0.0
1521813211642066955,18.2897755753,-3.5442644487,0.0
1521813211642261028,18.2977508521,-3.56260640939,0.0
1521813211681906938,18.3057261452,-3.58094835416,0.0
1521813211681999921,18.3180981706,-3.60940094778,0.0
1521813211722408056,18.326073369,-3.62774257067,0.0
1521813211722575902,18.3340485835,-3.64608418118,0.0
1521813211761985063,18.3376274695,-3.65431597427,0.0
