%time,field.x,field.y,field.z,field.w
1521813188806157112,0.0,0.0,0.000113285821899,0.999999993583
1521813188806293964,0.0,0.0,0.000113292059148,0.999999993582
1521813188806382894,0.0,0.0,0.000113297936231,0.999999993582
1521813188816457986,0.0,0.0,0.000113303582953,0.999999993581
1521813188816555976,0.0,0.0,0.000113310749232,0.99999999358
1521813188816615104,0.0,0.0,0.000113315750308,0.99999999358
1521813188816664934,0.0,0.0,0.000113324387397,0.999999993579
1521813188839010000,0.0,0.0,0.000113328123652,0.999999993578
1521813188839641094,0.0,0.0,0.000113335625827,0.999999993578
1521813188840049982,0.0,0.0,0.000113340279329,0.999999993577
1521813188840396881,0.0,0.0,0.000113346234864,0.999999993576
1521813188840728998,0.0,0.0,0.000113348955677,0.999999993576
1521813188855266094,0.0,0.0,0.00011335550633,0.999999993575
1521813188979048967,0.0,0.0,0.000113357223299,0.999999993575
1521813188988009929,0.0,0.0,0.000113361350627,0.999999993575
1521813189008392095,0.0,0.0,0.000113365396514,0.999999993574
1521813189008683919,0.0,0.0,0.000113368355882,0.999999993574
1521813189061331033,0.0,0.0,0.000113041282102,0.999999993611
1521813189064157962,0.0,0.0,0.000111854796518,0.999999993744
1521813189096860885,0.0,0.0,0.000111209889636,0.999999993816
1521813189140568017,0.0,0.0,0.000110959799089,0.999999993844
1521813189145132064,0.0,0.0,0.000110859724489,0.999999993855
1521813189145631074,0.0,0.0,0.000110811847023,0.99999999386
1521813189170574903,0.0,0.0,0.000110806450158,0.999999993861
1521813189174289941,0.0,0.0,0.000110804119855,0.999999993861
1521813189178682088,0.0,0.0,0.000110804313055,0.999999993861
1521813189188361883,0.0,0.0,0.00011080524563,0.999999993861
1521813189188504934,0.0,0.0,0.000110807704589,0.999999993861
1521813189191274881,0.0,0.0,0.000110811926782,0.99999999386
1521813189218095064,0.0,0.0,0.000110816561568,0.99999999386
1521813189218208074,0.0,0.0,0.000110818370814,0.99999999386
1521813189218264102,0.0,0.0,0.000110822293777,0.999999993859
1521813189254823923,0.0,0.0,0.000110827335109,0.999999993859
1521813189255300998,0.0,0.0,0.000110834058237,0.999999993858
1521813189293855905,0.0,0.0,0.000112652892268,0.999999993655
1521813189311811923,0.0,0.0,0.000112901917858,0.999999993627
1521813189350058078,0.0,0.0,0.000113224801199,0.99999999359
1521813189350198984,0.0,0.0,0.000113357359326,0.999999993575
1521813189389950037,0.0,0.0,0.000113416983964,0.999999993568
1521813189398641109,0.0,0.0,0.000113458493935,0.999999993564
1521813189437891960,0.0,0.0,0.000113465019138,0.999999993563
1521813189478355884,0.0,0.0,0.000113474784521,0.999999993562
1521813189520283937,0.0,0.0,0.000113488835326,0.99999999356
1521813189520888090,0.0,0.0,0.00011349636873,0.999999993559
1521813189521162033,0.0,0.0,0.00011350215636,0.999999993559
1521813189521400928,0.0,0.0,0.000113508671058,0.999999993558
1521813189558384895,0.0,0.0,0.000113516752725,0.999999993557
1521813189558511018,0.0,0.0,0.00011352431686,0.999999993556
1521813189613388061,0.0,0.0,0.000113526965318,0.999999993556
1521813189625411033,0.0,0.0,0.000113532406984,0.999999993555
1521813189663043022,0.0,0.0,0.000113539464014,0.999999993554
1521813189663192033,0.0,0.0,0.000113541900774,0.999999993554
1521813189663255929,0.0,0.0,0.000113549305221,0.999999993553
1521813189704175949,0.0,0.0,0.000113554832048,0.999999993553
1521813189704268932,0.0,0.0,0.000113560576746,0.999999993552
1521813189719888925,0.0,0.0,0.000113567759581,0.999999993551
1521813189741153955,0.0,0.0,0.000113574965183,0.99999999355
1521813189777990102,0.0,0.0,0.00011358011311,0.99999999355
1521813189818207025,0.0,0.0,0.000113581559911,0.99999999355
1521813189818316936,0.0,0.0,0.000113582502696,0.99999999355
1521813189857851982,0.0,0.0,0.000113585558848,0.999999993549
1521813189857979059,0.0,0.0,0.000113586008648,0.999999993549
1521813189903320074,0.0,0.0,0.000113589782674,0.999999993549
1521813189903808116,0.0,0.0,0.000113596374576,0.999999993548
1521813189942024946,0.0,0.0,0.000113598523473,0.999999993548
1521813189942122936,0.0,0.0,0.00011359901847,0.999999993548
1521813189983736991,0.0,0.0,0.00011360282367,0.999999993547
1521813189993830919,0.0,0.0,0.00011360520389,0.999999993547
1521813190035798072,0.0,0.0,0.000113609043438,0.999999993546
1521813190036354064,0.0,0.0,0.00011360955512,0.999999993546
1521813190074088096,0.0,0.0,0.000113611654794,0.999999993546
1521813190074201107,0.0,0.0,0.000113617221976,0.999999993546
1521813190074259996,0.0,0.0,0.000113620070987,0.999999993545
1521813190115313053,0.0,0.0,0.000113622246481,0.999999993545
1521813190120511054,0.0,0.0,0.000113626340526,0.999999993545
1521813190157994985,0.0,0.0,0.000113629707726,0.999999993544
1521813190158165931,0.0,0.0,0.000113636180478,0.999999993543
1521813190198075056,0.0,0.0,0.000113643317987,0.999999993543
1521813190198179960,0.0,0.0,0.000113647692247,0.999999993542
1521813190239020109,0.0,0.0,0.000113651060372,0.999999993542
1521813190259798049,0.0,0.0,0.000113654899832,0.999999993541
1521813190297888994,0.0,0.0,0.000113659909471,0.999999993541
1521813190338068008,0.0,0.0,0.000113667087225,0.99999999354
1521813190338217020,0.0,0.0,0.000113675466912,0.999999993539
1521813190338294029,0.0,0.0,0.000113682688321,0.999999993538
1521813190378294944,0.0,0.0,0.000113690622885,0.999999993537
1521813190406579971,0.0,0.0,0.000113694480223,0.999999993537
1521813190445909976,0.0,0.0,0.000113704097842,0.999999993536
1521813190446010112,0.0,0.0,0.000113710605843,0.999999993535
1521813190446084022,0.0,0.0,0.000113714781474,0.999999993534
1521813190486845016,0.0,0.0,0.000113727966302,0.999999993533
1521813190487200021,0.0,0.0,0.000113735031596,0.999999993532
1521813190490288972,0.0,0.0,0.000113741789833,0.999999993531
1521813190520015001,0.0,0.0,0.000113747632732,0.999999993531
1521813190557852983,0.0,0.0,0.00011375744747,0.99999999353
1521813190600014925,0.0,0.0,0.000113763845672,0.999999993529
1521813190600630998,0.0,0.0,0.000113769297053,0.999999993528
1521813190638144016,0.0,0.0,0.000113772754977,0.999999993528
1521813190638272047,0.0,0.0,0.000113774904619,0.999999993528
1521813190677860021,0.0,0.0,0.000113780020684,0.999999993527
1521813190677958965,0.0,0.0,0.000113784644696,0.999999993527
1521813190719017028,0.0,0.0,0.000113788903507,0.999999993526
1521813190719268083,0.0,0.0,0.00011379206097,0.999999993526
1521813190757915973,0.0,0.0,0.000113796747482,0.999999993525
1521813190758011102,0.0,0.0,0.000113799614246,0.999999993525
1521813190802869081,0.0,0.0,0.000113803482569,0.999999993524
1521813190803019046,0.0,0.0,0.000113806871678,0.999999993524
1521813190841778993,0.0,0.0,0.000113809236749,0.999999993524
1521813190841861009,0.0,0.0,0.000113811893685,0.999999993523
1521813190883112907,0.0,0.0,0.000113814906958,0.999999993523
1521813190901653051,0.0,0.0,0.000113819652872,0.999999993523
1521813190938481092,0.0,0.0,0.000113824377053,0.999999993522
1521813190938672065,0.0,0.0,0.000113828811267,0.999999993522
1521813190938723087,0.0,0.0,0.000113831197159,0.999999993521
1521813190978135108,0.0,0.0,0.000113835164777,0.999999993521
1521813190978282928,0.0,0.0,0.000113837289678,0.999999993521
1521813190996182918,0.0,0.0,0.00011384058167,0.99999999352
1521813191040555953,0.0,0.0,0.000113840631263,0.99999999352
1521813191077959060,0.0,0.0,0.000113841082059,0.99999999352
1521813191078093051,0.0,0.0,0.00011384099527,0.99999999352
1521813191118999958,0.0,0.0,0.000113841734262,0.99999999352
1521813191119390964,0.0,0.0,0.000113843871238,0.99999999352
1521813191158143997,0.0,0.0,0.000113849333665,0.999999993519
1521813191158276081,0.0,0.0,0.000113856465214,0.999999993518
1521813191197930097,0.0,0.0,0.000113862885561,0.999999993518
1521813191198041915,0.0,0.0,0.000113869106711,0.999999993517
1521813191242878913,0.0,0.0,0.000113870018619,0.999999993517
1521813191243046045,0.0,0.0,0.000113873357127,0.999999993516
1521813191282027959,0.0,0.0,0.000113877964726,0.999999993516
1521813191282147884,0.0,0.0,0.000113883549699,0.999999993515
1521813191322484970,0.0,0.0,0.000113890250901,0.999999993515
1521813191322750091,0.0,0.0,0.000113898577514,0.999999993514
1521813191362044095,0.0,0.0,0.000113905094452,0.999999993513
1521813191362206935,0.0,0.0,0.000113910526379,0.999999993512
1521813191401979923,0.0,0.0,0.000113920361773,0.999999993511
1521813191402102947,0.0,0.0,0.000113930730177,0.99999999351
1521813191442254066,0.0,0.0,0.000113936685035,0.999999993509
1521813191442416906,0.0,0.0,0.000113942752621,0.999999993509
1521813191482069969,0.0,0.0,0.000113949570086,0.999999993508
1521813191482202053,0.0,0.0,0.000113951239706,0.999999993508
1521813191521949052,0.0,0.0,0.000113954717757,0.999999993507
1521813191540199041,0.0,0.0,0.00011396048316,0.999999993507
1521813191578253030,0.0,0.0,0.000113965790571,0.999999993506
1521813191618901014,0.0,0.0,0.00011397125138,0.999999993505
1521813191619247913,0.0,0.0,0.000113975072029,0.999999993505
1521813191619352102,0.0,0.0,0.000113983785291,0.999999993504
1521813191619425058,0.0,0.0,0.000113990569499,0.999999993503
1521813191658947944,0.0,0.0,0.000113998417864,0.999999993502
1521813191688088893,0.0,0.0,0.000114003797475,0.999999993502
1521813191725913047,0.0,0.0,0.00011400734897,0.999999993501
1521813191726036071,0.0,0.0,0.000114009009237,0.999999993501
1521813191766621112,0.0,0.0,0.000114016719368,0.9999999935
1521813191771022081,0.0,0.0,0.000114018686774,0.9999999935
1521813191810949087,0.0,0.0,0.000114023780674,0.999999993499
1521813191811259031,0.0,0.0,0.000114027661849,0.999999993499
1521813191850148916,0.0,0.0,0.000114033148864,0.999999993498
1521813191850271940,0.0,0.0,0.000114039850616,0.999999993497
1521813191890254020,0.0,0.0,0.000114044130641,0.999999993497
1521813191890377044,0.0,0.0,0.000114047152206,0.999999993497
1521813191929965019,0.0,0.0,0.000114048632583,0.999999993496
1521813191930083036,0.0,0.0,0.000114054924071,0.999999993496
1521813191974406003,0.0,0.0,0.000114059990902,0.999999993495
1521813191974586009,0.0,0.0,0.000114061522371,0.999999993495
1521813192014046907,0.0,0.0,0.000114062970481,0.999999993495
1521813192014194965,0.0,0.0,0.000114064667963,0.999999993495
1521813192076010942,0.0,0.0,0.000114071922289,0.999999993494
1521813192076718091,0.0,0.0,0.000114072793425,0.999999993494
1521813192114118099,0.0,0.0,0.000114073814526,0.999999993494
1521813192114291906,0.0,0.0,0.000114074913519,0.999999993493
1521813192153966903,0.0,0.0,0.000114075418428,0.999999993493
1521813192154092073,0.0,0.0,0.0001140809081,0.999999993493
1521813192193818092,0.0,0.0,0.000114083586048,0.999999993492
1521813192193912029,0.0,0.0,0.000114087553819,0.999999993492
1521813192235073089,0.0,0.0,0.000114090889668,0.999999993492
1521813192256001949,0.0,0.0,0.000114093145461,0.999999993491
1521813192293879985,0.0,0.0,0.000114105913764,0.99999999349
1521813192334470987,0.0,0.0,0.000114111233334,0.999999993489
1521813192334880113,0.0,0.0,0.000114117876943,0.999999993489
1521813192373964071,0.0,0.0,0.000114125043236,0.999999993488
1521813192374058008,0.0,0.0,0.000114130898793,0.999999993487
1521813192414212942,0.0,0.0,0.0001141377365,0.999999993486
1521813192463475942,0.0,0.0,0.000114144724372,0.999999993485
1521813192502883911,0.0,0.0,0.000114154254759,0.999999993484
1521813192503009080,0.0,0.0,0.000114158965248,0.999999993484
1521813192503076076,0.0,0.0,0.000114161412087,0.999999993484
1521813192503132104,0.0,0.0,0.000114169217626,0.999999993483
1521813192542043924,0.0,0.0,0.000114174626768,0.999999993482
1521813192542112112,0.0,0.0,0.00011418083405,0.999999993481
1521813192544074058,0.0,0.0,0.000114185319513,0.999999993481
1521813192566199064,0.0,0.0,0.000114190734658,0.99999999348
1521813192606050968,0.0,0.0,0.000114196540375,0.99999999348
1521813192646764993,0.0,0.0,0.00011420185919,0.999999993479
1521813192646898984,0.0,0.0,0.000114204795926,0.999999993479
1521813192686631917,0.0,0.0,0.000114209591564,0.999999993478
1521813192687006950,0.0,0.0,0.000114215384457,0.999999993477
1521813192727315902,0.0,0.0,0.000114219552916,0.999999993477
1521813192727783918,0.0,0.0,0.000114224759145,0.999999993476
1521813192768681049,0.0,0.0,0.000114229034329,0.999999993476
1521813192769093990,0.0,0.0,0.000114233810339,0.999999993475
1521813192806005001,0.0,0.0,0.000114236928612,0.999999993475
1521813192806116104,0.0,0.0,0.000114239247366,0.999999993475
1521813192845989942,0.0,0.0,0.000114242270295,0.999999993474
1521813192846097946,0.0,0.0,0.000114248894187,0.999999993474
1521813192886115074,0.0,0.0,0.000114252777011,0.999999993473
1521813192887358903,0.0,0.0,0.00011425564056,0.999999993473
1521813192930083990,0.0,0.0,0.000114260943378,0.999999993472
1521813192930229902,0.0,0.0,0.000114264902433,0.999999993472
1521813192970048904,0.0,0.0,0.000114268229255,0.999999993471
1521813192970220088,0.0,0.0,0.00011426944157,0.999999993471
1521813193010014057,0.0,0.0,0.0001142716424,0.999999993471
1521813193015791893,0.0,0.0,0.000114274340311,0.999999993471
1521813193054231882,0.0,0.0,0.000114278584211,0.99999999347
1521813193054362058,0.0,0.0,0.000114281074025,0.99999999347
1521813193094990968,0.0,0.0,0.000114283587747,0.99999999347
1521813193108344078,0.0,0.0,0.000114283818188,0.99999999347
1521813193145884990,0.0,0.0,0.000114284663903,0.99999999347
1521813193186446905,0.0,0.0,0.000114288081465,0.999999993469
1521813193186642885,0.0,0.0,0.000114294040765,0.999999993468
1521813193225898027,0.0,0.0,0.000114296112212,0.999999993468
1521813193226864099,0.0,0.0,0.000114295801471,0.999999993468
1521813193266021013,0.0,0.0,0.000114298682748,0.999999993468
1521813193266129016,0.0,0.0,0.000114303463544,0.999999993467
1521813193306082963,0.0,0.0,0.000114305991912,0.999999993467
1521813193306176900,0.0,0.0,0.000114313654988,0.999999993466
1521813193360546112,0.0,0.0,0.000114317839421,0.999999993466
1521813193361217975,0.0,0.0,0.000114325899041,0.999999993465
1521813193398549079,0.0,0.0,0.000114328111291,0.999999993465
1521813193439745903,0.0,0.0,0.000114340324106,0.999999993463
1521813193440238952,0.0,0.0,0.000114343262944,0.999999993463
1521813193478528976,0.0,0.0,0.00011434527933,0.999999993463
1521813193478748083,0.0,0.0,0.000114355929987,0.999999993461
1521813193517983913,0.0,0.0,0.000114363711139,0.99999999346
1521813193518106937,0.0,0.0,0.000114372570528,0.999999993459
1521813193518187046,0.0,0.0,0.000114379677349,0.999999993459
1521813193557888984,0.0,0.0,0.000114383452956,0.999999993458
1521813193557979106,0.0,0.0,0.00011438891764,0.999999993458
1521813193569536924,0.0,0.0,0.000114396552945,0.999999993457
1521813193599443912,0.0,0.0,0.000114406076754,0.999999993456
1521813193638037919,0.0,0.0,0.000114410626849,0.999999993455
1521813193638150930,0.0,0.0,0.000114414047507,0.999999993455
1521813193678015947,0.0,0.0,0.000114416639894,0.999999993454
1521813193678374052,0.0,0.0,0.000114431005555,0.999999993453
1521813193735189914,0.0,0.0,0.000114436006051,0.999999993452
1521813193776227951,0.0,0.0,0.000114443682076,0.999999993451
1521813193776566028,0.0,0.0,0.000114448718734,0.999999993451
1521813193817873954,0.0,0.0,0.000114456244509,0.99999999345
1521813193817940950,0.0,0.0,0.000114465683289,0.999999993449
1521813193858009099,0.0,0.0,0.000114467585275,0.999999993449
1521813193858104944,0.0,0.0,0.000114470398741,0.999999993448
1521813193899528980,0.0,0.0,0.000114474937181,0.999999993448
1521813193900069952,0.0,0.0,0.000114476963989,0.999999993448
1521813193937922000,0.0,0.0,0.000114478001201,0.999999993447
1521813193938034057,0.0,0.0,0.000114481508404,0.999999993447
1521813193979062080,0.0,0.0,0.000114485645015,0.999999993447
1521813193979392051,0.0,0.0,0.000114486971596,0.999999993446
1521813194019243001,0.0,0.0,0.000114491168194,0.999999993446
1521813194019449949,0.0,0.0,0.000114491907422,0.999999993446
1521813194057897090,0.0,0.0,0.000114492450274,0.999999993446
1521813194083544969,0.0,0.0,0.000114498451505,0.999999993445
1521813194123222112,0.0,0.0,0.000114500152367,0.999999993445
1521813194162338972,0.0,0.0,0.000114502421916,0.999999993445
1521813194162465095,0.0,0.0,0.000114507002125,0.999999993444
1521813194202971935,0.0,0.0,0.00011450934481,0.999999993444
1521813194203334093,0.0,0.0,0.000114512939353,0.999999993443
1521813194203466892,0.0,0.0,0.00011451392906,0.999999993443
1521813194262051105,0.0,0.0,0.000114517761689,0.999999993443
1521813194263113975,0.0,0.0,0.000114521080565,0.999999993442
1521813194303359031,0.0,0.0,0.000114525323202,0.999999993442
1521813194303527116,0.0,0.0,0.000114528490872,0.999999993442
1521813194303613901,0.0,0.0,0.000114533693946,0.999999993441
1521813194342035055,0.0,0.0,0.00011453958418,0.99999999344
1521813194342170953,0.0,0.0,0.000114545269757,0.99999999344
1521813194344073057,0.0,0.0,0.000114551622438,0.999999993439
1521813194432534933,0.0,0.0,0.000114554411459,0.999999993439
1521813194470463037,0.0,0.0,0.000114562226969,0.999999993438
1521813194470557928,0.0,0.0,0.000114563989518,0.999999993438
1521813194470619916,0.0,0.0,0.000114569106038,0.999999993437
1521813194470678091,0.0,0.0,0.000114573915144,0.999999993436
1521813194514688014,0.0,0.0,0.000114580920242,0.999999993436
1521813194525054931,0.0,0.0,0.000114586638166,0.999999993435
1521813194561990022,0.0,0.0,0.000114594869276,0.999999993434
1521813194562160015,0.0,0.0,0.000114597235382,0.999999993434
1521813194602679014,0.0,0.0,0.000114612114093,0.999999993432
1521813194602811098,0.0,0.0,0.000114619400632,0.999999993431
1521813194643093109,0.0,0.0,0.000114627247033,0.99999999343
1521813194643178939,0.0,0.0,0.000114633542391,0.99999999343
1521813194683654069,0.0,0.0,0.000114641907318,0.999999993429
1521813194684124946,0.0,0.0,0.000114647267492,0.999999993428
1521813194722112894,0.0,0.0,0.000114653537915,0.999999993427
1521813194722290039,0.0,0.0,0.000114660989413,0.999999993426
1521813194761997938,0.0,0.0,0.00011466702858,0.999999993426
1521813194775473117,0.0,0.0,0.00011468126816,0.999999993424
1521813194815213918,0.0,0.0,0.00011468822195,0.999999993423
1521813194815578937,0.0,0.0,0.000114693355231,0.999999993423
1521813194855189085,0.0,0.0,0.000114698512483,0.999999993422
1521813194863249063,0.0,0.0,0.000114703844067,0.999999993422
1521813194902206897,0.0,0.0,0.000114706985289,0.999999993421
1521813194902393102,0.0,0.0,0.000114709827889,0.999999993421
1521813194943399906,0.0,0.0,0.000114713409843,0.99999999342
1521813194943541049,0.0,0.0,0.000114715608784,0.99999999342
1521813194943697929,0.0,0.0,0.000114718096874,0.99999999342
1521813194986541032,0.0,0.0,0.000114719339758,0.99999999342
1521813194986666917,0.0,0.0,0.000114724415638,0.999999993419
1521813195009126901,0.0,0.0,0.000114729111803,0.999999993419
1521813195054160118,0.0,0.0,0.000114731061713,0.999999993418
1521813195090008020,0.0,0.0,0.00011473636564,0.999999993418
1521813195090167999,0.0,0.0,0.00011473955453,0.999999993417
1521813195131089925,0.0,0.0,0.000114742968977,0.999999993417
1521813195131504058,0.0,0.0,0.000114746311388,0.999999993417
1521813195171948909,0.0,0.0,0.000114748379521,0.999999993416
1521813195172669887,0.0,0.0,0.000114748793099,0.999999993416
1521813195210222959,0.0,0.0,0.000114751519637,0.999999993416
1521813195210475921,0.0,0.0,0.000114755198255,0.999999993416
1521813195250193119,0.0,0.0,0.000114758712426,0.999999993415
1521813195260446071,0.0,0.0,0.000114760783084,0.999999993415
1521813195298000097,0.0,0.0,0.000114763566941,0.999999993415
1521813195298141002,0.0,0.0,0.000114766467556,0.999999993414
1521813195298204898,0.0,0.0,0.000114769537628,0.999999993414
1521813195339190959,0.0,0.0,0.000114773810111,0.999999993413
1521813195339705944,0.0,0.0,0.000114779346842,0.999999993413
1521813195354664087,0.0,0.0,0.000114784250916,0.999999993412
1521813195392035007,0.0,0.0,0.000114791659477,0.999999993411
1521813195430143117,0.0,0.0,0.000114795937002,0.999999993411
1521813195430289030,0.0,0.0,0.000114801238895,0.99999999341
1521813195469974040,0.0,0.0,0.000114807899663,0.99999999341
1521813195470079898,0.0,0.0,0.000114810592392,0.999999993409
1521813195509978055,0.0,0.0,0.000114815019723,0.999999993409
1521813195550395965,0.0,0.0,0.000114822215668,0.999999993408
1521813195594753026,0.0,0.0,0.000114828955647,0.999999993407
1521813195594820976,0.0,0.0,0.000114835751178,0.999999993406
1521813195594857931,0.0,0.0,0.000114842865731,0.999999993406
1521813195635149002,0.0,0.0,0.000114850502475,0.999999993405
1521813195635507106,0.0,0.0,0.000114858439876,0.999999993404
1521813195635569095,0.0,0.0,0.000114863454103,0.999999993403
1521813195674051046,0.0,0.0,0.000114873539853,0.999999993402
1521813195674154043,0.0,0.0,0.000114874877758,0.999999993402
1521813195689703941,0.0,0.0,0.000114878633904,0.999999993401
1521813195730458974,0.0,0.0,0.000114887606422,0.9999999934
1521813195770917892,0.0,0.0,0.000114892549028,0.9999999934
1521813195771271944,0.0,0.0,0.000114894346047,0.9999999934
1521813195810101985,0.0,0.0,0.00011489596142,0.999999993399
1521813195810180902,0.0,0.0,0.000114905931985,0.999999993398
1521813195851140975,0.0,0.0,0.000114908578123,0.999999993398
1521813195856188058,0.0,0.0,0.00011491832647,0.999999993397
1521813195894217967,0.0,0.0,0.000114924120504,0.999999993396
1521813195894294977,0.0,0.0,0.000114929819825,0.999999993396
1521813195936655998,0.0,0.0,0.000114933501931,0.999999993395
1521813195938208103,0.0,0.0,0.000114940141938,0.999999993394
1521813195973889112,0.0,0.0,0.000114943196455,0.999999993394
1521813195974004030,0.0,0.0,0.000114951867432,0.999999993393
1521813196013921976,0.0,0.0,0.000114955204746,0.999999993393
1521813196057709932,0.0,0.0,0.000114957142729,0.999999993392
1521813196094074964,0.0,0.0,0.000114962683948,0.999999993392
1521813196094208955,0.0,0.0,0.000114964914132,0.999999993392
1521813196094271898,0.0,0.0,0.000114968909525,0.999999993391
1521813196134175062,0.0,0.0,0.000114968514001,0.999999993391
1521813196142688989,0.0,0.0,0.00011497034068,0.999999993391
1521813196181957960,0.0,0.0,0.000114973528474,0.999999993391
1521813196182075977,0.0,0.0,0.00011497498689,0.99999999339
1521813196222851991,0.0,0.0,0.000114976296153,0.99999999339
1521813196223258018,0.0,0.0,0.000114978093524,0.99999999339
1521813196261897087,0.0,0.0,0.000114981658548,0.99999999339
1521813196270446062,0.0,0.0,0.00011498560597,0.999999993389
1521813196309863090,0.0,0.0,0.000114988029487,0.999999993389
1521813196309968948,0.0,0.0,0.000114990052685,0.999999993389
1521813196310022115,0.0,0.0,0.000114993659718,0.999999993388
1521813196359606981,0.0,0.0,0.000114997634356,0.999999993388
1521813196359826087,0.0,0.0,0.000115002280336,0.999999993387
1521813196398088932,0.0,0.0,0.00011500828428,0.999999993387
1521813196439054965,0.0,0.0,0.000115014165165,0.999999993386
1521813196439177036,0.0,0.0,0.000115020416463,0.999999993385
1521813196478136062,0.0,0.0,0.000115025371968,0.999999993385
1521813196478235960,0.0,0.0,0.000115029698,0.999999993384
1521813196518992900,0.0,0.0,0.000115032968848,0.999999993384
1521813196519149065,0.0,0.0,0.000115036082676,0.999999993383
1521813196558037996,0.0,0.0,0.000115040959855,0.999999993383
1521813196558196067,0.0,0.0,0.000115048001955,0.999999993382
1521813196599051952,0.0,0.0,0.0001150561946,0.999999993381
1521813196599333047,0.0,0.0,0.000115063995965,0.99999999338
1521813196638864994,0.0,0.0,0.000115071562026,0.999999993379
1521813196669838905,0.0,0.0,0.000115077338836,0.999999993379
1521813196706062078,0.0,0.0,0.000115084568105,0.999999993378
1521813196706228017,0.0,0.0,0.000115093278921,0.999999993377
1521813196745961904,0.0,0.0,0.000115100069384,0.999999993376
1521813196746068954,0.0,0.0,0.000115103457961,0.999999993376
1521813196746108055,0.0,0.0,0.000115110085123,0.999999993375
1521813196785815954,0.0,0.0,0.000115116571087,0.999999993374
1521813196795505046,0.0,0.0,0.000115126559952,0.999999993373
1521813196835264921,0.0,0.0,0.00011513443449,0.999999993372
1521813196835545063,0.0,0.0,0.000115142068298,0.999999993371
1521813196874241113,0.0,0.0,0.000115149244302,0.99999999337
1521813196874389886,0.0,0.0,0.000115156024048,0.99999999337
1521813196915771007,0.0,0.0,0.000115163012398,0.999999993369
1521813196916380882,0.0,0.0,0.000115166050196,0.999999993368
1521813196956969976,0.0,0.0,0.000115170089318,0.999999993368
1521813196962239980,0.0,0.0,0.00011517504225,0.999999993367
1521813196998194932,0.0,0.0,0.000115179963835,0.999999993367
1521813197048655033,0.0,0.0,0.000115184894973,0.999999993366
1521813197086101055,0.0,0.0,0.000115185576643,0.999999993366
1521813197086261034,0.0,0.0,0.000115187473066,0.999999993366
1521813197126029014,0.0,0.0,0.000115188303637,0.999999993366
1521813197126106977,0.0,0.0,0.000115189029293,0.999999993366
1521813197126146078,0.0,0.0,0.000115190119193,0.999999993366
1521813197126180887,0.0,0.0,0.000115195024173,0.999999993365
1521813197166084051,0.0,0.0,0.000115198358753,0.999999993365
1521813197166239976,0.0,0.0,0.000115200066739,0.999999993364
1521813197182487010,0.0,0.0,0.000115200660076,0.999999993364
1521813197203480005,0.0,0.0,0.00011520503016,0.999999993364
1521813197241945028,0.0,0.0,0.000115208011866,0.999999993364
1521813197242079019,0.0,0.0,0.000115210049982,0.999999993363
1521813197282756090,0.0,0.0,0.000115214157335,0.999999993363
1521813197289133071,0.0,0.0,0.000115218262609,0.999999993362
1521813197325912952,0.0,0.0,0.000115222444705,0.999999993362
1521813197370109081,0.0,0.0,0.000115227968797,0.999999993361
1521813197410043954,0.0,0.0,0.000115232223692,0.999999993361
1521813197410150051,0.0,0.0,0.000115239023246,0.99999999336
1521813197410209894,0.0,0.0,0.000115242372705,0.99999999336
1521813197460167884,0.0,0.0,0.000115249224327,0.999999993359
1521813197480240106,0.0,0.0,0.000115253776714,0.999999993358
1521813197518130064,0.0,0.0,0.000115256262263,0.999999993358
1521813197518296003,0.0,0.0,0.000115259285677,0.999999993358
1521813197558849096,0.0,0.0,0.000115265292145,0.999999993357
1521813197559005975,0.0,0.0,0.000115271324962,0.999999993356
1521813197559087991,0.0,0.0,0.000115276133908,0.999999993356
1521813197598113059,0.0,0.0,0.000115279926137,0.999999993355
1521813197598203897,0.0,0.0,0.000115287234376,0.999999993354
1521813197599004983,0.0,0.0,0.000115290856346,0.999999993354
1521813197629614114,0.0,0.0,0.000115298027339,0.999999993353
1521813197666524887,0.0,0.0,0.000115306555669,0.999999993352
1521813197706715106,0.0,0.0,0.000115312473158,0.999999993352
1521813197707103967,0.0,0.0,0.000115318970963,0.999999993351
1521813197745892047,0.0,0.0,0.000115330527067,0.999999993349
1521813197746009111,0.0,0.0,0.000115338529855,0.999999993349
1521813197786844968,0.0,0.0,0.000115347785579,0.999999993347
1521813197806150913,0.0,0.0,0.000115352939149,0.999999993347
1521813197846183061,0.0,0.0,0.000115358250006,0.999999993346
1521813197846276044,0.0,0.0,0.000115363790074,0.999999993346
1521813197886629104,0.0,0.0,0.000115369639386,0.999999993345
1521813197886804103,0.0,0.0,0.000115376768358,0.999999993344
1521813197925827980,0.0,0.0,0.000115384649155,0.999999993343
1521813197925949096,0.0,0.0,0.000115388689943,0.999999993343
1521813197966593027,0.0,0.0,0.000115392302052,0.999999993342
1521813197966840982,0.0,0.0,0.000115396043828,0.999999993342
1521813198006768941,0.0,0.0,0.000115400541579,0.999999993341
1521813198007545948,0.0,0.0,0.000115405218183,0.999999993341
1521813198045931100,0.0,0.0,0.00011541014865,0.99999999334
1521813198046077966,0.0,0.0,0.000115414535573,0.99999999334
1521813198046120882,0.0,0.0,0.000115415442713,0.99999999334
1521813198115475893,0.0,0.0,0.000115423371091,0.999999993339
1521813198117192983,0.0,0.0,0.000115426904332,0.999999993338
1521813198176362991,0.0,0.0,0.000115434787739,0.999999993337
1521813198214181900,0.0,0.0,0.000115436159727,0.999999993337
1521813198214276075,0.0,0.0,0.000115437586988,0.999999993337
1521813198254880905,0.0,0.0,0.000115440469554,0.999999993337
1521813198255002975,0.0,0.0,0.000115443425889,0.999999993336
1521813198255076885,0.0,0.0,0.000115444939781,0.999999993336
1521813198297081947,0.0,0.0,0.000115444038259,0.999999993336
1521813198308631896,0.0,0.0,0.000115444988306,0.999999993336
1521813198346299886,0.0,0.0,0.000115450822488,0.999999993336
1521813198346425056,0.0,0.0,0.000115453786262,0.999999993335
1521813198387371063,0.0,0.0,0.000115458135905,0.999999993335
1521813198419820070,0.0,0.0,0.000115462884242,0.999999993334
1521813198458328008,0.0,0.0,0.000115467261991,0.999999993334
1521813198458436012,0.0,0.0,0.000115469387694,0.999999993333
1521813198458498001,0.0,0.0,0.000115470797013,0.999999993333
1521813198499706029,0.0,0.0,0.000115476279349,0.999999993333
1521813198500161886,0.0,0.0,0.000115481063064,0.999999993332
1521813198502167940,0.0,0.0,0.000115487754581,0.999999993331
1521813198565718889,0.0,0.0,0.000115492231641,0.999999993331
1521813198603678941,0.0,0.0,0.000115504863887,0.999999993329
1521813198604137897,0.0,0.0,0.000115513768283,0.999999993328
1521813198642002105,0.0,0.0,0.000115526180616,0.999999993327
1521813198642096042,0.0,0.0,0.000115535037465,0.999999993326
1521813198682804107,0.0,0.0,0.000115543691963,0.999999993325
1521813198683105945,0.0,0.0,0.000115549895734,0.999999993324
1521813198722963094,0.0,0.0,0.000115554388622,0.999999993324
1521813198723366022,0.0,0.0,0.000115560417066,0.999999993323
1521813198761934041,0.0,0.0,0.000115564843265,0.999999993322
1521813198794166088,0.0,0.0,0.000115569398869,0.999999993322
1521813198830909013,0.0,0.0,0.000115576058112,0.999999993321
1521813198831290960,0.0,0.0,0.000115581045082,0.999999993321
1521813198831492900,0.0,0.0,0.000115585768877,0.99999999332
1521813198872163057,0.0,0.0,0.000115594175911,0.999999993319
1521813198876684904,0.0,0.0,0.000115599381385,0.999999993318
1521813198919068098,0.0,0.0,0.000115605782897,0.999999993318
1521813198919663906,0.0,0.0,0.0001156132691,0.999999993317
1521813198919811010,0.0,0.0,0.000115620551354,0.999999993316
1521813198961771965,0.0,0.0,0.000115625418508,0.999999993315
1521813198962845087,0.0,0.0,0.000115630349114,0.999999993315
1521813199003460884,0.0,0.0,0.000115636892151,0.999999993314
1521813199003793001,0.0,0.0,0.000115643049882,0.999999993313
1521813199042032003,0.0,0.0,0.000115646895792,0.999999993313
1521813199070302009,0.0,0.0,0.000115649575503,0.999999993313
1521813199106187105,0.0,0.0,0.000115652172457,0.999999993312
1521813199106285095,0.0,0.0,0.00011565571405,0.999999993312
1521813199153033971,0.0,0.0,0.000115657894321,0.999999993312
1521813199155438899,0.0,0.0,0.000115658802651,0.999999993312
1521813199193797111,0.0,0.0,0.000115659185968,0.999999993311
1521813199193882942,0.0,0.0,0.000115661603009,0.999999993311
1521813199234116077,0.0,0.0,0.000115666621448,0.999999993311
1521813199244663000,0.0,0.0,0.000115669370224,0.99999999331
1521813199286436080,0.0,0.0,0.000115671945259,0.99999999331
1521813199286688089,0.0,0.0,0.000115673692798,0.99999999331
1521813199326092004,0.0,0.0,0.00011567354139,0.99999999331
1521813199326209068,0.0,0.0,0.000115677391495,0.999999993309
1521813199326272964,0.0,0.0,0.000115680711414,0.999999993309
1521813199368505954,0.0,0.0,0.000115681040808,0.999999993309
1521813199370076894,0.0,0.0,0.000115688736141,0.999999993308
1521813199410753011,0.0,0.0,0.000115692054514,0.999999993308
1521813199450165987,0.0,0.0,0.000115695575956,0.999999993307
1521813199450315952,0.0,0.0,0.000115699543001,0.999999993307
1521813199450380086,0.0,0.0,0.000115702859621,0.999999993306
1521813199491835117,0.0,0.0,0.000115705483491,0.999999993306
1521813199496725082,0.0,0.0,0.000115709338895,0.999999993306
1521813199533932924,0.0,0.0,0.000115713562772,0.999999993305
1521813199534027099,0.0,0.0,0.000115717682696,0.999999993305
1521813199573920011,0.0,0.0,0.000115721244057,0.999999993304
1521813199606862068,0.0,0.0,0.000115735189479,0.999999993303
1521813199646023988,0.0,0.0,0.000115742155641,0.999999993302
1521813199646138906,0.0,0.0,0.000115744098363,0.999999993302
1521813199646181106,0.0,0.0,0.00011575505427,0.9999999933
1521813199688942909,0.0,0.0,0.000115758444564,0.9999999933
1521813199697052001,0.0,0.0,0.000115771794984,0.999999993298
1521813199735028028,0.0,0.0,0.000115778994609,0.999999993298
1521813199735435962,0.0,0.0,0.000115786720437,0.999999993297
1521813199774288892,0.0,0.0,0.000115793812526,0.999999993296
1521813199779948949,0.0,0.0,0.000115798027518,0.999999993295
1521813199817969083,0.0,0.0,0.000115808673918,0.999999993294
1521813199818068981,0.0,0.0,0.000115815733305,0.999999993293
1521813199858342885,0.0,0.0,0.000115823388909,0.999999993292
1521813199858458042,0.0,0.0,0.00011583056841,0.999999993292
1521813199917402982,0.0,0.0,0.000115837950197,0.999999993291
1521813199918029069,0.0,0.0,0.00011584251695,0.99999999329
1521813199954442977,0.0,0.0,0.000115846548449,0.99999999329
1521813199954596996,0.0,0.0,0.00011585703831,0.999999993289
1521813199954685926,0.0,0.0,0.00011585898736,0.999999993288
1521813199994175910,0.0,0.0,0.000115869647418,0.999999993287
1521813199994307994,0.0,0.0,0.00011587385834,0.999999993287
1521813200058060884,0.0,0.0,0.000115881112142,0.999999993286
1521813200061100006,0.0,0.0,0.000115885818324,0.999999993285
1521813200098114013,0.0,0.0,0.000115890695413,0.999999993285
1521813200098249912,0.0,0.0,0.000115892776006,0.999999993284
1521813200138250112,0.0,0.0,0.000115896468578,0.999999993284
1521813200138504981,0.0,0.0,0.000115898285513,0.999999993284
1521813200178049087,0.0,0.0,0.000115901578748,0.999999993283
1521813200178181886,0.0,0.0,0.000115905674561,0.999999993283
1521813200222953081,0.0,0.0,0.00011590972297,0.999999993282
1521813200223215103,0.0,0.0,0.000115912841785,0.999999993282
1521813200261900901,0.0,0.0,0.000115916595252,0.999999993282
1521813200262012004,0.0,0.0,0.000115921701219,0.999999993281
1521813200303015947,0.0,0.0,0.000115925528681,0.999999993281
1521813200325665950,0.0,0.0,0.00011592649599,0.999999993281
1521813200361932039,0.0,0.0,0.000115928656319,0.99999999328
1521813200362034082,0.0,0.0,0.000115930077847,0.99999999328
1521813200362080097,0.0,0.0,0.000115934834566,0.99999999328
1521813200404253005,0.0,0.0,0.000115939316375,0.999999993279
1521813200406847953,0.0,0.0,0.000115942588796,0.999999993279
1521813200446891069,0.0,0.0,0.000115943334631,0.999999993279
1521813200447208881,0.0,0.0,0.000115943893401,0.999999993279
1521813200486326932,0.0,0.0,0.000115948122354,0.999999993278
1521813200486491918,0.0,0.0,0.000115954121197,0.999999993277
1521813200529814004,0.0,0.0,0.00011595662651,0.999999993277
1521813200529917001,0.0,0.0,0.000115961531456,0.999999993276
1521813200570914030,0.0,0.0,0.000115965287559,0.999999993276
1521813200571095943,0.0,0.0,0.000115967368308,0.999999993276
1521813200610008955,0.0,0.0,0.000115976237909,0.999999993275
1521813200610122919,0.0,0.0,0.000115983728449,0.999999993274
1521813200650104999,0.0,0.0,0.000115987348321,0.999999993273
1521813200656579971,0.0,0.0,0.000115993857339,0.999999993273
1521813200698265075,0.0,0.0,0.000115997917439,0.999999993272
1521813200698419094,0.0,0.0,0.000116002702973,0.999999993272
1521813200746568918,0.0,0.0,0.000116010261514,0.999999993271
1521813200747687101,0.0,0.0,0.00011601678168,0.99999999327
1521813200787339925,0.0,0.0,0.000116020782092,0.99999999327
1521813200787730932,0.0,0.0,0.000116027247639,0.999999993269
1521813200827455043,0.0,0.0,0.000116038930892,0.999999993267
1521813200859214067,0.0,0.0,0.000116047878186,0.999999993266
1521813200898864030,0.0,0.0,0.00011605249575,0.999999993266
1521813200899002075,0.0,0.0,0.000116057607531,0.999999993265
1521813200939452886,0.0,0.0,0.000116063020609,0.999999993265
1521813200940005064,0.0,0.0,0.000116068482447,0.999999993264
1521813200977888107,0.0,0.0,0.000116074119692,0.999999993263
1521813200977997064,0.0,0.0,0.000116078458684,0.999999993263
1521813200978064060,0.0,0.0,0.000116079854552,0.999999993263
1521813201018096923,0.0,0.0,0.000116087284359,0.999999993262
1521813201018238067,0.0,0.0,0.0001160907827,0.999999993261
1521813201027432918,0.0,0.0,0.00011609359999,0.999999993261
1521813201046264886,0.0,0.0,0.000116104190157,0.99999999326
1521813201086960077,0.0,0.0,0.000116110346321,0.999999993259
1521813201125936985,0.0,0.0,0.000116116133161,0.999999993259
1521813201126043081,0.0,0.0,0.000116120548169,0.999999993258
1521813201126111030,0.0,0.0,0.000116122988587,0.999999993258
1521813201166013956,0.0,0.0,0.000116130612999,0.999999993257
1521813201172805070,0.0,0.0,0.000116135210505,0.999999993256
1521813201210026025,0.0,0.0,0.000116140253361,0.999999993256
1521813201249989032,0.0,0.0,0.000116142978499,0.999999993255
1521813201250111103,0.0,0.0,0.000116146419797,0.999999993255
1521813201289899110,0.0,0.0,0.000116152814396,0.999999993254
1521813201289982080,0.0,0.0,0.00011615843801,0.999999993254
1521813201330817937,0.0,0.0,0.000116159612957,0.999999993253
1521813201345263004,0.0,0.0,0.000116160126462,0.999999993253
1521813201382155895,0.0,0.0,0.0001161653049,0.999999993253
1521813201382285118,0.0,0.0,0.000116167384846,0.999999993253
1521813201423201084,0.0,0.0,0.000116168996103,0.999999993252
1521813201423630952,0.0,0.0,0.000116167947628,0.999999993253
1521813201461934089,0.0,0.0,0.000116169140221,0.999999993252
1521813201462023019,0.0,0.0,0.000116177222321,0.999999993251
1521813201501837968,0.0,0.0,0.000116181148587,0.999999993251
1521813201501961946,0.0,0.0,0.000116182548346,0.999999993251
1521813201541845083,0.0,0.0,0.000116187311647,0.99999999325
1521813201541923046,0.0,0.0,0.000116190450446,0.99999999325
1521813201582638978,0.0,0.0,0.000116196321354,0.999999993249
1521813201582760095,0.0,0.0,0.00011620208507,0.999999993249
1521813201622353076,0.0,0.0,0.000116209204888,0.999999993248
1521813201665493965,0.0,0.0,0.000116211861094,0.999999993247
1521813201703037023,0.0,0.0,0.000116224052441,0.999999993246
1521813201703135967,0.0,0.0,0.00011623059536,0.999999993245
1521813201742736101,0.0,0.0,0.000116233356645,0.999999993245
1521813201742834091,0.0,0.0,0.000116236283529,0.999999993245
1521813201742909908,0.0,0.0,0.000116242126474,0.999999993244
1521813201742944955,0.0,0.0,0.000116248159893,0.999999993243
1521813201784630060,0.0,0.0,0.000116255385343,0.999999993242
1521813201786875963,0.0,0.0,0.000116260912256,0.999999993242
1521813201825980901,0.0,0.0,0.000116266255416,0.999999993241
1521813201826122999,0.0,0.0,0.000116273311734,0.99999999324
1521813201866028070,0.0,0.0,0.000116275837269,0.99999999324
1521813201892817020,0.0,0.0,0.000116284163445,0.999999993239
1521813201931471109,0.0,0.0,0.000116293124983,0.999999993238
1521813201932033061,0.0,0.0,0.000116296922212,0.999999993238
1521813201932240009,0.0,0.0,0.000116307412391,0.999999993236
1521813201970237016,0.0,0.0,0.000116312371903,0.999999993236
1521813201974481105,0.0,0.0,0.000116318040152,0.999999993235
1521813202014920949,0.0,0.0,0.000116324392661,0.999999993234
1521813202015074014,0.0,0.0,0.000116327302071,0.999999993234
1521813202059819936,0.0,0.0,0.000116330813974,0.999999993234
1521813202060578107,0.0,0.0,0.00011633557584,0.999999993233
1521813202098757982,0.0,0.0,0.000116338809924,0.999999993233
1521813202139153957,0.0,0.0,0.00011634253781,0.999999993232
1521813202139362096,0.0,0.0,0.000116347535127,0.999999993232
1521813202139439105,0.0,0.0,0.000116350902793,0.999999993231
1521813202177897930,0.0,0.0,0.000116355480279,0.999999993231
1521813202182652950,0.0,0.0,0.000116361398381,0.99999999323
1521813202221872091,0.0,0.0,0.000116367622249,0.999999993229
1521813202263804912,0.0,0.0,0.000116372784462,0.999999993229
1521813202263950109,0.0,0.0,0.000116375572702,0.999999993228
1521813202264040946,0.0,0.0,0.000116376194499,0.999999993228
1521813202306190967,0.0,0.0,0.000116376343219,0.999999993228
1521813202306340932,0.0,0.0,0.000116379356697,0.999999993228
1521813202330239057,0.0,0.0,0.000116381124777,0.999999993228
1521813202382709980,0.0,0.0,0.000116384644207,0.999999993227
1521813202426007032,0.0,0.0,0.000116387912464,0.999999993227
1521813202426099061,0.0,0.0,0.00011639292113,0.999999993226
1521813202426160097,0.0,0.0,0.000116393859679,0.999999993226
1521813202467735052,0.0,0.0,0.000116396579874,0.999999993226
1521813202468275070,0.0,0.0,0.000116401523553,0.999999993225
1521813202472533941,0.0,0.0,0.000116403843092,0.999999993225
1521813202529372930,0.0,0.0,0.000116409883627,0.999999993224
1521813202569279909,0.0,0.0,0.000116414513154,0.999999993224
1521813202569518089,0.0,0.0,0.000116417532934,0.999999993223
1521813202607769966,0.0,0.0,0.000116420525482,0.999999993223
1521813202607883930,0.0,0.0,0.00011642464166,0.999999993223
1521813202645874023,0.0,0.0,0.000116430486974,0.999999993222
1521813202645950078,0.0,0.0,0.000116432903309,0.999999993222
1521813202690550088,0.0,0.0,0.000116437373982,0.999999993221
1521813202705689907,0.0,0.0,0.00011644430724,0.99999999322
1521813202742258071,0.0,0.0,0.00011645056185,0.99999999322
1521813202742443084,0.0,0.0,0.000116457797889,0.999999993219
1521813202742526054,0.0,0.0,0.000116460086427,0.999999993219
1521813202781995058,0.0,0.0,0.000116466007305,0.999999993218
1521813202782138109,0.0,0.0,0.000116472869522,0.999999993217
1521813202801372051,0.0,0.0,0.000116481099734,0.999999993216
1521813202861881971,0.0,0.0,0.000116489701686,0.999999993215
1521813202902678966,0.0,0.0,0.000116498045877,0.999999993214
1521813202903161048,0.0,0.0,0.000116508472772,0.999999993213
1521813202903331995,0.0,0.0,0.000116514860473,0.999999993212
1521813202942786931,0.0,0.0,0.000116518031582,0.999999993212
1521813202942935943,0.0,0.0,0.000116525528097,0.999999993211
1521813202949414968,0.0,0.0,0.000116532880948,0.99999999321
1521813202967029094,0.0,0.0,0.000116541972084,0.999999993209
1521813203006053924,0.0,0.0,0.000116549892548,0.999999993208
1521813203046005964,0.0,0.0,0.000116555828572,0.999999993207
1521813203046149969,0.0,0.0,0.000116563822708,0.999999993206
1521813203088871002,0.0,0.0,0.000116572150253,0.999999993205
1521813203089118003,0.0,0.0,0.000116577556755,0.999999993205
1521813203125960111,0.0,0.0,0.000116582625399,0.999999993204
1521813203166543006,0.0,0.0,0.000116588945714,0.999999993204
1521813203166912078,0.0,0.0,0.000116594369181,0.999999993203
1521813203167020082,0.0,0.0,0.000116595937167,0.999999993203
1521813203206182956,0.0,0.0,0.000116598020172,0.999999993202
1521813203206289052,0.0,0.0,0.000116600138594,0.999999993202
1521813203215898990,0.0,0.0,0.000116602137502,0.999999993202
1521813203229176998,0.0,0.0,0.000116603493657,0.999999993202
1521813203280298948,0.0,0.0,0.000116609048965,0.999999993201
1521813203320074081,0.0,0.0,0.000116612269228,0.999999993201
1521813203320171117,0.0,0.0,0.00011661491927,0.9999999932
1521813203320230007,0.0,0.0,0.000116615428517,0.9999999932
1521813203362050056,0.0,0.0,0.00011661630566,0.9999999932
1521813203362164974,0.0,0.0,0.000116618642293,0.9999999932
1521813203376717090,0.0,0.0,0.000116621990023,0.9999999932
1521813203404551029,0.0,0.0,0.000116623938905,0.999999993199
1521813203441912889,0.0,0.0,0.000116627238066,0.999999993199
1521813203483612060,0.0,0.0,0.000116630983468,0.999999993199
1521813203484086990,0.0,0.0,0.000116635613464,0.999999993198
1521813203525865077,0.0,0.0,0.000116637043513,0.999999993198
1521813203525954008,0.0,0.0,0.000116645680844,0.999999993197
1521813203526016950,0.0,0.0,0.000116649226177,0.999999993196
1521813203566960096,0.0,0.0,0.000116654350461,0.999999993196
1521813203595957994,0.0,0.0,0.000116656676308,0.999999993196
1521813203634056091,0.0,0.0,0.000116663807166,0.999999993195
1521813203634200096,0.0,0.0,0.000116668419989,0.999999993194
1521813203674117088,0.0,0.0,0.000116673624062,0.999999993194
1521813203674252033,0.0,0.0,0.000116677519127,0.999999993193
1521813203674313068,0.0,0.0,0.000116681250381,0.999999993193
1521813203714709043,0.0,0.0,0.000116687841319,0.999999993192
1521813203714863061,0.0,0.0,0.00011669400927,0.999999993191
1521813203729928970,0.0,0.0,0.000116701896137,0.99999999319
1521813203767277002,0.0,0.0,0.000116711328652,0.999999993189
1521813203806050062,0.0,0.0,0.00011672221458,0.999999993188
1521813203806165933,0.0,0.0,0.000116726775306,0.999999993187
1521813203847474098,0.0,0.0,0.000116729387262,0.999999993187
1521813203847948074,0.0,0.0,0.000116739860931,0.999999993186
1521813203886940002,0.0,0.0,0.000116743799121,0.999999993185
1521813203902478933,0.0,0.0,0.000116755842078,0.999999993184
1521813203942168951,0.0,0.0,0.00011676316736,0.999999993183
1521813203942271947,0.0,0.0,0.000116770942291,0.999999993182
1521813203984365940,0.0,0.0,0.00011677675402,0.999999993182
1521813203984623908,0.0,0.0,0.000116782214921,0.999999993181
1521813204022393941,0.0,0.0,0.000116788818519,0.99999999318
1521813204022495031,0.0,0.0,0.00011679452408,0.99999999318
1521813204062230110,0.0,0.0,0.000116798775438,0.999999993179
1521813204062355995,0.0,0.0,-9.83417627982e-06,0.999999999952
1521813204101897001,0.0,0.0,-0.000678686473532,0.999999769692
1521813204150173902,0.0,0.0,-0.00227498565777,0.999997412217
1521813204194675922,0.0,0.0,-0.00537194179783,0.999985571017
1521813204194871902,0.0,0.0,-0.00930152353164,0.999956739894
1521813204194988012,0.0,0.0,-0.0142587681584,0.999898338598
1521813204195092916,0.0,0.0,-0.0175805281638,0.999845450572
1521813204234532117,0.0,0.0,-0.0186704101431,0.999825692701
1521813204234611988,0.0,0.0,-0.0192616947039,0.999814476349
1521813204244353055,0.0,0.0,-0.0198517526954,0.99980293454
1521813204263530015,0.0,0.0,-0.0211968730021,0.999775321047
1521813204324481010,0.0,0.0,-0.0239262659005,0.999713725924
1521813204363164901,0.0,0.0,-0.0278887704988,0.999611032592
1521813204363619089,0.0,0.0,-0.0324767815464,0.999472490197
1521813204363856077,0.0,0.0,-0.0370285472237,0.99931420819
1521813204402070999,0.0,0.0,-0.0423077236664,0.999104627413
1521813204402214050,0.0,0.0,-0.0472410793493,0.998883516944
1521813204410451889,0.0,0.0,-0.0497782481206,0.998760294572
1521813204425265073,0.0,0.0,-0.0515822432065,0.99866874998
1521813204491799116,0.0,0.0,-0.0536303324791,0.998560858154
1521813204530234098,0.0,0.0,-0.0563681221059,0.99841005344
1521813204530422925,0.0,0.0,-0.0606373516938,0.998159862737
1521813204530514001,0.0,0.0,-0.0650839817972,0.997879790012
1521813204570007085,0.0,0.0,-0.067450932288,0.997722592574
1521813204570171117,0.0,0.0,-0.0770422885997,0.997027825974
1521813204581161975,0.0,0.0,-0.0815608822495,0.996668361335
1521813204593401908,0.0,0.0,-0.0868985150199,0.996217169139
1521813204630379915,0.0,0.0,-0.0911646502171,0.995835833133
1521813204669852018,0.0,0.0,-0.0954571151455,0.995433543321
1521813204669997930,0.0,0.0,-0.0998532325523,0.995002176856
1521813204710908889,0.0,0.0,-0.10201192928,0.994783175513
1521813204711009025,0.0,0.0,-0.102864902265,0.994695336212
1521813204750812053,0.0,0.0,-0.103779414037,0.994600338439
1521813204770143032,0.0,0.0,-0.103726232731,0.994605886089
1521813204807224988,0.0,0.0,-0.103703962553,0.994608208367
1521813204807629108,0.0,0.0,-0.103691567299,0.994609500694
1521813204807764053,0.0,0.0,-0.1036852314,0.994610161214
1521813204865858078,0.0,0.0,-0.103679500442,0.994610758633
1521813204869802951,0.0,0.0,-0.103674087095,0.994611322912
1521813204905924081,0.0,0.0,-0.103671522522,0.994611590229
1521813204946409940,0.0,0.0,-0.103677894213,0.994610926067
1521813204946574926,0.0,0.0,-0.103877269013,0.994590123107
1521813204946671009,0.0,0.0,-0.104760662497,0.994497462839
1521813204946743011,0.0,0.0,-0.106623466723,0.994299470152
1521813204986078977,0.0,0.0,-0.110027313483,0.993928563976
1521813204986223936,0.0,0.0,-0.11424501231,0.993452604386
1521813205018774032,0.0,0.0,-0.121315360828,0.992614015228
1521813205026072978,0.0,0.0,-0.126240487384,0.991999667009
1521813205062124967,0.0,0.0,-0.13094391336,0.991389777814
1521813205102983951,0.0,0.0,-0.135033710667,0.990841004896
1521813205103085994,0.0,0.0,-0.140298059748,0.990109314385
1521813205142060995,0.0,0.0,-0.14512668173,0.989413081706
1521813205142179012,0.0,0.0,-0.14982635803,0.988712325421
1521813205183286905,0.0,0.0,-0.154636545444,0.987971426112
1521813205183362007,0.0,0.0,-0.158754068972,0.987318158237
1521813205222310066,0.0,0.0,-0.163735280647,0.98650431214
1521813205234888076,0.0,0.0,-0.168291981604,0.985737190598
1521813205274100065,0.0,0.0,-0.172279270715,0.985048147494
1521813205274233102,0.0,0.0,-0.176916507704,0.984225862951
1521813205274322032,0.0,0.0,-0.179779569023,0.98370692107
1521813205314510107,0.0,0.0,-0.184232605972,0.982882671989
1521813205316984891,0.0,0.0,-0.186917353825,0.98237564243
1521813205355112075,0.0,0.0,-0.190946826552,0.981600381739
1521813205400321006,0.0,0.0,-0.193905317654,0.981020248407
1521813205400626897,0.0,0.0,-0.197148008184,0.980373736322
1521813205400759935,0.0,0.0,-0.20206788881,0.979371517
1521813205437997102,0.0,0.0,-0.205306622184,0.978697701483
1521813205438124895,0.0,0.0,-0.207255020027,0.978286950068
1521813205457307100,0.0,0.0,-0.209855867205,0.977732333003
1521813205506771087,0.0,0.0,-0.21585797472,0.97642477168
1521813205546104907,0.0,0.0,-0.218128394551,0.975920080483
1521813205586134910,0.0,0.0,-0.222219412646,0.974996683401
1521813205586250066,0.0,0.0,-0.224621601038,0.974446066413
1521813205626152992,0.0,0.0,-0.228780030996,0.973478144294
1521813205626306056,0.0,0.0,-0.231160834192,0.97291555067
1521813205626374006,0.0,0.0,-0.234943877007,0.97200893754
1521813205667630910,0.0,0.0,-0.237897780648,0.971290196575
1521813205668108940,0.0,0.0,-0.243102782905,0.970000534507
1521813205671577930,0.0,0.0,-0.245743365731,0.969334925709
1521813205693567037,0.0,0.0,-0.249906748835,0.96826990911
1521813205729991912,0.0,0.0,-0.254251735467,0.96713807443
1521813205770901918,0.0,0.0,-0.258865729795,0.965913315954
1521813205810002088,0.0,0.0,-0.261113631248,0.965308070813
1521813205810094118,0.0,0.0,-0.264866477407,0.964285097441
1521813205810139894,0.0,0.0,-0.267268729973,0.963622034814
1521813205850948095,0.0,0.0,-0.272022714994,0.962290830533
1521813205851303100,0.0,0.0,-0.274789332446,0.96150445801
1521813205866055965,0.0,0.0,-0.277782587518,0.960643968425
1521813205883608102,0.0,0.0,-0.279208709747,0.960230439218
1521813205921924114,0.0,0.0,-0.280402047979,0.959882644644
1521813205962819099,0.0,0.0,-0.28111161422,0.959675080614
1521813205963015079,0.0,0.0,-0.281095981754,0.959679659596
1521813206004275083,0.0,0.0,-0.281079800724,0.959684398969
1521813206005300045,0.0,0.0,-0.281076037203,0.95968550125
1521813206041954994,0.0,0.0,-0.281074535952,0.959685940941
1521813206081931114,0.0,0.0,-0.281073975451,0.959686105101
1521813206082026004,0.0,0.0,-0.281073784369,0.959686161065
1521813206123210906,0.0,0.0,-0.281073825667,0.95968614897
1521813206123656988,0.0,0.0,-0.281073857873,0.959686139538
1521813206162570953,0.0,0.0,-0.281073999477,0.959686098064
1521813206162794113,0.0,0.0,-0.281074104156,0.959686067406
1521813206202029943,0.0,0.0,-0.281072439142,0.959686555056
1521813206202121019,0.0,0.0,-0.2810658951,0.959688471647
1521813206245929002,0.0,0.0,-0.281061637302,0.959689718626
1521813206246037960,0.0,0.0,-0.281059715331,0.959690281507
1521813206285876035,0.0,0.0,-0.281058612791,0.959690604401
1521813206289916992,0.0,0.0,-0.281057528877,0.95969092184
1521813206325817108,0.0,0.0,-0.281056904543,0.959691104684
1521813206366461992,0.0,0.0,-0.281056322811,0.959691275051
1521813206405981063,0.0,0.0,-0.281055766743,0.959691437901
1521813206406094074,0.0,0.0,-0.281055224162,0.959691596802
1521813206406152009,0.0,0.0,-0.281054698651,0.959691750703
1521813206450066089,0.0,0.0,-0.281053908114,0.959691982218
1521813206450181961,0.0,0.0,-0.281053411886,0.959692127543
1521813206450346946,0.0,0.0,-0.281053191609,0.959692192053
1521813206474143981,0.0,0.0,-0.281052448227,0.959692409757
1521813206517492055,0.0,0.0,-0.281081845849,0.959683799975
1521813206555502891,0.0,0.0,-0.281366621602,0.959600346107
1521813206555955886,0.0,0.0,-0.282282096628,0.959331443206
1521813206594314098,0.0,0.0,-0.282873136172,0.959157332679
1521813206603084087,0.0,0.0,-0.286687646557,0.958024108941
1521813206642066001,0.0,0.0,-0.290582079957,0.956850069137
1521813206642165899,0.0,0.0,-0.294373066764,0.95569058673
1521813206642225980,0.0,0.0,-0.294836867865,0.955547602868
1521813206682293891,0.0,0.0,-0.297062907249,0.954857910444
1521813206688498973,0.0,0.0,-0.298825644015,0.954307725254
1521813206726351022,0.0,0.0,-0.304057057817,0.952653822535
1521813206766028881,0.0,0.0,-0.3082498448,0.951305436325
1521813206766135931,0.0,0.0,-0.310539831448,0.950560367933
1521813206806173086,0.0,0.0,-0.317250673695,0.94834171586
1521813206806252956,0.0,0.0,-0.321510584512,0.946905984798
1521813206806313037,0.0,0.0,-0.326795530294,0.945095064731
1521813206846813917,0.0,0.0,-0.33119901775,0.943560920472
1521813206850332975,0.0,0.0,-0.335121831256,0.942174802367
1521813206891057014,0.0,0.0,-0.339574451736,0.940579178872
1521813206930139064,0.0,0.0,-0.341890800312,0.939739687712
1521813206930318117,0.0,0.0,-0.343197664636,0.93926320219
1521813206971359014,0.0,0.0,-0.34369436191,0.93908156493
1521813206971714019,0.0,0.0,-0.343716954406,0.939073295997
1521813207010107040,0.0,0.0,-0.343698304215,0.939080122077
1521813207012470006,0.0,0.0,-0.343690521944,0.93908297031
1521813207050052881,0.0,0.0,-0.343687432733,0.93908410091
1521813207050193071,0.0,0.0,-0.343686234531,0.939084539428
1521813207050256967,0.0,0.0,-0.343685808478,0.939084695355
1521813207090629100,0.0,0.0,-0.343681238163,0.939086367985
1521813207103180885,0.0,0.0,-0.343673966822,0.939089029075
1521813207141917943,0.0,0.0,-0.343672207852,0.939089672795
1521813207182837963,0.0,0.0,-0.343671237617,0.939090027865
1521813207183083057,0.0,0.0,-0.343670563066,0.939090274725
1521813207222244977,0.0,0.0,-0.343670007934,0.939090477881
1521813207222388982,0.0,0.0,-0.343669502753,0.939090662757
1521813207222481012,0.0,0.0,-0.343669020698,0.93909083917
1521813207261953115,0.0,0.0,-0.343668554206,0.939091009887
1521813207279336929,0.0,0.0,-0.343668102693,0.939091175122
1521813207318979024,0.0,0.0,-0.343667661535,0.939091336567
1521813207319076061,0.0,0.0,-0.343667231842,0.939091493816
1521813207358004093,0.0,0.0,-0.343666810622,0.939091647965
1521813207358114004,0.0,0.0,-0.34366621465,0.939091866064
1521813207398175001,0.0,0.0,-0.343665993576,0.939091946967
1521813207398442983,0.0,0.0,-0.343665419435,0.939092157077
1521813207439146041,0.0,0.0,-0.34366503248,0.939092298686
1521813207439558982,0.0,0.0,-0.343664656138,0.93909243641
1521813207478111982,0.0,0.0,-0.343664287697,0.939092571242
1521813207489160060,0.0,0.0,-0.343663730193,0.939092775262
1521813207525805950,0.0,0.0,-0.343663382165,0.939092902624
1521813207525913000,0.0,0.0,-0.343662887755,0.939093083554
1521813207566804885,0.0,0.0,-0.343662554638,0.939093205459
1521813207567213058,0.0,0.0,-0.343691785655,0.939082507809
1521813207607429981,0.0,0.0,-0.343766271796,0.939055243516
1521813207643407106,0.0,0.0,-0.344386861793,0.938827827359
1521813207686762094,0.0,0.0,-0.347560294692,0.937657635576
1521813207687171936,0.0,0.0,-0.351282142363,0.936269649437
1521813207687269926,0.0,0.0,-0.35329668447,0.935511332236
1521813207725867986,0.0,0.0,-0.359664363997,0.933081746296
1521813207725951910,0.0,0.0,-0.364726227872,0.931114804255
1521813207747812986,0.0,0.0,-0.36801480015,0.929819932498
1521813207781620025,0.0,0.0,-0.369565972678,0.929204494091
1521813207819477081,0.0,0.0,-0.3700948149,0.928993987055
1521813207819587945,0.0,0.0,-0.3701273117,0.928981040244
1521813207857990980,0.0,0.0,-0.370116438587,0.928985372268
1521813207866414070,0.0,0.0,-0.370100874448,0.928991573015
1521813207908514022,0.0,0.0,-0.37009222806,0.928995017602
1521813207908735990,0.0,0.0,-0.370087781643,0.92899678895
1521813207946178913,0.0,0.0,-0.370085808232,0.928997575102
1521813207946279048,0.0,0.0,-0.37008470281,0.92899801547
1521813207946335077,0.0,0.0,-0.37008392577,0.928998325018
1521813207986749887,0.0,0.0,-0.370083276571,0.928998583639
1521813207987135887,0.0,0.0,-0.370094039211,0.928994296075
1521813208035363912,0.0,0.0,-0.370240944843,0.928935758146
1521813208036036014,0.0,0.0,-0.371494381631,0.928435202056
1521813208075390100,0.0,0.0,-0.373215659492,0.927744615457
1521813208113889932,0.0,0.0,-0.376385142985,0.926463288069
1521813208113984107,0.0,0.0,-0.382676479991,0.923882412248
1521813208114038944,0.0,0.0,-0.387080420741,0.922045957574
1521813208154367923,0.0,0.0,-0.391826562362,0.920039099728
1521813208210417032,0.0,0.0,-0.395626105582,0.918411664006
1521813208247155904,0.0,0.0,-0.399928327463,0.916546416115
1521813208247251033,0.0,0.0,-0.404235076943,0.914655127668
1521813208247313976,0.0,0.0,-0.408319641447,0.912839016699
1521813208286744117,0.0,0.0,-0.413343475855,0.910575186884
1521813208286864042,0.0,0.0,-0.416619401451,0.909081005376
1521813208286921024,0.0,0.0,-0.417606532742,0.908627967769
1521813208325973033,0.0,0.0,-0.418549767347,0.908193862704
1521813208326071023,0.0,0.0,-0.418604726969,0.908168532024
1521813208349394083,0.0,0.0,-0.418611158915,0.908165567302
1521813208370959997,0.0,0.0,-0.418607011687,0.908167478919
1521813208413785934,0.0,0.0,-0.418944660799,0.908011768199
1521813208450068950,0.0,0.0,-0.419918066352,0.90756201857
1521813208450201034,0.0,0.0,-0.421246656162,0.906946114536
1521813208490154027,0.0,0.0,-0.424159753773,0.905587380256
1521813208500709056,0.0,0.0,-0.428119413496,0.903722174005
1521813208539303064,0.0,0.0,-0.434361542153,0.900738613971
1521813208539810895,0.0,0.0,-0.439167566605,0.898405169421
1521813208540023088,0.0,0.0,-0.44269724188,0.89667115044
1521813208578134059,0.0,0.0,-0.446807842169,0.894629952649
1521813208578357934,0.0,0.0,-0.451711539282,0.89216404617
1521813208618176937,0.0,0.0,-0.45547574977,0.890248190884
1521813208661880016,0.0,0.0,-0.459772691442,0.888036638999
1521813208661978006,0.0,0.0,-0.465750535208,0.884916063225
1521813208706753015,0.0,0.0,-0.468730475515,0.883341237192
1521813208707129955,0.0,0.0,-0.47050901762,0.882395186035
1521813208746360063,0.0,0.0,-0.47177600867,0.881718434447
1521813208746599912,0.0,0.0,-0.472332656465,0.881420366021
1521813208786827087,0.0,0.0,-0.472402409187,0.881382983608
1521813208787122011,0.0,0.0,-0.472392979299,0.881388037761
1521813208826219081,0.0,0.0,-0.472389655951,0.881389818951
1521813208835033893,0.0,0.0,-0.472388877317,0.881390236267
1521813208875061988,0.0,0.0,-0.47238468832,0.881392481384
1521813208875181913,0.0,0.0,-0.472379084389,0.881395484804
1521813208875230073,0.0,0.0,-0.472376870215,0.881396671474
1521813208913877010,0.0,0.0,-0.472376368066,0.881396940597
1521813208917179107,0.0,0.0,-0.472375363617,0.881397478921
1521813208955399036,0.0,0.0,-0.472375016883,0.881397664749
1521813208994110107,0.0,0.0,-0.472374741649,0.881397812257
1521813208994234085,0.0,0.0,-0.472374679762,0.881397845425
1521813208994291067,0.0,0.0,-0.472374909128,0.881397722499
1521813209035186052,0.0,0.0,-0.472376391858,0.881396927845
1521813209044389009,0.0,0.0,-0.472376690207,0.881396767948
1521813209083065032,0.0,0.0,-0.472376790984,0.881396713938
1521813209121928930,0.0,0.0,-0.472376819246,0.881396698791
1521813209122015953,0.0,0.0,-0.472376822242,0.881396697185
1521813209122065067,0.0,0.0,-0.472376814463,0.881396701354
1521813209163364887,0.0,0.0,-0.472376804193,0.881396706858
1521813209163570880,0.0,0.0,-0.472376791558,0.88139671363
1521813209182358026,0.0,0.0,-0.472376778692,0.881396720525
1521813209202665090,0.0,0.0,-0.472376763563,0.881396728633
1521813209239465951,0.0,0.0,-0.472376750379,0.881396735699
1521813209278723955,0.0,0.0,-0.472376737045,0.881396742845
1521813209278902053,0.0,0.0,-0.472376723495,0.881396750107
1521813209319099903,0.0,0.0,-0.472376705368,0.881396759822
1521813209331262111,0.0,0.0,-0.472376690062,0.881396768026
1521813209374078989,0.0,0.0,-0.472376676898,0.881396775081
1521813209374176979,0.0,0.0,-0.472376663445,0.881396782291
1521813209374237060,0.0,0.0,-0.472562780035,0.881297009484
1521813209413835048,0.0,0.0,-0.473367534174,0.880865016668
1521813209420989990,0.0,0.0,-0.474318532727,0.88035329812
1521813209458830118,0.0,0.0,-0.47798211632,0.87836956714
1521813209459007024,0.0,0.0,-0.482418540425,0.875940838101
1521813209499151945,0.0,0.0,-0.486394963286,0.873739056979
1521813209524441957,0.0,0.0,-0.490360029544,0.871519960429
1521813209568973064,0.0,0.0,-0.498398700704,0.866947942576
1521813209606935024,0.0,0.0,-0.50442250973,0.863456965736
1521813209607021093,0.0,0.0,-0.507888233723,0.861422975109
1521813209648076057,0.0,0.0,-0.510229793899,0.860038113933
1521813209648233890,0.0,0.0,-0.511534642087,0.859262654806
