%time;field.header.seq;field.header.stamp;field.header.frame_id;field.child_frame_id;field.pose.pose.position.x;field.pose.pose.position.y;field.pose.pose.position.z;field.pose.pose.orientation.x;field.pose.pose.orientation.y;field.pose.pose.orientation.z;field.pose.pose.orientation.w;field.pose.covariance0;field.pose.covariance1;field.pose.covariance2;field.pose.covariance3;field.pose.covariance4;field.pose.covariance5;field.pose.covariance6;field.pose.covariance7;field.pose.covariance8;field.pose.covariance9;field.pose.covariance10;field.pose.covariance11;field.pose.covariance12;field.pose.covariance13;field.pose.covariance14;field.pose.covariance15;field.pose.covariance16;field.pose.covariance17;field.pose.covariance18;field.pose.covariance19;field.pose.covariance20;field.pose.covariance21;field.pose.covariance22;field.pose.covariance23;field.pose.covariance24;field.pose.covariance25;field.pose.covariance26;field.pose.covariance27;field.pose.covariance28;field.pose.covariance29;field.pose.covariance30;field.pose.covariance31;field.pose.covariance32;field.pose.covariance33;field.pose.covariance34;field.pose.covariance35;field.twist.twist.linear.x;field.twist.twist.linear.y;field.twist.twist.linear.z;field.twist.twist.angular.x;field.twist.twist.angular.y;field.twist.twist.angular.z;field.twist.covariance0;field.twist.covariance1;field.twist.covariance2;field.twist.covariance3;field.twist.covariance4;field.twist.covariance5;field.twist.covariance6;field.twist.covariance7;field.twist.covariance8;field.twist.covariance9;field.twist.covariance10;field.twist.covariance11;field.twist.covariance12;field.twist.covariance13;field.twist.covariance14;field.twist.covariance15;field.twist.covariance16;field.twist.covariance17;field.twist.covariance18;field.twist.covariance19;field.twist.covariance20;field.twist.covariance21;field.twist.covariance22;field.twist.covariance23;field.twist.covariance24;field.twist.covariance25;field.twist.covariance26;field.twist.covariance27;field.twist.covariance28;field.twist.covariance29;field.twist.covariance30;field.twist.covariance31;field.twist.covariance32;field.twist.covariance33;field.twist.covariance34;field.twist.covariance35
103082000000;1;103082000000;map;base_link;1.76711526767;-0.0223901439359;-6.98049843176e-06;-1.24936160556e-14;-1.63572221522e-14;0.00488206873409;0.999988082631;0.00016667841692;3.16064329775e-09;2.20908543074e-09;-2.30390672946e-17;-2.56993399954e-15;3.57318553267e-15;3.16064329775e-09;0.000162751392205;-1.5329629785e-06;2.53826808501e-15;-2.39592292941e-17;2.58537795227e-15;2.20908543074e-09;-1.5329629785e-06;1.96622455249e-07;-3.37904907185e-20;-2.06276285003e-18;-2.75838094242e-18;-2.30390672946e-17;2.53826808501e-15;-3.37904907185e-20;2.01134745494e-07;-3.61536087453e-23;1.52233479006e-20;-2.56993399954e-15;-2.39592292941e-17;-2.06276285003e-18;-4.08347970802e-23;2.01134745494e-07;1.91634684663e-23;3.57318553267e-15;2.58537795227e-15;-2.75838094242e-18;1.52233294435e-20;1.69552138092e-22;0.00016667841956;4.01820906339e-06;-3.09638369826e-06;-1.20656307229e-07;1.89174957571e-16;2.43094355162e-16;1.23094251947e-06;1.69532369491e-05;-5.35011003969e-13;-1.7940488217e-13;-3.79786203724e-22;-4.58172531003e-20;1.79375527112e-20;-5.35011003969e-13;1.6953163256e-05;-2.51028265689e-11;5.00399455327e-20;-8.18042954653e-22;1.41845007484e-20;-1.7940488217e-13;-2.51028265689e-11;3.20625314869e-07;1.88433411187e-21;-1.97189573181e-22;4.46367084083e-22;-3.79786203724e-22;5.00399455327e-20;1.88433411187e-21;3.20619411916e-07;-1.17292910134e-27;3.11711332005e-25;-4.58172531003e-20;-8.18042954653e-22;-1.97189573181e-22;-1.49810536447e-27;3.20619411916e-07;-2.40259103548e-27;1.79375527112e-20;1.41845007484e-20;4.46367084083e-22;3.11729927204e-25;-2.46937794519e-28;1.6900337129e-05
103082000000;2;103082000000;map;base_link;1.76711527327;-0.0223940333437;-5.07444122119e-06;-8.85716273458e-15;-1.16719049894e-14;0.00488206873409;0.999988082631;8.33392074092e-05;2.30954979213e-09;9.51393392585e-10;-9.87172236194e-18;-1.10066244809e-15;1.78659407817e-15;2.30954979213e-09;8.08696619983e-05;-6.60203225235e-07;1.09018125438e-15;-1.11362668889e-17;1.29177849555e-15;9.51393392585e-10;-6.60203225235e-07;1.38657868182e-07;4.01765656893e-18;-1.14142323863e-18;-1.18790454197e-18;-9.87172236194e-18;1.09018125438e-15;4.01765656893e-18;1.43434412831e-07;-1.91299118646e-23;6.51993131274e-21;-1.10066244809e-15;-1.11362668889e-17;-1.14142323863e-18;-2.16069043214e-23;1.43434412831e-07;8.20700489265e-24;1.78659407817e-15;1.29177849555e-15;-1.18790454197e-18;6.51992340788e-21;7.26158798777e-23;8.33392097799e-05;4.01837411016e-06;-3.07146033639e-06;-6.65450792111e-08;1.38447631065e-16;1.79079249822e-16;1.23094251947e-06;1.69530703057e-05;-5.89608690063e-13;-1.25045731392e-13;-3.28472833317e-22;-3.95225466817e-20;2.51122914189e-20;-5.89608690063e-13;1.69529858346e-05;-1.8099702152e-11;4.30423514071e-20;-7.00208526041e-22;1.98546818513e-20;-1.25045731392e-13;-1.8099702152e-11;1.95353584098e-07;9.85080731547e-22;-1.03769138072e-22;3.82585386665e-22;-3.28472833317e-22;4.30423514071e-20;9.85080731547e-22;1.95351439923e-07;-5.14427313835e-28;2.56254188043e-25;-3.95225466817e-20;-7.00208526041e-22;-1.03769138072e-22;-6.86188677354e-28;1.95351439923e-07;-2.49137767405e-27;2.51122914189e-20;1.98546818513e-20;3.82585386665e-22;2.56267030024e-25;-1.00794893836e-27;1.69001714201e-05
103082000000;3;103082000000;map;base_link;1.76711527517;-0.0223953519385;-3.99459920777e-06;-6.85328507013e-15;-9.07337021831e-15;0.00488206873409;0.999988082631;4.16696035026e-05;1.29495275766e-09;4.24648184817e-10;-4.38787300593e-18;-4.88992108958e-16;8.93297291265e-16;1.29495275766e-09;4.03375574608e-05;-2.94676935286e-07;4.85829496618e-16;-5.18829593445e-18;6.45714233563e-16;4.24648184817e-10;-2.94676935286e-07;1.07315006933e-07;4.52431226781e-18;-7.29381220524e-19;-5.30203752386e-19;-4.38787300593e-18;4.85829496618e-16;4.52431226781e-18;1.1145981346e-07;-1.17893309425e-23;2.89661713568e-21;-4.88992108958e-16;-5.18829593445e-18;-7.29381220524e-19;-1.33158569438e-23;1.1145981346e-07;3.64606337652e-24;8.93297291265e-16;6.45714233563e-16;-5.30203752386e-19;2.89661362379e-21;3.226100903e-23;4.166960489e-05;4.01847800799e-06;-3.05593120995e-06;-4.49860058066e-08;1.08659749247e-16;1.41120706279e-16;1.23094251946e-06;1.69529869839e-05;-6.39577959826e-13;-9.85910977929e-14;-2.76391469914e-22;-3.3309959839e-20;2.87001859936e-20;-6.39577959826e-13;1.6952893848e-05;-1.44434657211e-11;3.63345273519e-20;-5.96866405282e-22;2.27654967299e-20;-9.85910977929e-14;-1.44434657211e-11;1.40470477988e-07;6.06049670104e-22;-6.34173142459e-23;3.24301656266e-22;-2.76391469914e-22;3.63345273519e-20;6.06049670104e-22;1.40469390823e-07;-2.98748517132e-28;2.12174292197e-25;-3.3309959839e-20;-5.96866405282e-22;-6.34173142459e-23;-4.02627404095e-28;1.40469390823e-07;-2.19730007371e-27;2.87001859936e-20;2.27654967299e-20;3.24301656266e-22;2.1218435688e-25;-1.03652667342e-27;1.69000885656e-05
103240000000;4;103240000000;map;base_link;1.80138632276;-0.020625853455;-5.81109982318e-05;8.96283183012e-12;1.1431708856e-11;0.00456874157421;0.999989563246;2.0404640554e-05;6.2294199394e-10;1.87698759429e-10;-6.43326772882e-18;-5.7275866632e-16;9.13350776059e-12;6.2294199394e-10;1.96426520754e-05;-8.54970058295e-08;-1.69961969286e-14;-2.31876314974e-14;1.22745325953e-11;1.87698759429e-10;-8.54970058295e-08;7.57706007457e-08;-3.1058590168e-14;-4.09896624622e-14;1.68526778571e-14;-6.43326772882e-18;-1.69961969286e-14;-3.1058590168e-14;7.90642970794e-08;-3.20497014972e-21;-9.79491669991e-21;-5.7275866632e-16;-2.31876314974e-14;-4.09896624622e-14;-3.20537746108e-21;7.90642970794e-08;-3.19200714239e-21;9.13350776059e-12;1.22745325953e-11;1.68526778571e-14;-9.79492332187e-21;-3.18288518645e-21;2.03983953086e-05;0.0044652099661;0.000181984406098;-2.63088929124e-07;-1.82281684829e-14;-2.25189908391e-14;-7.83467304044e-05;3.33829862279e-05;-7.017828266e-12;1.82981618446e-13;1.28180095261e-20;9.41030162607e-21;2.01440797372e-16;-7.017828266e-12;3.33823090296e-05;1.56776692983e-11;1.12311283965e-18;1.4422626637e-18;2.76765235042e-16;1.82981618446e-13;1.56776692983e-11;4.84767086202e-07;-3.57033599884e-20;-4.61678587679e-20;-3.13674866097e-19;1.28180095261e-20;1.12311283965e-18;-3.57033599884e-20;4.84764593897e-07;-3.35130879265e-27;3.54176706108e-23;9.41030162607e-21;1.4422626637e-18;-4.61678587679e-20;-3.33989208309e-27;4.84764593897e-07;-2.69252089613e-23;2.01440797372e-16;2.76765235042e-16;-3.13674866097e-19;3.54176587884e-23;-2.69260227778e-23;3.26860662389e-05
103240000000;5;103240000000;map;base_link;1.8013863275;-0.0206280116361;-5.04862124244e-05;6.44395617383e-12;8.14520147348e-12;0.00456874157442;0.999989563246;1.02023202688e-05;3.15219422794e-10;8.76854296469e-11;-7.95167077608e-19;-2.63922635181e-16;4.56675314143e-12;3.15219422794e-10;9.81961860578e-06;-3.99408687192e-08;-8.92090842209e-15;-1.21260307249e-14;6.13760284693e-12;8.76854296469e-11;-3.99408687192e-08;6.56791794607e-08;-2.34617656431e-14;-3.09647821781e-14;7.87288784276e-15;-7.95167077608e-19;-8.92090842209e-15;-2.34617656431e-14;6.82688613839e-08;-3.94082449935e-21;-4.36542324398e-21;-2.63922635181e-16;-1.21260307249e-14;-3.09647821781e-14;-3.94113007669e-21;6.82688613839e-08;-1.22612868394e-21;4.56675314143e-12;6.13760284693e-12;7.87288784276e-15;-4.36542632892e-21;-1.22187907496e-21;1.01991976543e-05;0.00446522120944;0.000183329269333;-1.10313934916e-07;-1.32570319244e-14;-1.62156264041e-14;-7.83467311021e-05;3.32102575014e-05;-6.19993023136e-11;-3.83489356544e-14;-7.92409308764e-21;-5.75529615491e-20;8.22718434809e-14;-6.19993023136e-11;3.3203164484e-05;-6.2951471735e-12;-1.00848327516e-18;-1.36914044755e-18;1.12533655681e-13;-3.83489356544e-14;-6.2951471735e-12;2.46132771064e-07;-3.11808861061e-20;-4.03270138546e-20;5.44236415862e-18;-7.92409308764e-21;-1.00848327516e-18;-3.11808861061e-20;2.46132131619e-07;-5.23163108005e-27;3.12727113923e-23;-5.75529615491e-20;-1.36914044755e-18;-4.03270138546e-20;-5.22850928057e-27;2.46132131619e-07;-2.20851494819e-23;8.22718434809e-14;1.12533655681e-13;5.44236415862e-18;3.12727168783e-23;-2.20844812357e-23;3.25217086579e-05
103240000000;6;103240000000;map;base_link;1.80138632946;-0.0206289029795;-4.46333833852e-05;4.78417272908e-12;5.98661232121e-12;0.00456874157451;0.999989563246;5.10116013258e-06;1.58434489823e-10;4.12999307883e-11;4.30549071598e-19;-1.22973304577e-16;2.28337640814e-12;1.58434489823e-10;4.90943361303e-06;-1.88121995955e-08;-4.55886633979e-15;-6.18233018366e-15;3.06887547612e-12;4.12999307883e-11;-1.88121995955e-08;5.79979207799e-08;-1.83439928434e-14;-2.42108422661e-14;3.70813614263e-15;4.30549071598e-19;-4.55886633979e-15;-1.83439928434e-14;6.00673557604e-08;-3.99997006997e-21;-1.97939279528e-21;-1.22973304577e-16;-6.18233018366e-15;-2.42108422661e-14;-4.00020773911e-21;6.00673557604e-08;-4.80934984548e-22;2.28337640814e-12;3.06887547612e-12;3.70813614263e-15;-1.9793942451e-21;-4.78937810773e-22;5.09959882714e-06;0.00446523063071;0.000184465587554;-6.1945996769e-08;-9.86025445176e-15;-1.19286306598e-14;-7.83467317196e-05;3.31238931253e-05;-9.10658151412e-11;-8.27293067358e-14;-1.58243715531e-20;-7.50949376039e-20;1.23307984867e-13;-9.10658151412e-11;3.31133988488e-05;-1.06162662552e-11;-1.86211584658e-18;-2.48313241554e-18;1.68776989291e-13;-8.27293067358e-14;-1.06162662552e-11;1.64938957854e-07;-2.44364026774e-20;-3.16055461917e-20;6.54478938506e-18;-1.58243715531e-20;-1.86211584658e-18;-2.44364026774e-20;1.64938672075e-07;-5.33172126868e-27;2.79838627268e-23;-7.50949376039e-20;-2.48313241554e-18;-3.16055461917e-20;-5.33025160037e-27;1.64938672075e-07;-1.88218148664e-23;1.23307984867e-13;1.68776989291e-13;6.54478938506e-18;2.79838716248e-23;-1.88208594976e-23;3.24395298674e-05
103240000000;7;103240000000;map;base_link;1.80138633028;-0.0206292792023;-3.99978626148e-05;3.63908232186e-12;4.50245420328e-12;0.00456874157454;0.999989563246;2.55058006589e-06;7.94013913534e-11;1.9577325446e-11;5.07967101607e-19;-5.77878873745e-17;1.14168816777e-12;7.94013913534e-11;2.4546329272e-06;-8.91751197296e-09;-2.29577932308e-15;-3.10830568361e-15;1.53445427167e-12;1.9577325446e-11;-8.91751197296e-09;5.19439552275e-08;-1.47330242289e-14;-1.94452233466e-14;1.7577599794e-15;5.07967101607e-19;-2.29577932308e-15;-1.47330242289e-14;5.36251015808e-08;-3.79988348853e-21;-9.09308042592e-22;-5.77878873745e-17;-3.10830568361e-15;-1.94452233466e-14;-3.80007359486e-21;5.36251015808e-08;-1.91519734251e-22;1.14168816777e-12;1.53445427167e-12;1.7577599794e-15;-9.09308728627e-22;-1.90574696517e-22;2.54979941357e-06;0.00446523843321;0.000185410370583;-3.94434488122e-08;-7.49277099849e-15;-8.95249177927e-15;-7.83467322441e-05;3.30807109282e-05;-1.06707799785e-10;-9.07497014414e-14;-1.92437207492e-20;-7.88700957641e-20;1.43826710928e-13;-1.06707799785e-10;3.30683801625e-05;-1.12619699666e-11;-2.24547925244e-18;-2.97806395493e-18;1.96978852103e-13;-9.07497014414e-14;-1.12619699666e-11;1.24025624363e-07;-1.94476124485e-20;-2.51535743132e-20;6.53732247013e-18;-1.92437207492e-20;-2.24547925244e-18;-1.94476124485e-20;1.24025463498e-07;-4.9996230076e-27;2.53078644486e-23;-7.88700957641e-20;-2.97806395493e-18;-2.51535743132e-20;-4.99881651084e-27;1.24025463498e-07;-1.6428412655e-23;1.43826710928e-13;1.96978852103e-13;6.53732247013e-18;2.53078738323e-23;-1.64274268812e-23;3.23984404722e-05
103376000000;8;103376000000;map;base_link;1.80831833174;-0.0186974505609;-0.00121279801887;-1.4079503335e-08;3.07427817772e-07;0.00451256657298;0.99998981832;1.93243605312e-06;5.14984416264e-11;-1.20818318218e-12;-2.03077526395e-16;4.71494145503e-15;-3.93229260538e-11;5.14984416264e-11;1.86173476139e-06;1.49650584549e-08;3.85670846922e-13;-9.35704003499e-12;7.76128179335e-10;-1.20818318218e-12;1.49650584549e-08;3.14730079607e-08;6.81332669007e-13;-1.65037002977e-11;7.02085778271e-12;-2.03077526395e-16;3.85670846922e-13;6.81332669007e-13;4.38881378143e-08;1.99902648797e-16;1.5511642652e-16;4.71494145503e-15;-9.35704003499e-12;-1.65037002977e-11;1.99902648677e-16;4.38881329804e-08;-3.67072049308e-15;-3.93229260538e-11;7.76128179335e-10;7.02085778271e-12;1.5511642652e-16;-3.670720493e-15;1.90708001793e-06;0.0201785677192;0.00444726817817;-7.76762049818e-06;1.84802671759e-11;-5.7539875299e-10;-0.000321835726708;4.81025642864e-05;-1.14861316337e-09;2.27466284864e-12;-5.43459287235e-18;1.68609571041e-16;1.88549776975e-13;-1.14861316337e-09;4.79710198923e-05;2.58093406187e-10;-6.16736839055e-16;1.9137322828e-14;-3.36185433542e-12;2.27466284864e-12;2.58093406187e-10;3.25415581917e-07;1.83795115623e-18;-5.7219992303e-17;5.18801594782e-15;-5.43459287235e-18;-6.16736839055e-16;1.83795115623e-18;3.25415053767e-07;1.36176793879e-22;-3.76310462577e-20;1.68609571041e-16;1.9137322828e-14;-5.7219992303e-17;1.36176794408e-22;3.25415053767e-07;4.05224638743e-19;1.88549776975e-13;-3.36185433542e-12;5.18801594782e-15;-3.76310462827e-20;4.05224636245e-19;4.59157293896e-05
103376000000;9;103376000000;map;base_link;1.80831833105;-0.0186889112416;-0.00114116388949;-1.21704241318e-08;2.6574547927e-07;0.00451256857605;0.999989818311;9.66218026562e-07;2.57536095031e-11;-5.86227721869e-13;-9.70863810746e-17;2.25374028633e-15;-1.96614609681e-11;2.57536095031e-11;9.30813043359e-07;7.26133729161e-09;1.80648736851e-13;-4.38302241205e-12;3.88038597626e-10;-5.86227721869e-13;7.26133729161e-09;2.95592283714e-08;5.88929089754e-13;-1.42653898768e-11;3.40665778031e-12;-9.70863810746e-17;1.80648736851e-13;5.88929089754e-13;4.03465781727e-08;1.87021945101e-16;7.2361706814e-17;2.25374028633e-15;-4.38302241205e-12;-1.42653898768e-11;1.87021944999e-16;4.03465736581e-08;-1.71123440277e-15;-1.96614609681e-11;3.88038597626e-10;3.40665778031e-12;7.23617068138e-17;-1.71123440274e-15;9.53540008954e-07;0.0201789497042;0.00449382439606;-4.41805914094e-06;1.62023735332e-11;-5.04445571175e-10;-0.000321838324125;4.22142910747e-05;-1.861882059e-09;5.55352838626e-13;-1.56325297663e-18;4.75704412022e-17;-8.98173768073e-11;-1.861882059e-09;4.19937383518e-05;6.07694422559e-11;-1.6736886446e-16;5.12782023829e-15;2.26609205521e-09;5.55352838626e-13;6.07694422559e-11;1.9712223608e-07;1.24265890658e-18;-3.86842523044e-17;3.88622683671e-15;-1.56325297663e-18;-1.6736886446e-16;1.24265890658e-18;1.97122020617e-07;1.46118745255e-22;-3.16910166337e-20;4.75704412022e-17;5.12782023829e-15;-3.86842523044e-17;1.46118745649e-22;1.97122020617e-07;4.72192797749e-19;-8.98173768073e-11;2.26609205521e-09;3.88622683671e-15;-3.16910166338e-20;4.72192797849e-19;4.05138650222e-05
103376000000;10;103376000000;map;base_link;1.80831833074;-0.0186849989125;-0.00107754899026;-1.06245318078e-08;2.31992725764e-07;0.00451256949377;0.999989818306;4.83109013281e-07;1.28778395056e-11;-2.84938726608e-13;-4.65800690697e-17;1.08114656089e-15;-9.83072999863e-12;1.28778395056e-11;4.65393707081e-07;3.52942288629e-09;8.50838564252e-14;-2.06443732167e-12;1.94013286876e-10;-2.84938726608e-13;3.52942288629e-09;2.78854747712e-08;5.14615975961e-13;-1.24653105553e-11;1.65582964809e-12;-4.65800690697e-17;8.50838564252e-14;5.14615975961e-13;3.73339515288e-08;1.73735135313e-16;3.39535400631e-17;1.08114656089e-15;-2.06443732167e-12;-1.24653105553e-11;1.73735135226e-16;3.73339473407e-08;-8.02441613896e-16;-9.83072999863e-12;1.94013286876e-10;1.65582964809e-12;3.39535400631e-17;-8.02441613878e-16;4.76770004474e-07;0.0201792047558;0.00452587828781;-2.9858560426e-06;1.42294071871e-11;-4.43012085842e-10;-0.000321841260097;3.92701545002e-05;-2.21500917305e-09;1.05898037219e-13;-2.07457237167e-19;5.24348128415e-18;-1.3482017373e-10;-2.21500917305e-09;3.90054880155e-05;9.46783458337e-12;-9.84136837042e-18;2.21278089605e-16;3.40084112761e-09;1.05898037219e-13;9.46783458337e-12;1.41382820996e-07;9.1447422321e-19;-2.84667736383e-17;3.22996684557e-15;-2.07457237167e-19;-9.84136837042e-18;9.1447422321e-19;1.4138270097e-07;1.38767100658e-22;-2.96168074669e-20;5.24348128415e-18;2.21278089605e-16;-2.84667736383e-17;1.3876710077e-22;1.4138270097e-07;5.03847130487e-19;-1.3482017373e-10;3.40084112761e-09;3.22996684557e-15;-2.96168074605e-20;5.03847131254e-19;3.78129328385e-05
103376000000;11;103376000000;map;base_link;1.80831833059;-0.0186831977058;-0.00102066500687;-9.35477012163e-09;2.04268836835e-07;0.00451256991628;0.999989818305;2.4155450664e-07;6.43916456406e-12;-1.38707617514e-13;-2.24162967549e-17;5.20227969768e-16;-4.91536488447e-12;6.43916456406e-12;2.32693821495e-07;1.71812043014e-09;4.02632339765e-14;-9.76962286183e-13;9.70052209581e-11;-1.38707617514e-13;1.71812043014e-09;2.64010722998e-08;4.53787373422e-13;-1.09918758537e-11;8.06056698396e-13;-2.24162967549e-17;4.02632339765e-14;4.53787373422e-13;3.47399749199e-08;1.60911517058e-16;1.60113060741e-17;5.20227969768e-16;-9.76962286183e-13;-1.09918758537e-11;1.60911516982e-16;3.47399710452e-08;-3.78182210713e-16;-4.91536488447e-12;9.70052209581e-11;8.06056698396e-13;1.60113060741e-17;-3.78182210704e-16;2.38385002236e-07;0.0201793939069;0.00455024545148;-2.20016063671e-06;1.25698498588e-11;-3.91343348829e-10;-0.000321844176375;3.77980862202e-05;-2.39079522033e-09;-3.23880821764e-14;3.32724620828e-19;-1.15717532125e-17;-1.57321485015e-10;-2.39079522033e-09;3.7511443319e-05;-6.11307666807e-12;5.29116030583e-17;-1.72987947855e-15;3.96822811273e-09;-3.23880821764e-14;-6.11307666807e-12;1.10217179786e-07;7.13598881315e-19;-2.22132004478e-17;2.79378560715e-15;3.32724620828e-19;5.29116030583e-17;7.13598881315e-19;1.10217102229e-07;1.28827363479e-22;-2.84902215836e-20;-1.15717532125e-17;-1.72987947855e-15;-2.22132004478e-17;1.28827363469e-22;1.10217102229e-07;5.17465774092e-19;-1.57321485015e-10;3.96822811273e-09;2.79378560715e-15;-2.84902215755e-20;5.17465775039e-19;3.64624667466e-05
103571000000;12;103571000000;map;base_link;1.81793604521;-0.0177934456702;-0.000918006541489;1.1152074788e-08;7.05659590969e-08;0.00446788276619;0.999990018962;1.70583070669e-06;1.9347975855e-11;4.77488151628e-12;5.45410276026e-15;-3.55613535342e-14;-1.72457681155e-10;1.9347975855e-11;1.68511478164e-06;1.67552893135e-10;-1.90363065532e-12;8.91053115654e-12;8.95068242083e-10;4.77488151628e-12;1.67552893135e-10;3.09994039589e-08;2.12959157548e-11;-9.96077316723e-11;-1.12250303695e-12;5.45410276026e-15;-1.90363065532e-12;2.12959157548e-11;3.76126922293e-08;1.30900131337e-14;4.31272781298e-13;-3.55613535342e-14;8.91053115654e-12;-9.96077316723e-11;1.30900131336e-14;3.76126316973e-08;2.55258369118e-14;-1.72457681155e-10;8.95068242083e-10;-1.12250303695e-12;4.31272781298e-13;2.55258369117e-14;1.58883086854e-06;0.0471617373896;0.004226406525;2.97248089344e-07;-2.0533232651e-11;-1.33697776442e-10;-0.000441066494741;6.03892395512e-05;-3.10524154874e-09;-4.69219100526e-13;4.3700634841e-17;-2.24375837261e-16;-1.63888463212e-10;-3.10524154874e-09;6.00015551916e-05;-7.7774458623e-11;7.23905896362e-15;-3.6900078495e-14;4.2823024267e-09;-4.69219100526e-13;-7.7774458623e-11;2.46850168214e-07;2.05663903122e-17;-1.0104521021e-16;-1.50323480476e-14;4.3700634841e-17;7.23905896362e-15;2.05663903122e-17;2.46849679144e-07;9.40939207783e-21;-1.89892762657e-15;-2.24375837261e-16;-3.6900078495e-14;-1.0104521021e-16;9.40939207768e-21;2.46849679144e-07;-8.487359597e-17;-1.63888463212e-10;4.2823024267e-09;-1.50323480476e-14;-1.89892762657e-15;-8.48735959669e-17;5.50776158871e-05
103571000000;13;103571000000;map;base_link;1.81793604727;-0.0177933732453;-0.000864414096267;2.75214768896e-08;-1.28681559267e-08;0.00446788252361;0.999990018963;8.52915353341e-07;9.67379411472e-12;2.31774468541e-12;2.587080454e-15;-1.69501953126e-14;-8.62288392767e-11;9.67379411472e-12;8.42557383885e-07;8.13335274861e-11;-9.20084555365e-13;4.30673444676e-12;4.47534166789e-10;2.31774468541e-12;8.13335274861e-11;2.91896116846e-08;1.86715787804e-11;-8.73328780531e-11;-5.44870786182e-13;2.587080454e-15;-9.20084555365e-13;1.86715787804e-11;3.49811746096e-08;1.46705132997e-14;2.08103710162e-13;-1.69501953126e-14;4.30673444676e-12;-8.73328780531e-11;1.46705132996e-14;3.49811073788e-08;1.226744243e-14;-8.62288392767e-11;4.47534166789e-10;-5.44870786182e-13;2.08103710162e-13;1.226744243e-14;7.9441543427e-07;0.0471617106972;0.00422259138842;4.19469399749e-07;-5.02422784044e-11;2.82738852436e-11;-0.000441066116671;4.16684326912e-05;-1.96087694852e-09;-1.4492764474e-13;1.59103363438e-17;-1.09534747324e-16;-1.18339081183e-09;-1.96087694852e-09;4.14259286049e-05;-2.46075604835e-11;2.75244758857e-15;-1.47677242089e-14;7.45264685257e-09;-1.4492764474e-13;-2.46075604835e-11;1.6526080659e-07;1.78132793194e-17;-8.74189433941e-17;-5.70229433253e-15;1.59103363438e-17;2.75244758857e-15;1.78132793194e-17;1.65260588236e-07;1.17244118194e-20;-7.21170598766e-16;-1.09534747324e-16;-1.47677242089e-14;-8.74189433941e-17;1.17244118195e-20;1.65260588236e-07;-3.31620480031e-17;-1.18339081183e-09;7.45264685257e-09;-5.70229433253e-15;-7.21170598766e-16;-3.31620480019e-17;3.86909108204e-05
103571000000;14;103571000000;map;base_link;1.81793604822;-0.0177933400283;-0.000816733959454;4.00177617767e-08;-7.74616041508e-08;0.00446788241236;0.999990018964;4.26457676669e-07;4.83685128256e-12;1.12690914121e-12;1.23212282803e-15;-8.10855335472e-15;-4.31144193314e-11;4.83685128256e-12;4.21278690317e-07;3.95458627552e-11;-4.45673131444e-13;2.08610574551e-12;2.23767094196e-10;1.12690914121e-12;3.95458627552e-11;2.75795038276e-08;1.65050062835e-11;-7.71991336644e-11;-2.64922788699e-13;1.23212282803e-15;-4.45673131444e-13;1.65050062835e-11;3.26938182055e-08;1.54314592204e-14;1.00654514005e-13;-8.10855335472e-15;2.08610574551e-12;-7.71991336644e-11;1.54314592203e-14;3.26937478694e-08;5.9121545587e-15;-4.31144193314e-11;2.23767094196e-10;-2.64922788699e-13;1.00654514005e-13;5.91215455868e-15;3.97207717135e-07;0.0471616814586;0.00421905059027;4.62687901579e-07;-7.19673158163e-11;1.48908167092e-10;-0.000441064791305;3.23080292607e-05;-1.38875319263e-09;-4.30154943097e-14;4.95615249827e-18;-6.23252366497e-17;-1.69314194682e-09;-1.38875319263e-09;3.21381102256e-05;-7.9868653735e-12;1.01003982323e-15;-6.13231751514e-15;9.03782457749e-09;-4.30154943097e-14;-7.9868653735e-12;1.24207517156e-07;1.53634377721e-17;-7.53540060739e-17;-2.88514753364e-15;4.95615249827e-18;1.01003982323e-15;1.53634377721e-17;1.24207394573e-07;1.26044402235e-20;-2.98880919149e-16;-6.23252366497e-17;-6.13231751514e-15;-7.53540060739e-17;1.26044402236e-20;1.24207394573e-07;-1.46993374079e-17;-1.69314194682e-09;9.03782457749e-09;-2.88514753364e-15;-2.98880919149e-16;-1.46993374074e-17;3.04975582871e-05
103641000000;15;103641000000;map;base_link;1.82293104321;-0.0175030501638;-0.000790436032572;4.09991556919e-08;-8.65948581663e-08;0.0044526442214;0.999990086931;5.07481811333e-07;4.3477845997e-12;2.53796189851e-12;1.68152119621e-15;-8.33501102628e-15;-1.19739971498e-10;4.3477845997e-12;5.0263160213e-07;-9.15590515743e-10;-6.49203840574e-13;4.13039273249e-12;1.05168202265e-09;2.53796189851e-12;-9.15590515743e-10;3.76886654629e-08;1.93780696117e-11;-1.39051465452e-10;-1.76421228644e-12;1.68152119621e-15;-6.49203840574e-13;1.93780696117e-11;4.28548590452e-08;2.18915696555e-14;2.21225797378e-14;-8.33501102628e-15;4.13039273249e-12;-1.39051465452e-10;2.18915696554e-14;4.28547376981e-08;-7.4576815359e-15;-1.19739971498e-10;1.05168202265e-09;-1.76421228644e-12;2.21225797378e-14;-7.45768153578e-15;4.69503123854e-07;0.0577569956196;0.0039557877359;-1.48538483732e-07;-7.9583598001e-11;1.80758838562e-10;-0.000437830134017;3.58131153512e-05;-1.18246007301e-09;-3.28916811547e-13;1.4916064445e-17;-1.43604177987e-16;-1.97979227872e-09;-1.18246007301e-09;3.5668555124e-05;-5.03001219515e-11;2.54004356864e-15;-1.83171084197e-14;9.96505710123e-09;-3.28916811547e-13;-5.03001219515e-11;4.67104591601e-07;2.31047191369e-17;-1.66017543577e-16;-7.00833346847e-14;1.4916064445e-17;2.54004356864e-15;2.31047191369e-17;4.67102673781e-07;1.87755622117e-20;8.68385114723e-17;-1.43604177987e-16;-1.83171084197e-14;-1.66017543577e-16;1.87755622084e-20;4.67102673781e-07;1.17303750823e-16;-1.97979227872e-09;9.96505710123e-09;-7.00833346847e-14;8.68385114724e-17;1.17303750831e-16;3.33857704291e-05
103641000000;16;103641000000;map;base_link;1.82293104414;-0.0175033866557;-0.000735033264091;5.10100608452e-08;-1.71819056664e-07;0.00445264389722;0.999990086932;2.53740905665e-07;2.17445292361e-12;1.22450363707e-12;7.86480154061e-16;-3.85163953859e-15;-5.98699846687e-11;2.17445292361e-12;2.51315598811e-07;-4.41749335653e-10;-3.04179480157e-13;1.92907305841e-12;5.25840621626e-10;1.22450363707e-12;-4.41749335653e-10;3.50460714568e-08;1.66236511423e-11;-1.19286919103e-10;-8.51188745263e-13;7.86480154061e-16;-3.04179480157e-13;1.66236511423e-11;3.94715894665e-08;2.26807301382e-14;1.0639327894e-14;-3.85163953859e-15;1.92907305841e-12;-1.19286919103e-10;2.26807301381e-14;3.94714578506e-08;-3.6868900318e-15;-5.98699846687e-11;5.25840621626e-10;-8.51188745263e-13;1.0639327894e-14;-3.68689003175e-15;2.34751561926e-07;0.0577569649383;0.00395205053036;2.36942120688e-07;-9.91863527354e-11;3.57893121126e-10;-0.000437831606869;2.6911551291e-05;-8.76178656008e-10;-7.17373283832e-14;1.1033758339e-18;-4.28188115912e-17;-2.17550013054e-09;-8.76178656008e-10;2.6804973614e-05;-1.15134663409e-11;3.73953758502e-16;-4.1594461224e-15;1.42834891776e-08;-7.17373283832e-14;-1.15134663409e-11;2.41496334155e-07;1.98009190364e-17;-1.46445139061e-16;-1.79746974648e-14;1.1033758339e-18;3.73953758502e-16;1.98009190364e-17;2.41495818535e-07;2.2983263899e-20;-1.49755794124e-17;-4.28188115912e-17;-4.1594461224e-15;-1.46445139061e-16;2.29832638985e-20;2.41495818535e-07;9.30355817356e-18;-2.17550013054e-09;1.42834891776e-08;-1.79746974648e-14;-1.49755794124e-17;9.30355817557e-18;2.53467576565e-05
103641000000;17;103641000000;map;base_link;1.82293104456;-0.0175035383708;-0.000686888788505;5.79832268343e-08;-2.33642300944e-07;0.00445264375106;0.999990086933;1.26870452832e-07;1.08735726898e-12;5.92199664629e-13;3.70026789744e-16;-1.79202466575e-15;-2.99349920823e-11;1.08735726898e-12;1.25657752215e-07;-2.13640618268e-10;-1.4334130107e-13;9.06399448982e-13;2.62920219888e-10;5.92199664629e-13;-2.13640618268e-10;3.27501326872e-08;1.44178826745e-11;-1.03459081936e-10;-4.11655791701e-13;3.70026789744e-16;-1.4334130107e-13;1.44178826745e-11;3.65835190738e-08;2.25749536136e-14;5.13118529687e-15;-1.79202466575e-15;9.06399448982e-13;-1.03459081936e-10;2.25749536135e-14;3.65833844727e-08;-1.82003858209e-15;-2.99349920823e-11;2.62920219888e-10;-4.11655791701e-13;5.13118529687e-15;-1.82003858207e-15;1.17375780963e-07;0.0577569434573;0.00394963844028;3.43615057229e-07;-1.11637123562e-10;4.80588305595e-10;-0.000437831925795;2.24607692611e-05;-7.2298668169e-10;-1.52360556079e-14;-3.22719824726e-18;-9.03148595678e-18;-2.27335399763e-09;-7.2298668169e-10;2.23731906515e-05;-2.96055854157e-12;-3.0427638272e-16;4.20976965973e-16;1.64427130699e-08;-1.52360556079e-14;-2.96055854157e-12;1.62843882922e-07;1.63594463116e-17;-1.22178138687e-16;-6.24970716465e-15;-3.22719824726e-18;-3.0427638272e-16;1.63594463116e-17;1.62843647839e-07;2.29777963153e-20;-2.65508437724e-18;-9.03148595678e-18;4.20976965973e-16;-1.22178138687e-16;2.29777963152e-20;1.62843647839e-07;-7.53270964164e-18;-2.27335399763e-09;1.64427130699e-08;-6.24970716465e-15;-2.65508437723e-18;-7.53270964097e-18;2.13272512702e-05
103641000000;18;103641000000;map;base_link;1.82293104476;-0.0175036072335;-0.000644663703785;6.28040820472e-08;-2.78686202048e-07;0.00445264368472;0.999990086933;6.3435226416e-08;5.43709292554e-13;2.86998483907e-13;1.74968511311e-16;-8.38645528798e-16;-1.49674959821e-11;5.43709292554e-13;6.28288650475e-08;-1.03536903641e-10;-6.78789747775e-14;4.28074131301e-13;1.31460088633e-10;2.86998483907e-13;-1.03536903641e-10;3.073667238e-08;1.2624022794e-11;-9.05868775123e-11;-1.99501413263e-13;1.74968511311e-16;-6.78789747775e-14;1.2624022794e-11;3.4089284498e-08;2.1972140416e-14;2.48073121194e-15;-8.38645528798e-16;4.28074131301e-13;-9.05868775123e-11;2.19721404159e-14;3.40891511302e-08;-8.97643180231e-16;-1.49674959821e-11;1.31460088633e-10;-1.99501413263e-13;2.48073121194e-15;-8.97643180218e-16;5.86878904814e-08;0.0577569269816;0.00394790416379;3.80824284358e-07;-1.1989925482e-10;5.68507134256e-10;-0.000437831767018;2.02353782463e-05;-6.46379451094e-10;1.40919730318e-15;-4.82847604377e-18;4.88429634477e-18;-2.32228091108e-09;-6.46379451094e-10;2.01573010644e-05;-4.10995914782e-13;-5.5534519679e-16;2.19638187748e-15;1.75223273835e-08;1.40919730318e-15;-4.10995914782e-13;1.22837266027e-07;1.38094137946e-17;-1.03656088366e-16;-2.61491100801e-15;-4.82847604377e-18;-5.5534519679e-16;1.38094137946e-17;1.22837132198e-07;2.21357779286e-20;1.74700349446e-17;4.88429634477e-18;2.19638187748e-15;-1.03656088366e-16;2.21357779284e-20;1.22837132198e-07;-7.80868069967e-18;-2.32228091108e-09;1.75223273835e-08;-2.61491100801e-15;1.74700349446e-17;-7.80868069941e-18;1.9317498077e-05
103753000000;19;103753000000;map;base_link;1.83066725003;-0.016327910471;-0.00394902123777;-5.17834942363e-07;5.96907112721e-06;0.00442191965911;0.999990223248;3.62802429327e-07;5.1007109366e-12;-2.08146378801e-11;-6.83832630719e-15;8.10395388288e-14;-6.81481362128e-11;5.1007109366e-12;3.59170554937e-07;1.10203881303e-08;3.70840624121e-12;-4.19673257449e-11;6.41915522744e-10;-2.08146378801e-11;1.10203881303e-08;2.1502490636e-09;7.08332888453e-13;-8.06074770119e-12;1.97065920425e-11;-6.83832630719e-15;3.70840624121e-12;7.08332888453e-13;6.19361426121e-08;9.66190582135e-14;-1.43925495188e-13;8.10395388288e-14;-4.19673257449e-11;-8.06074770119e-12;9.66190582133e-14;6.19351339661e-08;-1.08678956233e-13;-6.81481362128e-11;6.41915522744e-10;1.97065920425e-11;-1.43925495188e-13;-1.08678956233e-13;3.34836116272e-07;0.0674224197895;0.00855569043987;-2.33510873275e-05;7.87191320819e-10;-1.04750795954e-08;-0.000521622099007;3.25248526123e-05;-1.33251715929e-09;3.79959837942e-12;-1.5017683776e-16;1.79937962897e-15;-2.41560138482e-09;-1.33251715929e-09;3.23478317657e-05;5.39449358585e-10;-2.11886875604e-14;2.56623613347e-13;1.84624911133e-08;3.79959837942e-12;5.39449358585e-10;4.78810060993e-07;1.23215085981e-16;-1.5153324812e-15;7.28460339221e-13;-1.5017683776e-16;-2.11886875604e-14;1.23215085981e-16;4.78810676557e-07;7.28872785113e-20;1.16586813282e-15;1.79937962897e-15;2.56623613347e-13;-1.5153324812e-15;7.28872785021e-20;4.78810676556e-07;6.03104057392e-16;-2.41560138482e-09;1.84624911133e-08;7.28460339221e-13;1.16586813282e-15;6.03104057398e-16;2.95027468227e-05
103753000000;20;103753000000;map;base_link;1.83066720909;-0.0163062316923;-0.0039340939783;-4.58532745125e-07;5.28702892858e-06;0.00442193904128;0.999990223166;1.81401214555e-07;2.60759237078e-12;-1.03867736169e-11;-3.22470553526e-15;3.82180995324e-14;-3.40739657554e-11;2.60759237078e-12;1.79554973179e-07;5.4993162676e-09;1.74882670994e-12;-1.97909187003e-11;3.20903571257e-10;-1.03867736169e-11;5.4993162676e-09;1.97399625068e-09;5.80731275933e-13;-6.61163371547e-12;9.83384435406e-12;-3.22470553526e-15;1.74882670994e-12;5.80731275933e-13;5.51094539026e-08;7.69457355826e-14;-6.80027083403e-14;3.82180995324e-14;-1.97909187003e-11;-6.61163371547e-12;7.69457355824e-14;5.51086535728e-08;-5.12798895422e-14;-3.40739657554e-11;3.20903571257e-10;9.83384435406e-12;-6.80027083403e-14;-5.12798895421e-14;1.67418058039e-07;0.0674234670485;0.00870485198212;-1.18749438485e-05;7.26751532781e-10;-9.78199173224e-09;-0.000521416947295;2.39413734052e-05;-7.38621685984e-10;9.70523073236e-13;-5.5098347044e-17;6.61098091346e-16;-1.63898733869e-09;-7.38621685984e-10;2.38441752217e-05;1.37519613601e-10;-7.75059593454e-15;9.35576543607e-14;1.44416525276e-08;9.70523073236e-13;1.37519613601e-10;2.44587829304e-07;6.56988184833e-17;-8.17748459773e-16;1.85342908309e-13;-5.5098347044e-17;-7.75059593454e-15;6.56988184833e-17;2.44587913334e-07;6.99040110843e-20;5.89415426866e-17;6.61098091346e-16;9.35576543607e-14;-8.17748459773e-16;6.99040110815e-20;2.44587913333e-07;1.41812707172e-16;-1.63898733869e-09;1.44416525276e-08;1.85342908309e-13;5.89415426866e-17;1.41812707174e-16;2.21350815421e-05
103753000000;21;103753000000;map;base_link;1.83066718873;-0.0162954538576;-0.00391960765731;-4.11058837755e-07;4.7409873578e-06;0.0044219486772;0.999990223126;9.07006072508e-08;1.31804976727e-12;-5.18360751792e-12;-1.52973219354e-15;1.81310568445e-14;-1.70369573894e-11;1.31804976727e-12;8.97699399785e-08;2.74448045261e-09;8.29639721856e-13;-9.38867187195e-12;1.60438290782e-10;-5.18360751792e-12;2.74448045261e-09;1.88297370373e-09;4.98537316136e-13;-5.6774027252e-12;4.9076634533e-12;-1.52973219354e-15;8.29639721856e-13;4.98537316136e-13;4.96383289619e-08;6.26909733534e-14;-3.23160458563e-14;1.81310568445e-14;-9.38867187195e-12;-5.6774027252e-12;6.26909733532e-14;4.96376788086e-08;-2.43393425347e-14;-1.70369573894e-11;1.60438290782e-10;4.9076634533e-12;-3.23160458563e-14;-2.43393425346e-14;8.37090289953e-08;0.0674239876234;0.00877900946356;-7.93941501548e-06;6.60594439218e-10;-8.92637273843e-09;-0.000521314932316;1.96496338548e-05;-4.34108870132e-10;3.2656143802e-13;-2.40914822549e-17;2.86363007335e-16;-1.25066991232e-09;-4.34108870132e-10;1.95934243328e-05;4.60912320577e-11;-3.37125535968e-15;3.99506473594e-14;1.24327148246e-08;3.2656143802e-13;4.60912320577e-11;1.64243772761e-07;4.08618605801e-17;-5.10733231971e-16;6.18797424539e-14;-2.40914822549e-17;-3.37125535968e-15;4.08618605801e-17;1.64243782651e-07;5.77608047986e-20;-1.55326714153e-16;2.86363007335e-16;3.99506473594e-14;-5.10733231971e-16;5.77608047974e-20;1.6424378265e-07;2.1458408202e-17;-1.25066991232e-09;1.24327148246e-08;6.18797424539e-14;-1.55326714153e-16;2.14584082025e-17;1.84512489038e-05
103753000000;22;103753000000;map;base_link;1.83066717861;-0.0162900946428;-0.00390539065623;-3.72189763706e-07;4.29389686576e-06;0.00442195346849;0.999990223107;4.53503036187e-08;6.62575009312e-13;-2.58704921859e-12;-7.29186142838e-16;8.64316180135e-15;-8.51847234638e-12;6.62575009312e-13;4.48830903623e-08;1.3697229175e-09;3.95483800722e-13;-4.47547356995e-12;8.02157842437e-11;-2.58704921859e-12;1.3697229175e-09;1.83441844434e-09;4.41005609452e-13;-5.02300462994e-12;2.44933027917e-12;-7.29186142838e-16;3.95483800722e-13;4.41005609452e-13;4.51554310608e-08;5.20434089668e-14;-1.54294851152e-14;8.64316180135e-15;-4.47547356995e-12;-5.02300462995e-12;5.20434089666e-14;4.51548926248e-08;-1.16078300313e-14;-8.51847234638e-12;8.02157842437e-11;2.44933027917e-12;-1.54294851152e-14;-1.16078300313e-14;4.18545144916e-08;0.0674242463959;0.00881588406867;-5.95060882622e-06;6.02251133517e-10;-8.15512744722e-09;-0.000521264184542;1.75037640929e-05;-2.79968746359e-10;1.23668252666e-13;-1.15624176659e-17;1.34502749741e-16;-1.05650860852e-09;-2.79968746359e-10;1.74683171727e-05;1.73187439944e-11;-1.60356309499e-15;1.82758554624e-14;1.14286149367e-08;1.23668252666e-13;1.73187439944e-11;1.23632150781e-07;2.81707954709e-17;-3.52868066981e-16;2.30713456083e-14;-1.15624176659e-17;-1.60356309499e-15;2.81707954709e-17;1.23632143293e-07;4.77835805513e-20;-1.88389063569e-16;1.34502749741e-16;1.82758554624e-14;-3.52868066981e-16;4.77835805508e-20;1.23632143292e-07;-1.5937002956e-17;-1.05650860852e-09;1.14286149367e-08;2.30713456083e-14;-1.88389063569e-16;-1.59370029558e-17;1.66093325852e-05
103860000000;23;103860000000;map;base_link;1.83896757285;-0.015240420161;-0.00349585451366;-1.54379808166e-07;2.33141895718e-06;0.00439435712748;0.999990344763;3.04473264863e-07;8.08406353259e-13;-3.84993955395e-12;-5.73852940914e-16;-1.45510868405e-14;-5.78981892329e-11;8.0840635326e-13;3.03529512957e-07;5.87473329634e-10;-7.38207977783e-14;-2.67321538937e-13;4.65119158173e-10;-3.84993955395e-12;5.87473329634e-10;4.62275922625e-08;2.99601166524e-11;-2.28851314565e-10;9.67586643718e-13;-5.73852940914e-16;-7.38207977783e-14;2.99601166524e-11;7.77261118948e-08;5.11711582371e-14;1.25181569758e-12;-1.45510868405e-14;-2.67321538937e-13;-2.28851314565e-10;5.1171158237e-14;7.77256396736e-08;1.10263426417e-13;-5.78981892329e-11;4.65119158173e-10;9.67586643718e-13;1.25181569758e-12;1.10263426417e-13;2.79576834076e-07;0.0760126218576;0.00919140225564;3.35511465136e-06;2.74514563775e-10;-4.87342562395e-09;-0.000517266089789;2.9338654665e-05;-2.4452699807e-10;-2.98240441106e-13;9.5043423316e-18;-4.12441681459e-17;-9.91083138106e-10;-2.4452699807e-10;2.93085930179e-05;-3.37548431647e-11;7.70906552516e-16;-2.47562580926e-15;1.13418611082e-08;-2.98240441106e-13;-3.37548431647e-11;4.77876089417e-07;3.00994214796e-17;-2.50189157885e-16;-4.00845984423e-14;9.5043423316e-18;7.70906552516e-16;3.00994214796e-17;4.77874012234e-07;4.21794016434e-20;-1.0301489224e-14;-4.12441681459e-17;-2.47562580926e-15;-2.50189157885e-16;4.21794016419e-20;4.77874012234e-07;-8.28071781054e-16;-9.91083138106e-10;1.13418611082e-08;-4.00845984423e-14;-1.0301489224e-14;-8.28071781057e-16;2.63817716097e-05
103860000000;24;103860000000;map;base_link;1.83896756669;-0.0152394801853;-0.00320000420703;-5.11840585804e-08;1.40894439506e-06;0.00439435790124;0.999990344762;1.52236632428e-07;4.04744692098e-13;-1.8435174464e-12;-2.21771453694e-16;-7.13638380476e-15;-2.8949093724e-11;4.04744692099e-13;1.5176467384e-07;2.81308332529e-10;-4.14245280093e-14;-7.12226657998e-14;2.32559443009e-10;-1.8435174464e-12;2.81308332529e-10;4.23146653463e-08;2.38203452253e-11;-1.81951945881e-10;4.6331853084e-13;-2.21771453694e-16;-4.14245280093e-14;2.38203452253e-11;6.72688739722e-08;4.72609081215e-14;5.83793062517e-13;-7.13638380476e-15;-7.12226657998e-14;-1.81951945881e-10;4.72609081214e-14;6.72684549444e-08;5.15111646504e-14;-2.8949093724e-11;2.32559443009e-10;4.6331853084e-13;5.83793062517e-13;5.15111646504e-14;1.39788417037e-07;0.0760124895151;0.00917950524148;3.07793528458e-06;6.88808805374e-11;-2.83655974895e-09;-0.000517278037271;2.22682291575e-05;-1.52344661025e-10;-6.79251450282e-14;5.21566550687e-18;-9.43739596569e-17;-8.91058592177e-10;-1.52344661025e-10;2.22498219945e-05;-7.07800463572e-12;4.52845541113e-16;-3.56258342697e-15;9.0425573155e-09;-6.79251450282e-14;-7.07800463572e-12;2.44343803924e-07;2.552530488e-17;-2.11008060919e-16;-8.61114222915e-15;5.21566550687e-18;4.52845541113e-16;2.552530488e-17;2.44343272089e-07;4.63277050295e-20;1.11084369165e-15;-9.43739596569e-17;-3.56258342697e-15;-2.11008060919e-16;4.63277050288e-20;2.44343272089e-07;9.55223487077e-17;-8.91058592177e-10;9.0425573155e-09;-8.61114222915e-15;1.11084369165e-15;9.55223487072e-17;2.04807918212e-05
104020000000;25;104020000000;map;base_link;1.85424518456;-0.0126166467439;-0.00625356938767;-1.01809958205e-06;8.70763211059e-06;0.0043389908022;0.999990586497;8.69749026956e-07;1.21114845427e-11;-5.64451136681e-11;-3.28824800254e-14;2.90575436209e-13;-2.84234506085e-10;1.21114845427e-11;8.5203055792e-07;6.79633168131e-08;4.09560335381e-11;-3.34097036344e-10;2.19604854045e-09;-5.64451136681e-11;6.79633168131e-08;-1.62536148534e-07;-9.79643533954e-11;7.98490025828e-10;1.74826447089e-10;-3.28824800254e-14;4.09560335381e-11;-9.79643533954e-11;1.19644575185e-07;9.11774196225e-13;1.40531707827e-12;2.90575436209e-13;-3.34097036344e-10;7.98490025828e-10;9.11774196226e-13;1.19637240118e-07;-8.07996035807e-13;-2.84234506085e-10;2.19604854045e-09;1.74826447089e-10;1.40531707827e-12;-8.07996035806e-13;7.56635367456e-07;0.0926822757395;0.0142328440981;-1.92324396043e-05;2.76498092095e-09;-2.68007353905e-08;-0.000639094425167;3.95424021084e-05;-3.07456447783e-09;1.49563845766e-11;-2.18794172197e-15;1.91236456102e-14;-8.99605794486e-10;-3.07456447783e-09;3.91587257468e-05;1.86942817623e-09;-2.73568614133e-13;2.40215390049e-12;7.70649712779e-09;1.49563845766e-11;1.86942817623e-09;4.8499122129e-07;1.50218169995e-15;-1.31912177055e-14;3.45116681715e-12;-2.18794172197e-15;-2.73568614133e-13;1.50218169995e-15;4.84996767596e-07;1.99255369302e-18;-1.03973905174e-14;1.91236456102e-14;2.40215390049e-12;-1.31912177055e-14;1.99255369304e-18;4.84996767578e-07;4.20207962904e-15;-8.99605794486e-10;7.70649712779e-09;3.45116681715e-12;-1.03973905174e-14;4.20207962905e-15;3.35090909905e-05
104020000000;26;104020000000;map;base_link;1.85424491931;-0.0122972741638;-0.009398027711;-1.56451982016e-06;1.28724747268e-05;0.00433940158106;0.999990584669;4.34874512483e-07;7.25370015451e-12;-3.52510975002e-11;-1.81968430948e-14;1.5850891466e-13;-1.4211417145e-10;7.25370015452e-12;4.2457286441e-07;4.24444520438e-08;2.25260540385e-11;-1.83729070361e-10;1.09431384404e-09;-3.52510975002e-11;4.24444520438e-08;-2.4902651325e-07;-1.18436791254e-10;9.65371619939e-10;1.09182667296e-10;-1.81968430948e-14;2.25260540385e-11;-1.18436791254e-10;9.65426480012e-08;7.48766623458e-13;6.45176683853e-13;1.5850891466e-13;-1.83729070361e-10;9.65371619939e-10;7.48766623458e-13;9.65366950624e-08;-4.49389072383e-13;-1.4211417145e-10;1.09431384404e-09;1.09182667296e-10;6.45176683853e-13;-4.49389072383e-13;3.78317674183e-07;0.0926943199726;0.0157469940943;-1.90967344437e-05;4.75305677787e-09;-4.38005690001e-08;-0.000636298204129;3.01067551946e-05;-1.81527627762e-09;4.76901373557e-12;-9.73469291199e-16;8.57041569957e-15;-1.11420736395e-09;-1.81527627762e-09;2.98815261518e-05;5.97371762942e-10;-1.22181720298e-13;1.07189706869e-12;9.28118657976e-09;4.76901373557e-12;5.97371762942e-10;2.46189869019e-07;9.24893838667e-16;-8.12455743245e-15;1.10155260183e-12;-9.73469291199e-16;-1.22181720298e-13;9.24893838667e-16;2.46191909898e-07;2.01548509419e-18;-2.6973413897e-15;8.57041569957e-15;1.07189706869e-12;-8.12455743245e-15;2.01548509419e-18;2.46191909882e-07;1.87590437582e-15;-1.11420736395e-09;9.28118657976e-09;1.10155260183e-12;-2.6973413897e-15;1.87590437582e-15;2.65118398975e-05
104020000000;27;104020000000;map;base_link;1.85424458396;-0.0118934883278;-0.0190261375574;-3.20344699216e-06;2.56770644528e-05;0.00433992097817;0.999990582164;2.17437255773e-07;4.1915190994e-12;-2.66066828614e-11;-1.1855715885e-14;1.01317045371e-13;-7.10556331874e-11;4.1915190994e-12;2.11606536666e-07;3.20360538028e-08;1.45580546991e-11;-1.18717502751e-10;5.45407978954e-10;-2.66066828614e-11;3.20360538028e-08;-5.09538843669e-07;-1.98201107838e-10;1.6155385135e-09;8.24084960513e-11;-1.1855715885e-14;1.45580546991e-11;-1.98201107838e-10;8.09183846243e-08;8.37542393531e-13;3.0730557791e-13;1.01317045371e-13;-1.18717502751e-10;1.6155385135e-09;8.37542393531e-13;8.0911740932e-08;-2.94710202906e-13;-7.10556331874e-11;5.45407978954e-10;8.24084960513e-11;3.0730557791e-13;-2.94710202905e-13;1.89158832593e-07;0.0927098835238;0.0177084316049;-3.19469820498e-05;1.01763085306e-08;-9.1126094997e-08;-0.000632692362231;2.53889327776e-05;-1.05522078015e-09;2.44904764661e-12;-6.51207987261e-16;5.76563566624e-15;-1.22126621863e-09;-1.05522078015e-09;2.52592802932e-05;3.07876947969e-10;-8.21148717189e-14;7.19927313119e-13;1.00988705669e-08;2.44904764661e-12;3.07876947969e-10;1.64963597746e-07;8.69668664809e-16;-7.64048987337e-15;5.66002851798e-13;-6.51207987261e-16;-8.21148717189e-14;8.69668664809e-16;1.64965499078e-07;2.39036570862e-18;-7.08175133239e-16;5.76563566624e-15;7.19927313119e-13;-7.64048987337e-15;2.39036570862e-18;1.64965499059e-07;1.27086132647e-15;-1.22126621863e-09;1.00988705669e-08;5.66002851798e-13;-7.08175133239e-16;1.27086132647e-15;2.30132144072e-05
104020000000;28;104020000000;map;base_link;1.85425298431;-0.02200801909;0.631436687919;0.000105483882575;-0.000829665677078;0.00432699493798;0.999990288774;1.08718630724e-07;-1.32079568926e-12;2.13291054353e-10;6.72384976946e-14;-5.45886469722e-13;-3.55366052347e-11;-1.32079568926e-12;1.09917006866e-07;-2.56815288282e-07;-8.08275336327e-11;6.5880336622e-10;2.83286043142e-10;2.13291054353e-10;-2.56815288282e-07;1.70326218497e-05;5.46872769675e-09;-4.45758257768e-08;-6.60623736563e-10;6.72384976946e-14;-8.08275336327e-11;5.46872769675e-09;6.96487390683e-08;-1.41515834339e-11;-8.23871308712e-14;-5.45886469722e-13;6.5880336622e-10;-4.45758257768e-08;-1.41515834339e-11;6.97624452011e-08;1.69965116966e-12;-3.55366052347e-11;2.83286043142e-10;-6.60623736563e-10;-8.23871308712e-14;1.69965116966e-12;9.45794435172e-08;0.0922957057575;-0.0348332668604;0.000948820069151;-3.5238511773e-07;3.09473576517e-06;-0.000728124514233;2.30300294908e-05;3.28985962459e-10;-1.57601852781e-11;5.92792474848e-15;-5.2036280352e-14;-1.27296923229e-09;3.28985962459e-10;2.30754508529e-05;-1.99987447904e-09;7.51949542831e-13;-6.60840092736e-12;1.07392337073e-08;-1.57601852781e-11;-1.99987447904e-09;1.24078809604e-07;-1.39952923049e-14;1.22969242978e-13;-3.63114435592e-12;5.92792474848e-15;7.51949542831e-13;-1.39952923049e-14;1.24040626549e-07;-4.57238243639e-17;1.41240236852e-15;-5.2036280352e-14;-6.60840092736e-12;1.22969242978e-13;-4.57238243639e-17;1.24040626947e-07;-1.20312563034e-14;-1.27296923229e-09;1.07392337073e-08;-3.63114435592e-12;1.41240236852e-15;-1.20312563034e-14;2.12639020832e-05
104121000000;29;104121000000;map;base_link;1.86517861049;-0.0185517293343;-0.00935974337182;2.76677529504e-06;3.11611747652e-06;0.00429114820045;0.999990792972;4.34611860142e-07;5.60941080165e-11;-3.79497301461e-11;-2.42898914359e-14;8.20526282024e-13;1.28431976839e-10;5.60941080165e-11;3.71236239763e-07;5.47261169062e-08;3.84483068202e-11;-7.84725759589e-10;8.09210442529e-10;-3.79497301461e-11;5.47261169062e-08;-1.55172867778e-07;-3.35963456668e-11;6.9635046684e-10;1.24035955388e-10;-2.42898914359e-14;3.84483068202e-11;-3.35963456668e-11;1.179291193e-07;3.73868929806e-13;-1.74741104299e-11;8.20526282024e-13;-7.84725759589e-10;6.9635046684e-10;3.73868929808e-13;1.17917358735e-07;-4.13918311893e-12;1.28431976839e-10;8.09210442529e-10;1.24035955388e-10;-1.74741104299e-11;-4.13918311893e-12;3.88240738207e-07;0.104266280648;-0.00816323433295;-1.71127868241e-05;-4.8426585345e-09;-6.44909151526e-09;-0.000762101388478;3.48904350061e-05;-6.42824855268e-09;4.46297168962e-12;-8.20674280468e-16;1.97164120779e-14;-1.39748402238e-09;-6.42824855268e-09;3.40555869686e-05;5.91178327585e-10;-1.07538909073e-13;2.6073497173e-12;1.01134994784e-08;4.46297168962e-12;5.91178327585e-10;4.76635737911e-07;1.12021053586e-16;-2.68956858532e-15;9.68331233632e-13;-8.20674280468e-16;-1.07538909073e-13;1.12021053586e-16;4.76633830611e-07;2.1586995828e-19;1.50244694106e-13;1.97164120779e-14;2.6073497173e-12;-2.68956858532e-15;2.15869958291e-19;4.76633830602e-07;2.29128867245e-14;-1.39748402238e-09;1.01134994784e-08;9.68331233632e-13;1.50244694106e-13;2.29128867245e-14;3.04790115e-05
104121000000;30;104121000000;map;base_link;1.86517834759;-0.0181726084767;-0.0138548372207;1.80448745972e-06;1.0773156847e-05;0.00429157784995;0.999990791078;2.17305929626e-07;2.8689307227e-11;-2.34656734022e-11;-1.18010955932e-14;3.87988616155e-13;6.42174444317e-11;2.8689307227e-11;1.84692027425e-07;3.38389207026e-08;1.85650244817e-11;-3.79253830288e-10;4.02505961221e-10;-2.34656734022e-11;3.38389207026e-08;-2.366509302e-07;-4.29466658826e-11;8.89058966738e-10;7.66960990297e-11;-1.18010955932e-14;1.85650244817e-11;-4.29466658826e-11;9.54227623409e-08;3.19342696904e-13;-7.90068670498e-12;3.87988616155e-13;-3.79253830288e-10;8.89058966738e-10;3.19342696905e-13;9.541359876e-08;-1.92726125105e-12;6.42174444317e-11;4.02505961221e-10;7.66960990297e-11;-7.90068670498e-12;-1.92726125105e-12;1.94120364274e-07;0.10426039334;-0.00887426144819;-1.11198142933e-05;-3.36953887079e-09;-2.39202935339e-08;-0.000762099193207;2.66582256346e-05;-5.27589623583e-09;2.34535991464e-13;1.57219975063e-16;-1.70679667462e-15;4.82714678129e-10;-5.27589623583e-09;2.59798998823e-05;2.93773174426e-11;8.19884962024e-15;-1.97839647716e-13;1.30999322597e-08;2.34535991464e-13;2.93773174426e-11;2.44019167165e-07;6.26973781157e-17;-1.55274876819e-15;1.2538347504e-13;1.57219975063e-16;8.19884962024e-15;6.26973781157e-17;2.4401864234e-07;2.60548666148e-19;5.89371979458e-15;-1.70679667462e-15;-1.97839647716e-13;-1.55274876819e-15;2.60548666151e-19;2.44018642331e-07;1.09721894386e-15;4.82714678129e-10;1.30999322597e-08;1.2538347504e-13;5.89371979458e-15;1.09721894386e-15;2.38956979541e-05
104121000000;31;104121000000;map;base_link;1.86517803201;-0.0177175252527;-0.0268963414581;4.47981933797e-07;2.9321424935e-05;0.00429209358896;0.999990788494;1.08652964611e-07;1.46358957686e-11;-1.72111943526e-11;-6.2667018199e-15;1.95807810582e-13;3.21093823974e-11;1.46358957686e-11;9.19260434119e-08;2.48194451575e-08;9.7485100042e-12;-1.99462958903e-10;2.00301047836e-10;-1.72111943526e-11;2.48194451575e-08;-4.66900017921e-07;-7.14998588481e-11;1.47931059953e-09;5.6253914299e-11;-6.2667018199e-15;9.7485100042e-12;-7.14998588481e-11;8.01302337667e-08;3.44470912239e-13;-3.63106069331e-12;1.95807810582e-13;-1.99462958903e-10;1.47931059953e-09;3.44470912239e-13;8.01213550708e-08;-9.4315090595e-13;3.21093823974e-11;2.00301047836e-10;5.6253914299e-11;-3.63106069331e-12;-9.4315090595e-13;9.70601799644e-08;0.104209974584;-0.0151187086898;-1.21318571335e-05;-1.03079510396e-09;-6.5236056141e-08;-0.000767805192159;2.25421170436e-05;-5.18345805931e-09;-8.88970826113e-13;5.34146153116e-16;-1.05960289542e-14;1.4223700254e-09;-5.1834580593e-09;2.18821400008e-05;-1.16527887602e-10;5.52211953822e-14;-1.3404219416e-12;1.4538244585e-08;-8.88970826113e-13;-1.16527887602e-10;1.63987119737e-07;4.86234259991e-17;-1.20707119945e-15;-8.61311717808e-14;5.34146153116e-16;5.52211953822e-14;4.86234259991e-17;1.63986897138e-07;3.09265246544e-19;-2.10014756129e-14;-1.05960289542e-14;-1.3404219416e-12;-1.20707119945e-15;3.09265246545e-19;1.63986897129e-07;-3.74190818731e-15;1.4223700254e-09;1.4538244585e-08;-8.61311717808e-14;-2.10014756129e-14;-3.74190818731e-15;2.06040411379e-05
104121000000;32;104121000000;map;base_link;1.8651735237;-0.0112163669205;-0.523864940814;-3.44219564832e-05;0.000686299270488;0.00429948176012;0.999990521088;5.43264815507e-08;8.40626277929e-12;-8.76960951052e-11;-1.31099594631e-14;3.01974839788e-13;1.60571579428e-11;8.40626277929e-12;4.43936313645e-08;1.26461328966e-07;1.92363375656e-11;-3.9687226715e-10;9.65933977998e-11;-8.76960951052e-11;1.26461328966e-07;-9.19030324384e-06;-1.18442443706e-09;2.44986536925e-08;2.86631725286e-10;-1.31099594631e-14;1.92363375656e-11;-1.18442443706e-09;6.90621277818e-08;3.24913532669e-12;-1.65683050064e-12;3.01974839788e-13;-3.9687226715e-10;2.44986536925e-08;3.2491353267e-12;6.89938002638e-08;-1.12810669701e-12;1.60571579428e-11;9.65933977998e-11;2.86631725286e-10;-1.65683050064e-12;-1.12810669701e-12;4.85300819166e-08;0.10172823959;-0.323369806933;-0.000143590408261;6.08823235549e-08;-1.55438035864e-06;-0.00108126169026;2.04838451577e-05;-3.21652180408e-08;-1.278579544e-11;6.01170847284e-15;-1.43519305112e-13;1.86465843744e-09;-3.21652180408e-08;1.64759817976e-05;-1.59517103083e-09;7.36704400506e-13;-1.78627582902e-11;1.18366365032e-08;-1.278579544e-11;-1.59517103083e-09;1.23486033066e-07;3.25621513191e-16;-7.9155875028e-15;-1.61364746161e-12;6.01170847284e-15;7.36704400506e-13;3.25621513191e-16;1.23486539129e-07;3.50546905996e-18;-2.40962226236e-14;-1.43519305112e-13;-1.78627582902e-11;-7.9155875028e-15;3.50546905996e-18;1.23486539042e-07;-2.11874293586e-14;1.86465843744e-09;1.18366365032e-08;-1.61364746161e-12;-2.40962226236e-14;-2.11874293586e-14;1.89582092459e-05
104242000000;33;104242000000;map;base_link;1.87983149745;-0.0101391969648;-0.0145123312004;-6.47241820733e-06;1.39410187786e-05;0.00424422018392;0.999990993139;5.41259476252e-07;1.68378457198e-11;1.3757837935e-12;1.77011533677e-14;5.20712555442e-14;-2.33295131279e-10;1.68378457198e-11;5.15190465344e-07;-8.6488089139e-09;-4.2117206988e-11;-2.70310363528e-11;8.28257157296e-10;1.3757837935e-12;-8.6488089139e-09;-2.40386516151e-07;-1.08706357267e-10;2.70597280006e-10;-1.01337272728e-11;1.77011533677e-14;-4.2117206988e-11;-1.08706357267e-10;1.56378459927e-07;5.33649857072e-13;-6.59996385637e-12;5.20712555442e-14;-2.70310363528e-11;2.70597280006e-10;5.33649857076e-13;1.56375222729e-07;-1.3549756286e-12;-2.33295131279e-10;8.28257157296e-10;-1.01337272728e-11;-6.59996385637e-12;-1.3549756286e-12;4.88918430806e-07;0.118089074344;0.0303095252456;-2.64130991022e-05;1.12415408385e-08;-2.4898055235e-08;-0.000796896133428;3.53112518409e-05;-4.44791868658e-09;-4.01304492668e-12;2.06153926071e-15;-3.33094860938e-15;2.28771547266e-09;-4.44791868658e-09;3.47498580712e-05;-4.93668020984e-10;2.48211624261e-13;-4.25728681954e-13;1.69088763306e-08;-4.01304492668e-12;-4.93668020984e-10;4.80315176025e-07;2.67775147757e-16;-7.75115378972e-16;-4.99096255291e-13;2.06153926071e-15;2.48211624261e-13;2.67775147757e-16;4.80313147598e-07;4.67010234341e-19;4.49097026047e-14;-3.33094860938e-15;-4.25728681954e-13;-7.75115378972e-16;4.67010234358e-19;4.80313147594e-07;7.84835822487e-15;2.28771547266e-09;1.69088763306e-08;-4.99096255291e-13;4.49097026047e-14;7.84835822488e-15;3.02243984635e-05
104242000000;34;104242000000;map;base_link;1.87983151669;-0.0102601282057;-0.0279644941796;-7.09728820927e-06;1.59186154745e-05;0.00424414934724;0.999990993406;2.70629738126e-07;8.42327731516e-12;1.00664933079e-12;7.90228394808e-15;2.26715366355e-14;-1.16647560496e-10;8.42327731516e-12;2.57567864187e-07;-6.32828377654e-09;-1.92164897932e-11;-1.02539753569e-11;4.14096440945e-10;1.00664933079e-12;-6.32828377654e-09;-4.63385335602e-07;-1.54106556044e-10;3.81910901071e-10;-7.41504690936e-12;7.90228394808e-15;-1.92164897932e-11;-1.54106556044e-10;1.19122089198e-07;3.7307048342e-13;-2.90766354677e-12;2.26715366355e-14;-1.02539753569e-11;3.81910901071e-10;3.73070483423e-13;1.19120094545e-07;-5.94849430689e-13;-1.16647560496e-10;4.14096440945e-10;-7.41504690936e-12;-2.90766354677e-12;-5.94849430689e-13;2.44459215355e-07;0.118075226964;0.0287088836581;-1.88434386588e-05;1.36163346478e-08;-3.24591049211e-08;-0.000795577171294;2.79110581105e-05;-2.87341108663e-09;-1.21295145416e-12;9.11838476078e-16;-3.14100504174e-15;4.72132190125e-10;-2.87341108663e-09;2.7551037726e-05;-1.48860209219e-10;1.09775800889e-13;-4.07152825022e-13;1.20769713016e-08;-1.21295145416e-12;-1.48860209219e-10;2.44979938282e-07;1.55792977495e-16;-4.29375768032e-16;-9.38694632663e-14;9.11838476078e-16;1.09775800889e-13;1.55792977495e-16;2.449794061e-07;3.88661577353e-19;1.21993260354e-14;-3.14100504174e-15;-4.07152825022e-13;-4.29375768032e-16;3.88661577357e-19;2.44979406098e-07;1.31198122425e-15;4.72132190125e-10;1.20769713016e-08;-9.38694632663e-14;1.21993260354e-14;1.31198122425e-15;2.46562564595e-05
104242000000;35;104242000000;map;base_link;1.8798317098;-0.0114741153466;-0.383669590776;-5.12109199526e-05;0.000123911854841;0.00424344422481;0.999990987562;1.35314869061e-07;4.22335887968e-12;3.70402019518e-12;4.38469597597e-15;8.23391333109e-15;-5.83237665065e-11;4.22335887968e-12;1.28710253302e-07;-2.32854324509e-08;-1.37990416231e-11;8.01059242358e-12;2.06961871083e-10;3.70402019518e-12;-2.32854324509e-08;-6.35915141849e-06;-1.61659116682e-09;3.99613323429e-09;-2.72854442963e-11;4.38469597597e-15;-1.37990416231e-11;-1.61659116682e-09;9.62020301481e-08;1.18008474397e-12;-1.31996369134e-12;8.23391333108e-15;8.01059242358e-12;3.99613323429e-09;1.18008474397e-12;9.61987997265e-08;-2.53995362829e-13;-5.83237665065e-11;2.06961871083e-10;-2.72854442963e-11;-1.31996369134e-12;-2.53995362829e-13;1.22229607575e-07;0.117797557909;-0.00312900670348;-0.000108080332536;1.10913792589e-07;-2.9249970977e-07;-0.00074960216442;2.42109578534e-05;-2.47476883437e-09;-1.72633666718e-12;1.78456538175e-15;-6.065204708e-15;-4.35075614808e-10;-2.47476883437e-09;2.39071028584e-05;-2.01978351747e-10;2.07495151089e-13;-7.37476619139e-13;9.72793584544e-09;-1.72633666718e-12;-2.01978351747e-10;1.64420068727e-07;5.31983575224e-16;-1.42282735016e-15;1.93948610576e-13;1.78456538175e-15;2.07495151089e-13;5.31983575224e-16;1.6442024221e-07;1.49633531193e-18;3.84865606605e-15;-6.065204708e-15;-7.37476619139e-13;-1.42282735016e-15;1.49633531194e-18;1.64420242206e-07;4.22357654324e-16;-4.35075614808e-10;9.72793584544e-09;1.93948610576e-13;3.84865606605e-15;4.22357654324e-16;2.18721853593e-05
104406000000;36;104406000000;map;base_link;1.90332456256;-0.00412390254987;-0.00320857642882;-6.20288617066e-06;2.34740213771e-05;0.00416327425638;0.999991333241;1.10417493376e-06;-2.07267418172e-12;3.33118911117e-11;1.4001808962e-14;-4.04253230225e-14;-6.03411809194e-10;-2.07267418172e-12;1.08554997631e-06;3.37514237076e-08;3.98900094551e-12;-1.89588840459e-11;2.60955494232e-09;3.33118911117e-11;3.37514237076e-08;6.01546208287e-09;1.77338458052e-12;-7.14474482322e-12;8.10317319865e-11;1.4001808962e-14;3.98900094551e-12;1.77338458052e-12;1.97371747934e-07;4.00337087971e-13;-1.68050740983e-12;-4.04253230225e-14;-1.89588840459e-11;-7.14474482322e-12;4.00337087972e-13;1.97370154158e-07;-2.08800780264e-13;-6.03411809194e-10;2.60955494232e-09;8.10317319865e-11;-1.68050740983e-12;-2.08800780264e-13;9.47916924362e-07;0.140544454179;0.0375264794696;-2.75327037203e-05;1.38568914536e-08;-5.50793767965e-08;-0.000918184825405;4.54931781041e-05;-2.69576338895e-09;1.04698012341e-12;-2.08036799132e-16;3.22419053419e-16;-1.0027219307e-09;-2.69576338895e-09;4.51686056375e-05;1.12145233256e-10;-1.81116495081e-14;-1.00718157021e-14;9.0166347038e-09;1.04698012341e-12;1.12145233256e-10;4.85317004031e-07;2.30729023037e-16;-9.43954537687e-16;2.67512244673e-13;-2.08036799132e-16;-1.81116495081e-14;2.30729023037e-16;4.85314186716e-07;5.46908240519e-19;9.63492315555e-15;3.22419053419e-16;-1.00718157021e-14;-9.43954537687e-16;5.46908240518e-19;4.85314186714e-07;5.276133376e-16;-1.0027219307e-09;9.0166347038e-09;2.67512244673e-13;9.63492315555e-15;5.27613337599e-16;3.68535489877e-05
