%time;field.header.seq;field.header.stamp;field.header.frame_id;field.child_frame_id;field.pose.pose.position.x;field.pose.pose.position.y;field.pose.pose.position.z;field.pose.pose.orientation.x;field.pose.pose.orientation.y;field.pose.pose.orientation.z;field.pose.pose.orientation.w;field.pose.covariance0;field.pose.covariance1;field.pose.covariance2;field.pose.covariance3;field.pose.covariance4;field.pose.covariance5;field.pose.covariance6;field.pose.covariance7;field.pose.covariance8;field.pose.covariance9;field.pose.covariance10;field.pose.covariance11;field.pose.covariance12;field.pose.covariance13;field.pose.covariance14;field.pose.covariance15;field.pose.covariance16;field.pose.covariance17;field.pose.covariance18;field.pose.covariance19;field.pose.covariance20;field.pose.covariance21;field.pose.covariance22;field.pose.covariance23;field.pose.covariance24;field.pose.covariance25;field.pose.covariance26;field.pose.covariance27;field.pose.covariance28;field.pose.covariance29;field.pose.covariance30;field.pose.covariance31;field.pose.covariance32;field.pose.covariance33;field.pose.covariance34;field.pose.covariance35;field.twist.twist.linear.x;field.twist.twist.linear.y;field.twist.twist.linear.z;field.twist.twist.angular.x;field.twist.twist.angular.y;field.twist.twist.angular.z;field.twist.covariance0;field.twist.covariance1;field.twist.covariance2;field.twist.covariance3;field.twist.covariance4;field.twist.covariance5;field.twist.covariance6;field.twist.covariance7;field.twist.covariance8;field.twist.covariance9;field.twist.covariance10;field.twist.covariance11;field.twist.covariance12;field.twist.covariance13;field.twist.covariance14;field.twist.covariance15;field.twist.covariance16;field.twist.covariance17;field.twist.covariance18;field.twist.covariance19;field.twist.covariance20;field.twist.covariance21;field.twist.covariance22;field.twist.covariance23;field.twist.covariance24;field.twist.covariance25;field.twist.covariance26;field.twist.covariance27;field.twist.covariance28;field.twist.covariance29;field.twist.covariance30;field.twist.covariance31;field.twist.covariance32;field.twist.covariance33;field.twist.covariance34;field.twist.covariance35
103000000000;5035;103000000000;odom;base_link;0.254317004877;6.4548075133e-05;0.0;0.0;0.0;0.000127532160436;0.999999991868;5.13726928141;-9.21317888155e-05;0.0;0.0;0.0;-0.000379417198481;-9.21317888155e-05;5.50002542977;0.0;0.0;0.0;1.49389817115;0.0;0.0;4.99622070082e-07;-2.81468172447e-23;-6.32193417388e-15;0.0;0.0;0.0;-2.81468172447e-23;4.99245844078e-07;-4.70836604598e-28;0.0;0.0;0.0;-6.32193417388e-15;-4.70836599313e-28;4.99245844077e-07;0.0;-0.000379417198481;1.49389817115;0.0;0.0;0.0;6.16205199597;0.507258994805;0.0;0.0;0.0;0.0;6.7520336791e-07;0.00079008621871;0.0;0.0;0.0;0.0;0.0;0.0;0.00079008621871;0.0;0.0;0.0;0.0;0.0;0.0;4.99433745189e-07;-3.88851014511e-27;-1.52452906617e-23;0.0;0.0;0.0;-3.88851014511e-27;4.97757627729e-07;-2.54058711671e-31;0.0;0.0;0.0;-1.52452906617e-23;-2.54058820709e-31;4.97757627729e-07;0.0;0.0;0.0;0.0;0.0;0.0;9.99957495085e-10
103020000000;5036;103020000000;odom;base_link;0.264316873926;6.70987441863e-05;0.0;0.0;0.0;0.000127537771861;0.999999991867;5.13826970619;-0.000100004227628;0.0;0.0;0.0;-0.000395354896798;-0.000100004227628;5.53195468639;0.0;0.0;0.0;1.55638236916;0.0;0.0;4.99622070082e-07;-4.66808438786e-23;-6.32099665756e-15;0.0;0.0;0.0;-4.66808438786e-23;4.99245844078e-07;-7.80755776098e-28;0.0;0.0;0.0;-6.32099665756e-15;-7.80755794143e-28;4.99245844077e-07;0.0;-0.000395354896798;1.55638236916;0.0;0.0;0.0;6.16325200791;0.507167778186;0.0;0.0;0.0;0.0;2.17553290546e-07;0.00079008621868;0.0;0.0;0.0;0.0;0.0;0.0;0.00079008621868;0.0;0.0;0.0;0.0;0.0;0.0;4.99433745189e-07;-3.88815948283e-27;-1.52430298404e-23;0.0;0.0;0.0;-3.88815948283e-27;4.97757627729e-07;-2.53997991542e-31;0.0;0.0;0.0;-1.52430298404e-23;-2.53998105282e-31;4.97757627729e-07;0.0;0.0;0.0;0.0;0.0;0.0;9.99957495085e-10
103040000000;5037;103040000000;odom;base_link;0.27431674527;6.96495028103e-05;0.0;0.0;0.0;0.000127541048884;0.999999991867;5.13927013105;-0.000108198604429;0.0;0.0;0.0;-0.000411293499336;-0.000108198604429;5.56514552216;0.0;0.0;0.0;1.61886791664;0.0;0.0;4.99622070082e-07;-1.50475125164e-23;-6.32007080935e-15;0.0;0.0;0.0;-1.50475125164e-23;4.99245844078e-07;-2.51638803322e-28;0.0;0.0;0.0;-6.32007080935e-15;-2.51638788938e-28;4.99245844077e-07;0.0;-0.000411293499336;1.61886791664;0.0;0.0;0.0;6.16445201985;0.507077698831;0.0;0.0;0.0;0.0;6.65425547348e-07;0.000790086218652;0.0;0.0;0.0;0.0;0.0;0.0;0.000790086218652;0.0;0.0;0.0;0.0;0.0;0.0;4.99433745189e-07;-3.88762120995e-27;-1.52407971568e-23;0.0;0.0;0.0;-3.88762120995e-27;4.97757627729e-07;-2.53925183726e-31;0.0;0.0;0.0;-1.52407971568e-23;-2.53925027926e-31;4.97757627729e-07;0.0;0.0;0.0;0.0;0.0;0.0;9.99957495085e-10
103060000000;5038;103060000000;odom;base_link;0.284316618876;7.22003492496e-05;0.0;0.0;0.0;0.000127547190937;0.999999991866;5.14027055599;-0.0001167148467;0.0;0.0;0.0;-0.000427233027291;-0.0001167148467;5.59959759941;0.0;0.0;0.0;1.68135494456;0.0;0.0;4.99622070082e-07;-4.59916165768e-23;-6.319156541e-15;0.0;0.0;0.0;-4.59916165768e-23;4.99245844078e-07;-7.69004259578e-28;0.0;0.0;0.0;-6.319156541e-15;-7.69004256077e-28;4.99245844077e-07;0.0;-0.000427233027291;1.68135494456;0.0;0.0;0.0;6.16565203179;0.506988747134;0.0;0.0;0.0;0.0;4.62441123955e-07;0.000790086218623;0.0;0.0;0.0;0.0;0.0;0.0;0.000790086218623;0.0;0.0;0.0;0.0;0.0;0.0;4.99433745189e-07;-3.88729549768e-27;-1.5238592398e-23;0.0;0.0;0.0;-3.88729549768e-27;4.97757627729e-07;-2.53867367691e-31;0.0;0.0;0.0;-1.5238592398e-23;-2.53867872693e-31;4.97757627729e-07;0.0;0.0;0.0;0.0;0.0;0.0;9.99957495085e-10
103080000000;5039;103080000000;odom;base_link;0.294316494711;7.47513088341e-05;0.0;0.0;0.0;0.000127552064671;0.999999991865;5.14127098102;-0.000125552931919;0.0;0.0;0.0;-0.00044317367095;-0.000125552931919;5.63531059065;0.0;0.0;0.0;1.74384358269;0.0;0.0;4.99622070082e-07;-3.19614994622e-23;-6.31825373627e-15;0.0;0.0;0.0;-3.19614994622e-23;4.99245844078e-07;-5.34336888383e-28;0.0;0.0;0.0;-6.31825373627e-15;-5.34336900828e-28;4.99245844077e-07;0.0;-0.00044317367095;1.74384358269;0.0;0.0;0.0;6.16685204373;0.506900911276;0.0;0.0;0.0;0.0;5.6666861845e-07;0.000790086218596;0.0;0.0;0.0;0.0;0.0;0.0;0.000790086218596;0.0;0.0;0.0;0.0;0.0;0.0;4.99433745189e-07;-3.88686529838e-27;-1.52364152838e-23;0.0;0.0;0.0;-3.88686529838e-27;4.97757627729e-07;-2.53803198124e-31;0.0;0.0;0.0;-1.52364152838e-23;-2.538032316e-31;4.97757627729e-07;0.0;0.0;0.0;0.0;0.0;0.0;9.99957495085e-10
103100000000;5040;103100000000;odom;base_link;0.304316372742;7.73023712368e-05;0.0;0.0;0.0;0.000127558079992;0.999999991864;5.14227140613;-0.000134712781743;0.0;0.0;0.0;-0.000459115399417;-0.000134712781743;5.67228417826;0.0;0.0;0.0;1.8063339594;0.0;0.0;4.99622070082e-07;-3.91565589707e-23;-6.31736226594e-15;0.0;0.0;0.0;-3.91565589707e-23;4.99245844078e-07;-6.54532557379e-28;0.0;0.0;0.0;-6.31736226594e-15;-6.54532555398e-28;4.99245844077e-07;0.0;-0.000459115399417;1.8063339594;0.0;0.0;0.0;6.16805205567;0.506814178425;0.0;0.0;0.0;0.0;7.11920336232e-07;0.000790086218569;0.0;0.0;0.0;0.0;0.0;0.0;0.000790086218569;0.0;0.0;0.0;0.0;0.0;0.0;4.99433745189e-07;-3.88649720388e-27;-1.52342655024e-23;0.0;0.0;0.0;-3.88649720388e-27;4.97757627729e-07;-2.53743222807e-31;0.0;0.0;0.0;-1.52342655024e-23;-2.53743299978e-31;4.97757627729e-07;0.0;0.0;0.0;0.0;0.0;0.0;9.99957495085e-10
103129000000;5041;103129000000;odom;base_link;0.318756011971;8.09862961832e-05;0.0;0.0;0.0;0.000127566426496;0.999999991863;5.14372185014;-0.000148576576253;0.0;0.0;0.0;-0.000482250340828;-0.000148576576253;5.72817549485;0.0;0.0;0.0;1.89701563001;0.0;0.0;9.98153276816e-07;-6.00521313446e-23;-1.55168134983e-14;0.0;0.0;0.0;-6.00521313446e-23;9.96316749061e-07;-5.04595686803e-28;0.0;0.0;0.0;-1.55168134983e-14;-5.04595708147e-28;9.9631674906e-07;0.0;-0.000482250340828;1.89701563001;0.0;0.0;0.0;6.16979206761;0.504287572134;0.0;0.0;0.0;0.0;4.27629094191e-07;0.000506229476255;0.0;0.0;0.0;0.0;0.0;0.0;0.000506229476255;0.0;0.0;0.0;0.0;0.0;0.0;9.97233744246e-07;-2.38886753221e-27;-9.36322617815e-24;0.0;0.0;0.0;-2.38886753221e-27;9.89070770402e-07;-7.83667079833e-32;0.0;0.0;0.0;-9.36322617815e-24;-7.83663990255e-32;9.89070770402e-07;0.0;0.0;0.0;0.0;0.0;0.0;0.000178927429417
103149000000;5042;103149000000;odom;base_link;0.32875665201;8.35378344782e-05;0.0;0.0;0.0;0.00012757155997;0.999999991863;5.14472227545;-0.0001585247806;0.0;0.0;0.0;-0.00049819484978;-0.0001585247806;5.76823708554;0.0;0.0;0.0;1.9595099684;0.0;0.0;9.98153276816e-07;-7.68867374285e-23;-1.55138538205e-14;0.0;0.0;0.0;-7.68867374285e-23;9.96316749061e-07;-6.45919832726e-28;0.0;0.0;0.0;-1.55138538205e-14;-6.45919838122e-28;9.9631674906e-07;0.0;-0.00049819484978;1.9595099684;0.0;0.0;0.0;6.17099207955;0.504233691908;0.0;0.0;0.0;0.0;5.4755936944e-07;0.000506229476244;0.0;0.0;0.0;0.0;0.0;0.0;0.000506229476244;0.0;0.0;0.0;0.0;0.0;0.0;9.97233744246e-07;-2.38850799848e-27;-9.36144027269e-24;0.0;0.0;0.0;-2.38850799848e-27;9.89070770402e-07;-7.83400703376e-32;0.0;0.0;0.0;-9.36144027269e-24;-7.83401823935e-32;9.89070770402e-07;0.0;0.0;0.0;0.0;0.0;0.0;0.000178927429417
103169000000;5043;103169000000;odom;base_link;0.338757284622;8.60894734529e-05;0.0;0.0;0.0;0.0001275761163;0.999999991862;5.14572270084;-0.000168794553348;0.0;0.0;0.0;-0.000514140558354;-0.000168794553348;5.80955822299;0.0;0.0;0.0;2.02200648702;0.0;0.0;9.98153276816e-07;-5.80190016566e-23;-1.55109313467e-14;0.0;0.0;0.0;-5.80190016566e-23;9.96316749061e-07;-4.87325111836e-28;0.0;0.0;0.0;-1.55109313467e-14;-4.87325111996e-28;9.9631674906e-07;0.0;-0.000514140558354;2.02200648702;0.0;0.0;0.0;6.17219209149;0.504180489022;0.0;0.0;0.0;0.0;4.13306844627e-07;0.000506229476234;0.0;0.0;0.0;0.0;0.0;0.0;0.000506229476234;0.0;0.0;0.0;0.0;0.0;0.0;9.97233744246e-07;-2.38814326065e-27;-9.3596768166e-24;0.0;0.0;0.0;-2.38814326065e-27;9.89070770402e-07;-7.83138531522e-32;0.0;0.0;0.0;-9.3596768166e-24;-7.83139440791e-32;9.89070770402e-07;0.0;0.0;0.0;0.0;0.0;0.0;0.000178927429417
103180000000;5044;103180000000;odom;base_link;0.344315906191;8.7507768191e-05;0.0;0.0;0.0;0.000127578221668;0.999999991862;5.14627310738;-0.00017456892741;0.0;0.0;0.0;-0.00052289454592;-0.00017456892741;5.83277847588;0.0;0.0;0.0;2.05631536711;0.0;0.0;4.99622070082e-07;-2.8705455937e-23;-6.31390701208e-15;0.0;0.0;0.0;-2.8705455937e-23;4.99245844078e-07;-4.79571738958e-28;0.0;0.0;0.0;-6.31390701208e-15;-4.79571742485e-28;4.99245844077e-07;0.0;-0.00052289454592;2.05631536711;0.0;0.0;0.0;6.17285210343;0.506478010924;0.0;0.0;0.0;0.0;3.45277559569e-07;0.000790086218468;0.0;0.0;0.0;0.0;0.0;0.0;0.000790086218468;0.0;0.0;0.0;0.0;0.0;0.0;4.99433745189e-07;-3.88500085304e-27;-1.52259331553e-23;0.0;0.0;0.0;-3.88500085304e-27;4.97757627729e-07;-2.53506592822e-31;0.0;0.0;0.0;-1.52259331553e-23;-2.53506519627e-31;4.97757627729e-07;0.0;0.0;0.0;0.0;0.0;0.0;9.99957495085e-10
103200000000;5045;103200000000;odom;base_link;0.354315794732;9.00593434093e-05;0.0;0.0;0.0;0.000127582858244;0.999999991861;5.1472735329;-0.000185336766306;0.0;0.0;0.0;-0.000538842171163;-0.000185336766306;5.87605061453;0.0;0.0;0.0;2.11881630976;0.0;0.0;4.99622070082e-07;-2.38461680959e-23;-6.31307017435e-15;0.0;0.0;0.0;-2.38461680959e-23;4.99245844078e-07;-3.9833656432e-28;0.0;0.0;0.0;-6.31307017435e-15;-3.98336557142e-28;4.99245844077e-07;0.0;-0.000538842171163;2.11881630976;0.0;0.0;0.0;6.17405211537;0.506396593583;0.0;0.0;0.0;0.0;8.27478571545e-07;0.000790086218445;0.0;0.0;0.0;0.0;0.0;0.0;0.000790086218445;0.0;0.0;0.0;0.0;0.0;0.0;4.99433745189e-07;-3.88458552293e-27;-1.52239151205e-23;0.0;0.0;0.0;-3.88458552293e-27;4.97757627729e-07;-2.53446340778e-31;0.0;0.0;0.0;-1.52239151205e-23;-2.53446263053e-31;4.97757627729e-07;0.0;0.0;0.0;0.0;0.0;0.0;9.99957495085e-10
103220000000;5046;103220000000;odom;base_link;0.364315685288;9.26110356618e-05;0.0;0.0;0.0;0.000127590544986;0.99999999186;5.1482739585;-0.000196426081035;0.0;0.0;0.0;-0.000554791157009;-0.000196426081035;5.92058164162;0.0;0.0;0.0;2.18131972964;0.0;0.0;4.99622070082e-07;-5.71245438389e-23;-6.31224385813e-15;0.0;0.0;0.0;-5.71245438389e-23;4.99245844078e-07;-9.5410786332e-28;0.0;0.0;0.0;-6.31224385813e-15;-9.54107820219e-28;4.99245844077e-07;0.0;-0.000554791157009;2.18131972964;0.0;0.0;0.0;6.17525212731;0.506316199877;0.0;0.0;0.0;0.0;5.9497026399e-07;0.000790086218421;0.0;0.0;0.0;0.0;0.0;0.0;0.000790086218421;0.0;0.0;0.0;0.0;0.0;0.0;4.99433745189e-07;-3.88436535057e-27;-1.52219224583e-23;0.0;0.0;0.0;-3.88436535057e-27;4.97757627729e-07;-2.53399015338e-31;0.0;0.0;0.0;-1.52219224583e-23;-2.53399201577e-31;4.97757627729e-07;0.0;0.0;0.0;0.0;0.0;0.0;9.99957495085e-10
103249000000;5047;103249000000;odom;base_link;0.378759742584;9.62970073076e-05;0.0;0.0;0.0;0.000127597811699;0.999999991859;5.14972440322;-0.00021308827881;0.0;0.0;0.0;-0.000577935819401;-0.00021308827881;5.98743286984;0.0;0.0;0.0;2.2720167721;0.0;0.0;9.98153276816e-07;-5.59642890534e-23;-1.54996042733e-14;0.0;0.0;0.0;-5.59642890534e-23;9.96316749061e-07;-4.69724467255e-28;0.0;0.0;0.0;-1.54996042733e-14;-4.69724472384e-28;9.9631674906e-07;0.0;-0.000577935819401;2.2720167721;0.0;0.0;0.0;6.17699213925;0.503974283221;0.0;0.0;0.0;0.0;3.98945166742e-07;0.000506229476196;0.0;0.0;0.0;0.0;0.0;0.0;0.000506229476196;0.0;0.0;0.0;0.0;0.0;0.0;9.97233744246e-07;-2.38680515491e-27;-9.35284192327e-24;0.0;0.0;0.0;-2.38680515491e-27;9.89070770402e-07;-7.82135920968e-32;0.0;0.0;0.0;-9.35284192327e-24;-7.82131692496e-32;9.89070770402e-07;0.0;0.0;0.0;0.0;0.0;0.0;0.000178927429417
103269000000;5048;103269000000;odom;base_link;0.388760339398;9.88491597674e-05;0.0;0.0;0.0;0.000127602941981;0.999999991859;5.15072482903;-0.000224965197657;0.0;0.0;0.0;-0.000593888043887;-0.000224965197657;6.03504779015;0.0;0.0;0.0;2.3345259852;0.0;0.0;9.98153276816e-07;-7.8480338283e-23;-1.54968609509e-14;0.0;0.0;0.0;-7.8480338283e-23;9.96316749061e-07;-6.58584849611e-28;0.0;0.0;0.0;-1.54968609509e-14;-6.58584806866e-28;9.9631674906e-07;0.0;-0.000593888043887;2.3345259852;0.0;0.0;0.0;6.17819215119;0.50392434212;0.0;0.0;0.0;0.0;5.59484921931e-07;0.000506229476188;0.0;0.0;0.0;0.0;0.0;0.0;0.000506229476188;0.0;0.0;0.0;0.0;0.0;0.0;9.97233744246e-07;-2.38647875296e-27;-9.35118656928e-24;0.0;0.0;0.0;-2.38647875296e-27;9.89070770402e-07;-7.81884142779e-32;0.0;0.0;0.0;-9.35118656928e-24;-7.81881850312e-32;9.89070770402e-07;0.0;0.0;0.0;0.0;0.0;0.0;0.000178927429417
103289000000;5049;103289000000;odom;base_link;0.398760929319;0.00010140141788;0.0;0.0;0.0;0.000127608779582;0.999999991858;5.15172525491;-0.000237163426499;0.0;0.0;0.0;-0.000609841678475;-0.000237163426499;6.08392073762;0.0;0.0;0.0;2.39703808563;0.0;0.0;9.98153276816e-07;-8.28778172637e-23;-1.54941521221e-14;0.0;0.0;0.0;-8.28778172637e-23;9.96316749061e-07;-6.95367809378e-28;0.0;0.0;0.0;-1.54941521221e-14;-6.95367841505e-28;9.9631674906e-07;0.0;-0.000609841678475;2.39703808563;0.0;0.0;0.0;6.17939216313;0.503875029071;0.0;0.0;0.0;0.0;5.90921974007e-07;0.000506229476179;0.0;0.0;0.0;0.0;0.0;0.0;0.000506229476179;0.0;0.0;0.0;0.0;0.0;0.0;9.97233744246e-07;-2.38617088586e-27;-9.34955202913e-24;0.0;0.0;0.0;-2.38617088586e-27;9.89070770402e-07;-7.81639210545e-32;0.0;0.0;0.0;-9.34955202913e-24;-7.81634545272e-32;9.89070770402e-07;0.0;0.0;0.0;0.0;0.0;0.0;0.000178927429417
103300000000;5050;103300000000;odom;base_link;0.404315267137;0.000102818982455;0.0;0.0;0.0;0.000127611814252;0.999999991858;5.15227566172;-0.000243997303736;0.0;0.0;0.0;-0.000618601365902;-0.000243997303736;6.11128969964;0.0;0.0;0.0;2.43136051721;0.0;0.0;4.99622070082e-07;-4.10097548563e-23;-6.30904119582e-15;0.0;0.0;0.0;-4.10097548563e-23;4.99245844078e-07;-6.84607227387e-28;0.0;0.0;0.0;-6.30904119582e-15;-6.84607238186e-28;4.99245844077e-07;0.0;-0.000618601365902;2.43136051721;0.0;0.0;0.0;6.18005217507;0.506004607097;0.0;0.0;0.0;0.0;5.03605090847e-07;0.000790086218335;0.0;0.0;0.0;0.0;0.0;0.0;0.000790086218335;0.0;0.0;0.0;0.0;0.0;0.0;4.99433745189e-07;-3.88303077931e-27;-1.52141992358e-23;0.0;0.0;0.0;-3.88303077931e-27;4.97757627729e-07;-2.53183218094e-31;0.0;0.0;0.0;-1.52141992358e-23;-2.5318363339e-31;4.97757627729e-07;0.0;0.0;0.0;0.0;0.0;0.0;9.99957495085e-10
103329000000;5051;103329000000;odom;base_link;0.418762088827;0.00010650626832;0.0;0.0;0.0;0.000127620812126;0.999999991856;5.15372610692;-0.000262523712905;0.0;0.0;0.0;-0.000641753399773;-0.000262523712905;6.18543982802;0.0;0.0;0.0;2.52207139834;0.0;0.0;9.98153276816e-07;-1.04303973643e-22;-1.54888362193e-14;0.0;0.0;0.0;-1.04303973643e-22;9.96316749061e-07;-8.74835716081e-28;0.0;0.0;0.0;-1.54888362193e-14;-8.74835769512e-28;9.9631674906e-07;0.0;-0.000641753399773;2.52207139834;0.0;0.0;0.0;6.18179218701;0.503778255747;0.0;0.0;0.0;0.0;7.43895860426e-07;0.000506229476162;0.0;0.0;0.0;0.0;0.0;0.0;0.000506229476162;0.0;0.0;0.0;0.0;0.0;0.0;9.97233744246e-07;-2.38557729863e-27;-9.34634434899e-24;0.0;0.0;0.0;-2.38557729863e-27;9.89070770402e-07;-7.81178848763e-32;0.0;0.0;0.0;-9.34634434899e-24;-7.81179618608e-32;9.89070770402e-07;0.0;0.0;0.0;0.0;0.0;0.0;0.000178927429417
103349000000;5052;103349000000;odom;base_link;0.428762658588;0.000109058885084;0.0;0.0;0.0;0.000127627830307;0.999999991856;5.15472653305;-0.000275685768736;0.0;0.0;0.0;-0.00065771169477;-0.000275685768736;6.23808554814;0.0;0.0;0.0;2.58459283209;0.0;0.0;9.98153276816e-07;-9.5263757069e-23;-1.54862282959e-14;0.0;0.0;0.0;-9.5263757069e-23;9.96316749061e-07;-7.98882090721e-28;0.0;0.0;0.0;-1.54862282959e-14;-7.9888212279e-28;9.9631674906e-07;0.0;-0.00065771169477;2.58459283209;0.0;0.0;0.0;6.18299219895;0.503730780023;0.0;0.0;0.0;0.0;6.79536735065e-07;0.000506229476154;0.0;0.0;0.0;0.0;0.0;0.0;0.000506229476154;0.0;0.0;0.0;0.0;0.0;0.0;9.97233744246e-07;-2.38530685315e-27;-9.3447706964e-24;0.0;0.0;0.0;-2.38530685315e-27;9.89070770402e-07;-7.80967136504e-32;0.0;0.0;0.0;-9.3447706964e-24;-7.80964552038e-32;9.89070770402e-07;0.0;0.0;0.0;0.0;0.0;0.0;0.000178927429417
103369000000;5053;103369000000;odom;base_link;0.438763221801;0.000111611635274;0.0;0.0;0.0;0.000127633613844;0.999999991855;5.15572695927;-0.00028916907899;0.0;0.0;0.0;-0.000673671685663;-0.00028916907899;6.29198844953;0.0;0.0;0.0;2.64711759614;0.0;0.0;9.98153276816e-07;-7.44568943965e-23;-1.5483653167e-14;0.0;0.0;0.0;-7.44568943965e-23;9.96316749061e-07;-6.24293414246e-28;0.0;0.0;0.0;-1.5483653167e-14;-6.24293397783e-28;9.9631674906e-07;0.0;-0.000673671685663;2.64711759614;0.0;0.0;0.0;6.18419221089;0.503683901452;0.0;0.0;0.0;0.0;5.31221159789e-07;0.000506229476146;0.0;0.0;0.0;0.0;0.0;0.0;0.000506229476146;0.0;0.0;0.0;0.0;0.0;0.0;9.97233744246e-07;-2.38501808746e-27;-9.34321683239e-24;0.0;0.0;0.0;-2.38501808746e-27;9.89070770402e-07;-7.80732283595e-32;0.0;0.0;0.0;-9.34321683239e-24;-7.80734205931e-32;9.89070770402e-07;0.0;0.0;0.0;0.0;0.0;0.0;0.000178927429417
103389000000;5054;103389000000;odom;base_link;0.448763778552;0.000114164499595;0.0;0.0;0.0;0.000127640356206;0.999999991854;5.15672738556;-0.00030297356771;0.0;0.0;0.0;-0.000689633280067;-0.00030297356771;6.3471483404;0.0;0.0;0.0;2.70964579783;0.0;0.0;9.98153276816e-07;-1.02616721909e-22;-1.54811104209e-14;0.0;0.0;0.0;-1.02616721909e-22;9.96316749061e-07;-8.60255426371e-28;0.0;0.0;0.0;-1.54811104209e-14;-8.60255458417e-28;9.9631674906e-07;0.0;-0.000689633280067;2.70964579783;0.0;0.0;0.0;6.18539222283;0.503637612547;0.0;0.0;0.0;0.0;7.32203329308e-07;0.000506229476139;0.0;0.0;0.0;0.0;0.0;0.0;0.000506229476139;0.0;0.0;0.0;0.0;0.0;0.0;9.97233744246e-07;-2.38475255355e-27;-9.3416825086e-24;0.0;0.0;0.0;-2.38475255355e-27;9.89070770402e-07;-7.80517328315e-32;0.0;0.0;0.0;-9.3416825086e-24;-7.8051736908e-32;9.89070770402e-07;0.0;0.0;0.0;0.0;0.0;0.0;0.000178927429417
103409000000;5055;103409000000;odom;base_link;0.458764328924;0.000116717493513;0.0;0.0;0.0;0.000127644913377;0.999999991853;5.15772781194;-0.000317099252679;0.0;0.0;0.0;-0.000705596600852;-0.000317099252679;6.40356503657;0.0;0.0;0.0;2.77217754318;0.0;0.0;9.98153276816e-07;-4.67164575028e-23;-1.54785996512e-14;0.0;0.0;0.0;-4.67164575028e-23;9.96316749061e-07;-3.9157711854e-28;0.0;0.0;0.0;-1.54785996512e-14;-3.9157709185e-28;9.9631674906e-07;0.0;-0.000705596600852;2.77217754318;0.0;0.0;0.0;6.18659223477;0.503591905914;0.0;0.0;0.0;0.0;3.33432628186e-07;0.000506229476131;0.0;0.0;0.0;0.0;0.0;0.0;0.000506229476131;0.0;0.0;0.0;0.0;0.0;0.0;9.97233744246e-07;-2.38445056222e-27;-9.34016747975e-24;0.0;0.0;0.0;-2.38445056222e-27;9.89070770402e-07;-7.80293833404e-32;0.0;0.0;0.0;-9.34016747975e-24;-7.80290375797e-32;9.89070770402e-07;0.0;0.0;0.0;0.0;0.0;0.0;0.000178927429417
103429000000;5056;103429000000;odom;base_link;0.468764873003;0.000119270571;0.0;0.0;0.0;0.000127649962013;0.999999991853;5.15872823839;-0.000331545982486;0.0;0.0;0.0;-0.000721561388726;-0.000331545982486;6.46123836134;0.0;0.0;0.0;2.83471293691;0.0;0.0;9.98153276816e-07;-8.07155978988e-23;-1.54761204566e-14;0.0;0.0;0.0;-8.07155978988e-23;9.96316749061e-07;-6.76434760869e-28;0.0;0.0;0.0;-1.54761204566e-14;-6.76434739571e-28;9.9631674906e-07;0.0;-0.000721561388726;2.83471293691;0.0;0.0;0.0;6.18779224671;0.503546774253;0.0;0.0;0.0;0.0;5.76119485365e-07;0.000506229476124;0.0;0.0;0.0;0.0;0.0;0.0;0.000506229476124;0.0;0.0;0.0;0.0;0.0;0.0;9.97233744246e-07;-2.38416302852e-27;-9.33867150366e-24;0.0;0.0;0.0;-2.38416302852e-27;9.89070770402e-07;-7.80076052521e-32;0.0;0.0;0.0;-9.33867150366e-24;-7.80080312665e-32;9.89070770402e-07;0.0;0.0;0.0;0.0;0.0;0.0;0.000178927429417
103440000000;5057;103440000000;odom;base_link;0.474314607364;0.000120687417795;0.0;0.0;0.0;0.00012765223507;0.999999991852;5.15927864551;-0.000339615465833;0.0;0.0;0.0;-0.000730328542341;-0.000339615465833;6.49344315521;0.0;0.0;0.0;2.86905354016;0.0;0.0;4.99622070082e-07;-3.99493302278e-23;-6.30381223257e-15;0.0;0.0;0.0;-3.99493302278e-23;4.99245844078e-07;-6.66352002514e-28;0.0;0.0;0.0;-6.30381223257e-15;-6.66352033038e-28;4.99245844077e-07;0.0;-0.000730328542341;2.86905354016;0.0;0.0;0.0;6.18845225865;0.505495869755;0.0;0.0;0.0;0.0;2.13070479313e-07;0.000790086218203;0.0;0.0;0.0;0.0;0.0;0.0;0.000790086218203;0.0;0.0;0.0;0.0;0.0;0.0;4.99433745189e-07;-3.88106206944e-27;-1.52015895871e-23;0.0;0.0;0.0;-3.88106206944e-27;4.97757627729e-07;-2.52845012255e-31;0.0;0.0;0.0;-1.52015895871e-23;-2.52845123973e-31;4.97757627729e-07;0.0;0.0;0.0;0.0;0.0;0.0;9.99957495085e-10
103469000000;5058;103469000000;odom;base_link;0.488765942611;0.000124376980931;0.0;0.0;0.0;0.000127657583321;0.999999991852;5.16072909156;-0.000361402481538;0.0;0.0;0.0;-0.000753495495132;-0.000361402481538;6.58035422668;0.0;0.0;0.0;2.95979508185;0.0;0.0;9.98153276816e-07;-7.48845713554e-23;-1.54712552117e-14;0.0;0.0;0.0;-7.48845713554e-23;9.96316749061e-07;-6.27369158255e-28;0.0;0.0;0.0;-1.54712552117e-14;-6.27369174374e-28;9.9631674906e-07;0.0;-0.000753495495132;2.95979508185;0.0;0.0;0.0;6.19019227059;0.503458207084;0.0;0.0;0.0;0.0;5.34654017459e-07;0.00050622947611;0.0;0.0;0.0;0.0;0.0;0.0;0.00050622947611;0.0;0.0;0.0;0.0;0.0;0.0;9.97233744246e-07;-2.38355572222e-27;-9.33573575594e-24;0.0;0.0;0.0;-2.38355572222e-27;9.89070770402e-07;-7.79629472701e-32;0.0;0.0;0.0;-9.33573575594e-24;-7.79632850219e-32;9.89070770402e-07;0.0;0.0;0.0;0.0;0.0;0.0;0.000178927429417
103500000000;5059;103500000000;odom;base_link;0.504314351241;0.000128346808494;0.0;0.0;0.0;0.000127663163404;0.999999991851;5.16227992551;-0.000385410891135;0.0;0.0;0.0;-0.000778234941432;-0.000385410891135;6.6760726198;0.0;0.0;0.0;3.05669115569;0.0;0.0;4.99622070082e-07;-2.29350159514e-23;-6.30170924115e-15;0.0;0.0;0.0;-2.29350159514e-23;4.99245844078e-07;-3.82426835548e-28;0.0;0.0;0.0;-6.30170924115e-15;-3.8242682826e-28;4.99245844077e-07;0.0;-0.000778234941432;3.05669115569;0.0;0.0;0.0;6.19205229447;0.505291263964;0.0;0.0;0.0;0.0;2.57936493118e-07;0.000790086218153;0.0;0.0;0.0;0.0;0.0;0.0;0.000790086218153;0.0;0.0;0.0;0.0;0.0;0.0;4.99433745189e-07;-3.88007729763e-27;-1.51965182218e-23;0.0;0.0;0.0;-3.88007729763e-27;4.97757627729e-07;-2.5269642032e-31;0.0;0.0;0.0;-1.51965182218e-23;-2.5269631683e-31;4.97757627729e-07;0.0;0.0;0.0;0.0;0.0;0.0;9.99957495085e-10
103520000000;5060;103520000000;odom;base_link;0.514314269288;0.00013090008077;0.0;0.0;0.0;0.000127666111645;0.999999991851;5.16328035234;-0.000401317849793;0.0;0.0;0.0;-0.000794206689355;-0.000401317849793;6.73946117241;0.0;0.0;0.0;3.11924509592;0.0;0.0;4.99622070082e-07;-1.77739407288e-23;-6.30102580534e-15;0.0;0.0;0.0;-1.77739407288e-23;4.99245844078e-07;-2.96337021321e-28;0.0;0.0;0.0;-6.30102580534e-15;-2.96337037556e-28;4.99245844077e-07;0.0;-0.000794206689355;3.11924509592;0.0;0.0;0.0;6.19325230641;0.505224770445;0.0;0.0;0.0;0.0;4.0931298393e-07;0.000790086218137;0.0;0.0;0.0;0.0;0.0;0.0;0.000790086218137;0.0;0.0;0.0;0.0;0.0;0.0;4.99433745189e-07;-3.87972903512e-27;-1.51948701158e-23;0.0;0.0;0.0;-3.87972903512e-27;4.97757627729e-07;-2.52645999449e-31;0.0;0.0;0.0;-1.51948701158e-23;-2.52646158201e-31;4.97757627729e-07;0.0;0.0;0.0;0.0;0.0;0.0;9.99957495085e-10
103540000000;5061;103540000000;odom;base_link;0.52431418902;0.000133453419593;0.0;0.0;0.0;0.000127669982483;0.99999999185;5.16428077926;-0.000417545664487;0.0;0.0;0.0;-0.00081017992489;-0.000417545664487;6.80410552202;0.0;0.0;0.0;3.18180323442;0.0;0.0;4.99622070082e-07;-2.81997576363e-23;-6.30035096683e-15;0.0;0.0;0.0;-2.81997576363e-23;4.99245844078e-07;-4.70111687773e-28;0.0;0.0;0.0;-6.30035096683e-15;-4.70111718484e-28;4.99245844077e-07;0.0;-0.00081017992489;3.18180323442;0.0;0.0;0.0;6.19445231835;0.505159113291;0.0;0.0;0.0;0.0;3.22170219434e-07;0.000790086218122;0.0;0.0;0.0;0.0;0.0;0.0;0.000790086218122;0.0;0.0;0.0;0.0;0.0;0.0;4.99433745189e-07;-3.87944920089e-27;-1.51932427423e-23;0.0;0.0;0.0;-3.87944920089e-27;4.97757627729e-07;-2.52601120041e-31;0.0;0.0;0.0;-1.51932427423e-23;-2.52601156738e-31;4.97757627729e-07;0.0;0.0;0.0;0.0;0.0;0.0;9.99957495085e-10
103560000000;5062;103560000000;odom;base_link;0.534314110421;0.000136006831666;0.0;0.0;0.0;0.000127674013551;0.99999999185;5.16528120625;-0.000434094336121;0.0;0.0;0.0;-0.000826154714452;-0.000434094336121;6.8700055377;0.0;0.0;0.0;3.24436566781;0.0;0.0;4.99622070082e-07;-2.21933772069e-23;-6.29968461768e-15;0.0;0.0;0.0;-2.21933772069e-23;4.99245844078e-07;-3.69941581232e-28;0.0;0.0;0.0;-6.29968461768e-15;-3.69941585744e-28;4.99245844077e-07;0.0;-0.000826154714452;3.24436566781;0.0;0.0;0.0;6.19565233029;0.505094281997;0.0;0.0;0.0;0.0;6.52603680282e-07;0.000790086218107;0.0;0.0;0.0;0.0;0.0;0.0;0.000790086218107;0.0;0.0;0.0;0.0;0.0;0.0;4.99433745189e-07;-3.87912996515e-27;-1.51916358408e-23;0.0;0.0;0.0;-3.87912996515e-27;4.97757627729e-07;-2.52554351101e-31;0.0;0.0;0.0;-1.51916358408e-23;-2.52554021858e-31;4.97757627729e-07;0.0;0.0;0.0;0.0;0.0;0.0;9.99957495085e-10
103589000000;5063;103589000000;odom;base_link;0.548769008895;0.000139697968932;0.0;0.0;0.0;0.000127678610676;0.999999991849;5.16673165301;-0.000458673763069;0.0;0.0;0.0;-0.000849334125127;-0.000458673763069;6.96784476397;0.0;0.0;0.0;3.33513957358;0.0;0.0;9.98153276816e-07;6.13452081845e-24;-1.54573770547e-14;0.0;0.0;0.0;6.13452081845e-24;9.96316749061e-07;5.13373365691e-29;0.0;0.0;0.0;-1.54573770547e-14;5.13373648249e-29;9.9631674906e-07;0.0;-0.000849334125127;3.33513957358;0.0;0.0;0.0;6.19739234223;0.503205572967;0.0;0.0;0.0;0.0;-4.38385542521e-08;0.000506229476072;0.0;0.0;0.0;0.0;0.0;0.0;0.000506229476072;0.0;0.0;0.0;0.0;0.0;0.0;9.97233744246e-07;-2.38180945726e-27;-9.32736150786e-24;0.0;0.0;0.0;-2.38180945726e-27;9.89070770402e-07;-7.78367346341e-32;0.0;0.0;0.0;-9.32736150786e-24;-7.78369383504e-32;9.89070770402e-07;0.0;0.0;0.0;0.0;0.0;0.0;0.000178927429417
103609000000;5064;103609000000;odom;base_link;0.55876949999;0.000142251693953;0.0;0.0;0.0;0.000127682667242;0.999999991849;5.16773208021;-0.000476008511466;0.0;0.0;0.0;-0.000865312600865;-0.000476008511466;7.03682097239;0.0;0.0;0.0;3.39771230629;0.0;0.0;9.98153276816e-07;-8.36456106066e-23;-1.54551647774e-14;0.0;0.0;0.0;-8.36456106066e-23;9.96316749061e-07;-7.00034320941e-28;0.0;0.0;0.0;-1.54551647774e-14;-7.00034353005e-28;9.9631674906e-07;0.0;-0.000865312600865;3.39771230629;0.0;0.0;0.0;6.19859235417;0.503165301989;0.0;0.0;0.0;0.0;5.97750006742e-07;0.000506229476066;0.0;0.0;0.0;0.0;0.0;0.0;0.000506229476066;0.0;0.0;0.0;0.0;0.0;0.0;9.97233744246e-07;-2.38154463399e-27;-9.32602659292e-24;0.0;0.0;0.0;-2.38154463399e-27;9.89070770402e-07;-7.78161199639e-32;0.0;0.0;0.0;-9.32602659292e-24;-7.78163712888e-32;9.89070770402e-07;0.0;0.0;0.0;0.0;0.0;0.0;0.000178927429417
103629000000;5065;103629000000;odom;base_link;0.568769985591;0.000144805507755;0.0;0.0;0.0;0.000127686046947;0.999999991848;5.16873250749;-0.000493664116242;0.0;0.0;0.0;-0.000881292823207;-0.000493664116242;7.10705242865;0.0;0.0;0.0;3.46028966587;0.0;0.0;9.98153276816e-07;-3.12748039026e-23;-1.5452980326e-14;0.0;0.0;0.0;-3.12748039026e-23;9.96316749061e-07;-2.61713061563e-28;0.0;0.0;0.0;-1.5452980326e-14;-2.61712992078e-28;9.9631674906e-07;0.0;-0.000881292823207;3.46028966587;0.0;0.0;0.0;6.19979236611;0.503125537745;0.0;0.0;0.0;0.0;2.23507997565e-07;0.000506229476061;0.0;0.0;0.0;0.0;0.0;0.0;0.000506229476061;0.0;0.0;0.0;0.0;0.0;0.0;9.97233744246e-07;-2.3812709525e-27;-9.3247084685e-24;0.0;0.0;0.0;-2.3812709525e-27;9.89070770402e-07;-7.77967608462e-32;0.0;0.0;0.0;-9.3247084685e-24;-7.77967111912e-32;9.89070770402e-07;0.0;0.0;0.0;0.0;0.0;0.0;0.000178927429417
103649000000;5066;103649000000;odom;base_link;0.578770465773;0.000147359380046;0.0;0.0;0.0;0.000127689182891;0.999999991848;5.16973293485;-0.00051164046135;0.0;0.0;0.0;-0.000897274627199;-0.00051164046135;7.17853903081;0.0;0.0;0.0;3.52287174365;0.0;0.0;9.98153276816e-07;-4.90615892684e-23;-1.54508233509e-14;0.0;0.0;0.0;-4.90615892684e-23;9.96316749061e-07;-4.10487480422e-28;0.0;0.0;0.0;-1.54508233509e-14;-4.10487496339e-28;9.9631674906e-07;0.0;-0.000897274627199;3.52287174365;0.0;0.0;0.0;6.20099237805;0.503086273865;0.0;0.0;0.0;0.0;3.50677437854e-07;0.000506229476055;0.0;0.0;0.0;0.0;0.0;0.0;0.000506229476055;0.0;0.0;0.0;0.0;0.0;0.0;9.97233744246e-07;-2.38099700595e-27;-9.32340692359e-24;0.0;0.0;0.0;-2.38099700595e-27;9.89070770402e-07;-7.77773580779e-32;0.0;0.0;0.0;-9.32340692359e-24;-7.77765004101e-32;9.89070770402e-07;0.0;0.0;0.0;0.0;0.0;0.0;0.000178927429417
103669000000;5067;103669000000;odom;base_link;0.588770940611;0.00014991332461;0.0;0.0;0.0;0.00012769510992;0.999999991847;5.17073336229;-0.000529937583115;0.0;0.0;0.0;-0.000913258121484;-0.000529937583115;7.25128068309;0.0;0.0;0.0;3.58545862982;0.0;0.0;9.98153276816e-07;-9.70588120487e-23;-1.54486935067e-14;0.0;0.0;0.0;-9.70588120487e-23;9.96316749061e-07;-8.11956281915e-28;0.0;0.0;0.0;-1.54486935067e-14;-8.11956271192e-28;9.9631674906e-07;0.0;-0.000913258121484;3.58545862982;0.0;0.0;0.0;6.20219238999;0.503047504059;0.0;0.0;0.0;0.0;6.93865646244e-07;0.00050622947605;0.0;0.0;0.0;0.0;0.0;0.0;0.00050622947605;0.0;0.0;0.0;0.0;0.0;0.0;9.97233744246e-07;-2.38077977105e-27;-9.32212174977e-24;0.0;0.0;0.0;-2.38077977105e-27;9.89070770402e-07;-7.77586604331e-32;0.0;0.0;0.0;-9.32212174977e-24;-7.77585577606e-32;9.89070770402e-07;0.0;0.0;0.0;0.0;0.0;0.0;0.000178927429417
103689000000;5068;103689000000;odom;base_link;0.598771410179;0.000152467396965;0.0;0.0;0.0;0.000127702445415;0.999999991846;5.17173378981;-0.000548555675819;0.0;0.0;0.0;-0.000929243674534;-0.000548555675819;7.32527729575;0.0;0.0;0.0;3.64805041344;0.0;0.0;9.98153276816e-07;-1.04379683571e-22;-1.54465904522e-14;0.0;0.0;0.0;-1.04379683571e-22;9.96316749061e-07;-8.73085910014e-28;0.0;0.0;0.0;-1.54465904522e-14;-8.73085925942e-28;9.9631674906e-07;0.0;-0.000929243674534;3.64805041344;0.0;0.0;0.0;6.20339240193;0.503009222111;0.0;0.0;0.0;0.0;7.46296337926e-07;0.000506229476044;0.0;0.0;0.0;0.0;0.0;0.0;0.000506229476044;0.0;0.0;0.0;0.0;0.0;0.0;9.97233744246e-07;-2.38059266192e-27;-9.3208527412e-24;0.0;0.0;0.0;-2.38059266192e-27;9.89070770402e-07;-7.77421412678e-32;0.0;0.0;0.0;-9.3208527412e-24;-7.77420986993e-32;9.89070770402e-07;0.0;0.0;0.0;0.0;0.0;0.0;0.000178927429417
103720000000;5069;103720000000;odom;base_link;0.614313539983;0.00015643704252;0.0;0.0;0.0;0.000127710036345;0.999999991845;5.17328462516;-0.000578033785437;0.0;0.0;0.0;-0.000954013571613;-0.000578033785437;7.44239606389;0.0;0.0;0.0;3.7450309578;0.0;0.0;4.99622070082e-07;-3.42507442162e-23;-6.29464691813e-15;0.0;0.0;0.0;-3.42507442162e-23;4.99245844078e-07;-5.70469389816e-28;0.0;0.0;0.0;-6.29464691813e-15;-5.7046936817e-28;4.99245844077e-07;0.0;-0.000954013571613;3.7450309578;0.0;0.0;0.0;6.20525242581;0.504604144244;0.0;0.0;0.0;0.0;1.45788696842e-07;0.000790086218;0.0;0.0;0.0;0.0;0.0;0.0;0.000790086218;0.0;0.0;0.0;0.0;0.0;0.0;4.99433745189e-07;-3.87717283614e-27;-1.51794874247e-23;0.0;0.0;0.0;-3.87717283614e-27;4.97757627729e-07;-2.52224014339e-31;0.0;0.0;0.0;-1.51794874247e-23;-2.52224191142e-31;4.97757627729e-07;0.0;0.0;0.0;0.0;0.0;0.0;9.99957495085e-10
103740000000;5070;103740000000;odom;base_link;0.624313475765;0.000158991248574;0.0;0.0;0.0;0.000127711855252;0.999999991845;5.17428505289;-0.000597470087707;0.0;0.0;0.0;-0.000970004252825;-0.000597470087707;7.51959223926;0.0;0.0;0.0;3.80763620074;0.0;0.0;4.99622070082e-07;-1.00286091117e-23;-6.29405232958e-15;0.0;0.0;0.0;-1.00286091117e-23;4.99245844078e-07;-1.6701750324e-28;0.0;0.0;0.0;-6.29405232958e-15;-1.67017513027e-28;4.99245844077e-07;0.0;-0.000970004252825;3.80763620074;0.0;0.0;0.0;6.20645243775;0.504546293932;0.0;0.0;0.0;0.0;2.93290042213e-07;0.000790086217988;0.0;0.0;0.0;0.0;0.0;0.0;0.000790086217988;0.0;0.0;0.0;0.0;0.0;0.0;4.99433745189e-07;-3.87682398471e-27;-1.5178053574e-23;0.0;0.0;0.0;-3.87682398471e-27;4.97757627729e-07;-2.52178093205e-31;0.0;0.0;0.0;-1.5178053574e-23;-2.52178258953e-31;4.97757627729e-07;0.0;0.0;0.0;0.0;0.0;0.0;9.99957495085e-10
103760000000;5071;103760000000;odom;base_link;0.634313413078;0.000161545498159;0.0;0.0;0.0;0.000127716028277;0.999999991844;5.17528548071;-0.000617227040673;0.0;0.0;0.0;-0.000985996535069;-0.000617227040673;7.59804311814;0.0;0.0;0.0;3.87024664142;0.0;0.0;4.99622070082e-07;-2.01774481042e-23;-6.29346522149e-15;0.0;0.0;0.0;-2.01774481042e-23;4.99245844078e-07;-3.36005985393e-28;0.0;0.0;0.0;-6.29346522149e-15;-3.36006000784e-28;4.99245844077e-07;0.0;-0.000985996535069;3.87024664142;0.0;0.0;0.0;6.20765244969;0.504489171333;0.0;0.0;0.0;0.0;7.98245993069e-07;0.000790086217976;0.0;0.0;0.0;0.0;0.0;0.0;0.000790086217976;0.0;0.0;0.0;0.0;0.0;0.0;4.99433745189e-07;-3.8765624335e-27;-1.51766377624e-23;0.0;0.0;0.0;-3.8765624335e-27;4.97757627729e-07;-2.52137481063e-31;0.0;0.0;0.0;-1.51766377624e-23;-2.52137484705e-31;4.97757627729e-07;0.0;0.0;0.0;0.0;0.0;0.0;9.99957495085e-10
103780000000;5072;103780000000;odom;base_link;0.644313351909;0.000164099856624;0.0;0.0;0.0;0.000127723242814;0.999999991843;5.17628590861;-0.000637304893106;0.0;0.0;0.0;-0.00100199084537;-0.000637304893106;7.67774863672;0.0;0.0;0.0;3.93286236409;0.0;0.0;4.99622070082e-07;-5.49205626071e-23;-6.29288549973e-15;0.0;0.0;0.0;-5.49205626071e-23;4.99245844078e-07;-9.14483263526e-28;0.0;0.0;0.0;-6.29288549973e-15;-9.14483256241e-28;4.99245844077e-07;0.0;-0.00100199084537;3.93286236409;0.0;0.0;0.0;6.20885246163;0.504432767291;0.0;0.0;0.0;0.0;4.92913423854e-07;0.000790086217965;0.0;0.0;0.0;0.0;0.0;0.0;0.000790086217965;0.0;0.0;0.0;0.0;0.0;0.0;4.99433745189e-07;-3.87648559313e-27;-1.51752397629e-23;0.0;0.0;0.0;-3.87648559313e-27;4.97757627729e-07;-2.52109237164e-31;0.0;0.0;0.0;-1.51752397629e-23;-2.52108761152e-31;4.97757627729e-07;0.0;0.0;0.0;0.0;0.0;0.0;9.99957495085e-10
103800000000;5073;103800000000;odom;base_link;0.654313292243;0.000166654344676;0.0;0.0;0.0;0.000127728261108;0.999999991843;5.17728633658;-0.000657703734247;0.0;0.0;0.0;-0.00101798733518;-0.000657703734247;7.75870873673;0.0;0.0;0.0;3.99548345197;0.0;0.0;4.99622070082e-07;-3.39073024303e-23;-6.29231307124e-15;0.0;0.0;0.0;-3.39073024303e-23;4.99245844078e-07;-5.64539728964e-28;0.0;0.0;0.0;-6.29231307124e-15;-5.64539728924e-28;4.99245844077e-07;0.0;-0.00101798733518;3.99548345197;0.0;0.0;0.0;6.21005247357;0.50437707276;0.0;0.0;0.0;0.0;5.32786469508e-07;0.000790086217954;0.0;0.0;0.0;0.0;0.0;0.0;0.000790086217954;0.0;0.0;0.0;0.0;0.0;0.0;4.99433745189e-07;-3.87625904512e-27;-1.51738593512e-23;0.0;0.0;0.0;-3.87625904512e-27;4.97757627729e-07;-2.5207152117e-31;0.0;0.0;0.0;-1.51738593512e-23;-2.52071477767e-31;4.97757627729e-07;0.0;0.0;0.0;0.0;0.0;0.0;9.99957495085e-10
103820000000;5074;103820000000;odom;base_link;0.664313234068;0.000169208935215;0.0;0.0;0.0;0.000127733627451;0.999999991842;5.17828676465;-0.00067842346501;0.0;0.0;0.0;-0.00103398585742;-0.00067842346501;7.84092336533;0.0;0.0;0.0;4.05810998723;0.0;0.0;4.99622070082e-07;-3.66468814926e-23;-6.29174784422e-15;0.0;0.0;0.0;-3.66468814926e-23;4.99245844078e-07;-6.10097544514e-28;0.0;0.0;0.0;-6.29174784422e-15;-6.10097556925e-28;4.99245844077e-07;0.0;-0.00103398585742;4.05810998723;0.0;0.0;0.0;6.21125248551;0.504322078808;0.0;0.0;0.0;0.0;5.52415874355e-07;0.000790086217943;0.0;0.0;0.0;0.0;0.0;0.0;0.000790086217943;0.0;0.0;0.0;0.0;0.0;0.0;4.99433745189e-07;-3.8760752518e-27;-1.51724963058e-23;0.0;0.0;0.0;-3.8760752518e-27;4.97757627729e-07;-2.52037465852e-31;0.0;0.0;0.0;-1.51724963058e-23;-2.52037385169e-31;4.97757627729e-07;0.0;0.0;0.0;0.0;0.0;0.0;9.99957495085e-10
103840000000;5075;103840000000;odom;base_link;0.67431317737;0.000171763634252;0.0;0.0;0.0;0.000127740173152;0.999999991841;5.17928719279;-0.000699464117288;0.0;0.0;0.0;-0.00104998647027;-0.000699464117288;7.924392475;0.0;0.0;0.0;4.12074205102;0.0;0.0;4.99622070082e-07;-3.79934731103e-23;-6.29118972793e-15;0.0;0.0;0.0;-3.79934731103e-23;4.99245844078e-07;-6.32459514647e-28;0.0;0.0;0.0;-6.29118972793e-15;-6.32459518266e-28;4.99245844077e-07;0.0;-0.00104998647027;4.12074205102;0.0;0.0;0.0;6.21245249745;0.504267776613;0.0;0.0;0.0;0.0;9.70702571328e-07;0.000790086217933;0.0;0.0;0.0;0.0;0.0;0.0;0.000790086217933;0.0;0.0;0.0;0.0;0.0;0.0;4.99433745189e-07;-3.87590021436e-27;-1.51711504079e-23;0.0;0.0;0.0;-3.87590021436e-27;4.97757627729e-07;-2.52003407377e-31;0.0;0.0;0.0;-1.51711504079e-23;-2.52003825862e-31;4.97757627729e-07;0.0;0.0;0.0;0.0;0.0;0.0;9.99957495085e-10
103860000000;5076;103860000000;odom;base_link;0.684313122135;0.000174318485384;0.0;0.0;0.0;0.000127749433106;0.99999999184;5.18028762101;-0.00072082588328;0.0;0.0;0.0;-0.00106598946553;-0.00072082588328;8.00911602348;0.0;0.0;0.0;4.18337972351;0.0;0.0;4.99622070082e-07;-6.6761333425e-23;-6.29063863283e-15;0.0;0.0;0.0;-6.6761333425e-23;4.99245844078e-07;-1.11124720818e-27;0.0;0.0;0.0;-6.29063863283e-15;-1.11124722971e-27;4.99245844077e-07;0.0;-0.00106598946553;4.18337972351;0.0;0.0;0.0;6.21365250939;0.504214157464;0.0;0.0;0.0;0.0;7.96732452078e-07;0.000790086217922;0.0;0.0;0.0;0.0;0.0;0.0;0.000790086217922;0.0;0.0;0.0;0.0;0.0;0.0;4.99433745189e-07;-3.87588647499e-27;-1.51698214416e-23;0.0;0.0;0.0;-3.87588647499e-27;4.97757627729e-07;-2.51980311504e-31;0.0;0.0;0.0;-1.51698214416e-23;-2.51980182973e-31;4.97757627729e-07;0.0;0.0;0.0;0.0;0.0;0.0;9.99957495085e-10
103880000000;5077;103880000000;odom;base_link;0.694313068351;0.000176873513589;0.0;0.0;0.0;0.000127755554033;0.999999991839;5.18128804932;-0.000742508889094;0.0;0.0;0.0;-0.00108199502022;-0.000742508889094;8.09509397366;0.0;0.0;0.0;4.24602308386;0.0;0.0;4.99622070082e-07;-5.47897435483e-23;-6.29009447038e-15;0.0;0.0;0.0;-5.47897435483e-23;4.99245844078e-07;-9.11900354332e-28;0.0;0.0;0.0;-6.29009447038e-15;-9.11900347166e-28;4.99245844077e-07;0.0;-0.00108199502022;4.24602308386;0.0;0.0;0.0;6.21485252133;0.504161212756;0.0;0.0;0.0;0.0;5.42501248064e-08;0.000790086217912;0.0;0.0;0.0;0.0;0.0;0.0;0.000790086217912;0.0;0.0;0.0;0.0;0.0;0.0;4.99433745189e-07;-3.87577921928e-27;-1.51685091935e-23;0.0;0.0;0.0;-3.87577921928e-27;4.97757627729e-07;-2.51951848055e-31;0.0;0.0;0.0;-1.51685091935e-23;-2.51951689801e-31;4.97757627729e-07;0.0;0.0;0.0;0.0;0.0;0.0;9.99957495085e-10
103900000000;5078;103900000000;odom;base_link;0.704313016003;0.000179428627253;0.0;0.0;0.0;0.000127757709259;0.999999991839;5.18228847771;-0.000764512765076;0.0;0.0;0.0;-0.00109800258511;-0.000764512765076;8.1823262935;0.0;0.0;0.0;4.30867221023;0.0;0.0;4.99622070082e-07;-3.72221685048e-24;-6.28955715322e-15;0.0;0.0;0.0;-3.72221685048e-24;4.99245844078e-07;-6.19459085007e-29;0.0;0.0;0.0;-6.28955715322e-15;-6.1945926218e-29;4.99245844077e-07;0.0;-0.00109800258511;4.30867221023;0.0;0.0;0.0;6.21605253327;0.504108933992;0.0;0.0;0.0;0.0;7.08552355876e-07;0.000790086217903;0.0;0.0;0.0;0.0;0.0;0.0;0.000790086217903;0.0;0.0;0.0;0.0;0.0;0.0;4.99433745189e-07;-3.87540808252e-27;-1.51672134528e-23;0.0;0.0;0.0;-3.87540808252e-27;4.97757627729e-07;-2.51905601989e-31;0.0;0.0;0.0;-1.51672134528e-23;-2.51905744317e-31;4.97757627729e-07;0.0;0.0;0.0;0.0;0.0;0.0;9.99957495085e-10
103920000000;5079;103920000000;odom;base_link;0.714312965078;0.000181983816367;0.0;0.0;0.0;0.000127763870583;0.999999991838;5.18328890618;-0.000786837475243;0.0;0.0;0.0;-0.00111401211578;-0.000786837475243;8.27081295598;0.0;0.0;0.0;4.37132717984;0.0;0.0;4.99622070082e-07;-4.87158694963e-23;-6.28902659508e-15;0.0;0.0;0.0;-4.87158694963e-23;4.99245844078e-07;-8.10671347728e-28;0.0;0.0;0.0;-6.28902659508e-15;-8.10671369393e-28;4.99245844077e-07;0.0;-0.00111401211578;4.37132717984;0.0;0.0;0.0;6.21725254521;0.50405731278;0.0;0.0;0.0;0.0;3.39266680747e-07;0.000790086217893;0.0;0.0;0.0;0.0;0.0;0.0;0.000790086217893;0.0;0.0;0.0;0.0;0.0;0.0;4.99433745189e-07;-3.87534544526e-27;-1.51659340114e-23;0.0;0.0;0.0;-3.87534544526e-27;4.97757627729e-07;-2.51880455197e-31;0.0;0.0;0.0;-1.51659340114e-23;-2.51880550522e-31;4.97757627729e-07;0.0;0.0;0.0;0.0;0.0;0.0;9.99957495085e-10
103940000000;5080;103940000000;odom;base_link;0.72431291556;0.000184539110624;0.0;0.0;0.0;0.000127768092947;0.999999991838;5.18428933474;-0.000809483160029;0.0;0.0;0.0;-0.00113002381673;-0.000809483160029;8.36055393894;0.0;0.0;0.0;4.43398806894;0.0;0.0;4.99622070082e-07;-2.3319019997e-23;-6.28850271069e-15;0.0;0.0;0.0;-2.3319019997e-23;4.99245844078e-07;-3.88014980698e-28;0.0;0.0;0.0;-6.28850271069e-15;-3.8801498054e-28;4.99245844077e-07;0.0;-0.00113002381673;4.43398806894;0.0;0.0;0.0;6.21845255715;0.504006340833;0.0;0.0;0.0;0.0;6.7825432681e-07;0.000790086217884;0.0;0.0;0.0;0.0;0.0;0.0;0.000790086217884;0.0;0.0;0.0;0.0;0.0;0.0;4.99433745189e-07;-3.8750972392e-27;-1.51646706638e-23;0.0;0.0;0.0;-3.8750972392e-27;4.97757627729e-07;-2.51843335228e-31;0.0;0.0;0.0;-1.51646706638e-23;-2.51843616613e-31;4.97757627729e-07;0.0;0.0;0.0;0.0;0.0;0.0;9.99957495085e-10
103960000000;5081;103960000000;odom;base_link;0.734312867437;0.000187094506294;0.0;0.0;0.0;0.000127775017445;0.999999991837;5.18528976337;-0.00083244981772;0.0;0.0;0.0;-0.00114603768377;-0.00083244981772;8.45154922508;0.0;0.0;0.0;4.49665495283;0.0;0.0;4.99622070082e-07;-4.66240974977e-23;-6.28798541589e-15;0.0;0.0;0.0;-4.66240974977e-23;4.99245844078e-07;-7.75734146723e-28;0.0;0.0;0.0;-6.28798541589e-15;-7.75734150507e-28;4.99245844077e-07;0.0;-0.00114603768377;4.49665495283;0.0;0.0;0.0;6.21965256909;0.503956009967;0.0;0.0;0.0;0.0;7.40942894557e-07;0.000790086217874;0.0;0.0;0.0;0.0;0.0;0.0;0.000790086217874;0.0;0.0;0.0;0.0;0.0;0.0;4.99433745189e-07;-3.87500955461e-27;-1.5163423207e-23;0.0;0.0;0.0;-3.87500955461e-27;4.97757627729e-07;-2.51816933005e-31;0.0;0.0;0.0;-1.5163423207e-23;-2.51817029778e-31;4.97757627729e-07;0.0;0.0;0.0;0.0;0.0;0.0;9.99957495085e-10
103980000000;5082;103980000000;odom;base_link;0.744312820692;0.00018965004396;0.0;0.0;0.0;0.000127781224775;0.999999991836;5.18629019209;-0.000855737649673;0.0;0.0;0.0;-0.0011620539891;-0.000855737649673;8.54379880183;0.0;0.0;0.0;4.55932790588;0.0;0.0;4.99622070082e-07;-5.09299255548e-23;-6.28747462754e-15;0.0;0.0;0.0;-5.09299255548e-23;4.99245844078e-07;-8.47305899443e-28;0.0;0.0;0.0;-6.28747462754e-15;-8.47305892144e-28;4.99245844077e-07;0.0;-0.0011620539891;4.55932790588;0.0;0.0;0.0;6.22085258103;0.503906312099;0.0;0.0;0.0;0.0;2.59256602801e-07;0.000790086217866;0.0;0.0;0.0;0.0;0.0;0.0;0.000790086217866;0.0;0.0;0.0;0.0;0.0;0.0;4.99433745189e-07;-3.87492380986e-27;-1.51621914405e-23;0.0;0.0;0.0;-3.87492380986e-27;4.97757627729e-07;-2.5179095123e-31;0.0;0.0;0.0;-1.51621914405e-23;-2.51790309985e-31;4.97757627729e-07;0.0;0.0;0.0;0.0;0.0;0.0;9.99957495085e-10
104000000000;5083;104000000000;odom;base_link;0.754312775311;0.00019220568198;0.0;0.0;0.0;0.000127784197771;0.999999991836;5.18729062089;-0.000879346488399;0.0;0.0;0.0;-0.00117807249306;-0.000879346488399;8.63730266129;0.0;0.0;0.0;4.62200700154;0.0;0.0;4.99622070082e-07;-1.78124490781e-23;-6.28697026355e-15;0.0;0.0;0.0;-1.78124490781e-23;4.99245844078e-07;-2.96316604459e-28;0.0;0.0;0.0;-6.28697026355e-15;-2.96316602725e-28;4.99245844077e-07;0.0;-0.00117807249306;4.62200700154;0.0;0.0;0.0;6.22205259297;0.503857239247;0.0;0.0;0.0;0.0;4.15550145876e-07;0.000790086217857;0.0;0.0;0.0;0.0;0.0;0.0;0.000790086217857;0.0;0.0;0.0;0.0;0.0;0.0;4.99433745189e-07;-3.87465480866e-27;-1.51609751664e-23;0.0;0.0;0.0;-3.87465480866e-27;4.97757627729e-07;-2.51753509426e-31;0.0;0.0;0.0;-1.51609751664e-23;-2.51752938079e-31;4.97757627729e-07;0.0;0.0;0.0;0.0;0.0;0.0;9.99957495085e-10
104029000000;5084;104029000000;odom;base_link;0.768778652873;0.000195902782262;0.0;0.0;0.0;0.000127789640971;0.999999991835;5.18874107028;-0.000914164084547;0.0;0.0;0.0;-0.00120131275742;-0.000914164084547;8.77516903745;0.0;0.0;0.0;4.71294121938;0.0;0.0;9.98153276816e-07;-4.62137723599e-23;-1.54146265533e-14;0.0;0.0;0.0;-4.62137723599e-23;9.96316749061e-07;-3.85757761243e-28;0.0;0.0;0.0;-1.54146265533e-14;-3.85757777292e-28;9.9631674906e-07;0.0;-0.00120131275742;4.71294121938;0.0;0.0;0.0;6.22379260491;0.502427406317;0.0;0.0;0.0;0.0;3.30980598625e-07;0.000506229475973;0.0;0.0;0.0;0.0;0.0;0.0;0.000506229475973;0.0;0.0;0.0;0.0;0.0;0.0;9.97233744246e-07;-2.37728804504e-27;-9.30156533722e-24;0.0;0.0;0.0;-2.37728804504e-27;9.89070770402e-07;-7.7473049288e-32;0.0;0.0;0.0;-9.30156533722e-24;-7.74732136309e-32;9.89070770402e-07;0.0;0.0;0.0;0.0;0.0;0.0;0.000178927429417
104049000000;5085;104049000000;odom;base_link;0.77877903898;0.000198458711838;0.0;0.0;0.0;0.000127796251972;0.999999991834;5.18974149929;-0.000938559168786;0.0;0.0;0.0;-0.0012173362079;-0.000938559168786;8.87174591744;0.0;0.0;0.0;4.77563519465;0.0;0.0;9.98153276816e-07;-1.11642238824e-22;-1.54129519692e-14;0.0;0.0;0.0;-1.11642238824e-22;9.96316749061e-07;-9.31793643346e-28;0.0;0.0;0.0;-1.54129519692e-14;-9.31793686067e-28;9.9631674906e-07;0.0;-0.0012173362079;4.77563519465;0.0;0.0;0.0;6.22499261685;0.502396926043;0.0;0.0;0.0;0.0;7.9987318137e-07;0.00050622947597;0.0;0.0;0.0;0.0;0.0;0.0;0.00050622947597;0.0;0.0;0.0;0.0;0.0;0.0;9.97233744246e-07;-2.37715326721e-27;-9.30055487287e-24;0.0;0.0;0.0;-2.37715326721e-27;9.89070770402e-07;-7.74606854305e-32;0.0;0.0;0.0;-9.30055487287e-24;-7.74610417158e-32;9.89070770402e-07;0.0;0.0;0.0;0.0;0.0;0.0;0.000178927429417
104069000000;5086;104069000000;odom;base_link;0.788779421012;0.000201014786844;0.0;0.0;0.0;0.000127804712577;0.999999991833;5.19074192837;-0.000963275540833;0.0;0.0;0.0;-0.00123336221075;-0.000963275540833;8.96957707768;0.0;0.0;0.0;4.83833556487;0.0;0.0;9.98153276816e-07;-1.20139441112e-22;-1.54112984421e-14;0.0;0.0;0.0;-1.20139441112e-22;9.96316749061e-07;-1.00261279894e-27;0.0;0.0;0.0;-1.54112984421e-14;-1.0026127562e-27;9.9631674906e-07;0.0;-0.00123336221075;4.83833556487;0.0;0.0;0.0;6.22619262879;0.502366829087;0.0;0.0;0.0;0.0;8.60854409817e-07;0.000506229475967;0.0;0.0;0.0;0.0;0.0;0.0;0.000506229475967;0.0;0.0;0.0;0.0;0.0;0.0;9.97233744246e-07;-2.3770559183e-27;-9.29955711455e-24;0.0;0.0;0.0;-2.3770559183e-27;9.89070770402e-07;-7.74495930039e-32;0.0;0.0;0.0;-9.29955711455e-24;-7.74493175069e-32;9.89070770402e-07;0.0;0.0;0.0;0.0;0.0;0.0;0.000178927429417
104080000000;5087;104080000000;odom;base_link;0.794312607122;0.000202429121399;0.0;0.0;0.0;0.000127807909931;0.999999991833;5.19129233692;-0.000976991713456;0.0;0.0;0.0;-0.00124216813013;-0.000976991713456;9.02386092704;0.0;0.0;0.0;4.87278624743;0.0;0.0;4.99622070082e-07;-5.95154506852e-23;-6.28501544484e-15;0.0;0.0;0.0;-5.95154506852e-23;4.99245844078e-07;-9.89753443679e-28;0.0;0.0;0.0;-6.28501544484e-15;-9.89753429176e-28;4.99245844077e-07;0.0;-0.00124216813013;4.87278624743;0.0;0.0;0.0;6.22685264073;0.503667041824;0.0;0.0;0.0;0.0;2.37661327351e-07;0.000790086217825;0.0;0.0;0.0;0.0;0.0;0.0;0.000790086217825;0.0;0.0;0.0;0.0;0.0;0.0;4.99433745189e-07;-3.87422825416e-27;-1.51562611195e-23;0.0;0.0;0.0;-3.87422825416e-27;4.97757627729e-07;-2.51647689536e-31;0.0;0.0;0.0;-1.51562611195e-23;-2.51647239572e-31;4.97757627729e-07;0.0;0.0;0.0;0.0;0.0;0.0;9.99957495085e-10
104109000000;5088;104109000000;odom;base_link;0.80878017306;0.000206127321468;0.0;0.0;0.0;0.00012781320263;0.999999991832;5.19274278678;-0.00101367201614;0.0;0.0;0.0;-0.00126542162378;-0.00101367201614;9.16900229181;0.0;0.0;0.0;4.96375576683;0.0;0.0;9.98153276816e-07;-6.98075743924e-23;-1.54080535e-14;0.0;0.0;0.0;-6.98075743924e-23;9.96316749061e-07;-5.82446523064e-28;0.0;0.0;0.0;-1.54080535e-14;-5.82446507023e-28;9.9631674906e-07;0.0;-0.00126542162378;4.96375576683;0.0;0.0;0.0;6.22859265267;0.502307765803;0.0;0.0;0.0;0.0;5.00249107946e-07;0.00050622947596;0.0;0.0;0.0;0.0;0.0;0.0;0.00050622947596;0.0;0.0;0.0;0.0;0.0;0.0;9.97233744246e-07;-2.37671259116e-27;-9.29759907716e-24;0.0;0.0;0.0;-2.37671259116e-27;9.89070770402e-07;-7.74219209466e-32;0.0;0.0;0.0;-9.29759907716e-24;-7.74222876873e-32;9.89070770402e-07;0.0;0.0;0.0;0.0;0.0;0.0;0.000178927429417
104129000000;5089;104129000000;odom;base_link;0.818780543175;0.000208683711542;0.0;0.0;0.0;0.000127816942744;0.999999991831;5.19374321612;-0.0010393518267;0.0;0.0;0.0;-0.00128145463438;-0.0010393518267;9.27059638272;0.0;0.0;0.0;5.02647573481;0.0;0.0;9.98153276816e-07;-4.42394435036e-23;-1.54064615638e-14;0.0;0.0;0.0;-4.42394435036e-23;9.96316749061e-07;-3.6908355296e-28;0.0;0.0;0.0;-1.54064615638e-14;-3.69083606273e-28;9.9631674906e-07;0.0;-0.00128145463438;5.02647573481;0.0;0.0;0.0;6.22979266461;0.502278789964;0.0;0.0;0.0;0.0;3.17004597903e-07;0.000506229475957;0.0;0.0;0.0;0.0;0.0;0.0;0.000506229475957;0.0;0.0;0.0;0.0;0.0;0.0;9.97233744246e-07;-2.37653650086e-27;-9.2966384836e-24;0.0;0.0;0.0;-2.37653650086e-27;9.89070770402e-07;-7.74084886853e-32;0.0;0.0;0.0;-9.2966384836e-24;-7.74085511508e-32;9.89070770402e-07;0.0;0.0;0.0;0.0;0.0;0.0;0.000178927429417
104149000000;5090;104149000000;odom;base_link;0.828780909414;0.000211240171642;0.0;0.0;0.0;0.000127820588312;0.999999991831;5.19474364553;-0.00106535265407;0.0;0.0;0.0;-0.00129748979637;-0.00106535265407;9.37344482774;0.0;0.0;0.0;5.08920237019;0.0;0.0;9.98153276816e-07;-5.34140223745e-23;-1.54048896423e-14;0.0;0.0;0.0;-5.34140223745e-23;9.96316749061e-07;-4.45575895853e-28;0.0;0.0;0.0;-1.54048896423e-14;-4.45575901076e-28;9.9631674906e-07;0.0;-0.00129748979637;5.08920237019;0.0;0.0;0.0;6.23099267655;0.502250178419;0.0;0.0;0.0;0.0;3.82818923089e-07;0.000506229475954;0.0;0.0;0.0;0.0;0.0;0.0;0.000506229475954;0.0;0.0;0.0;0.0;0.0;0.0;9.97233744246e-07;-2.37636178681e-27;-9.29568996709e-24;0.0;0.0;0.0;-2.37636178681e-27;9.89070770402e-07;-7.73952686256e-32;0.0;0.0;0.0;-9.29568996709e-24;-7.73949235651e-32;9.89070770402e-07;0.0;0.0;0.0;0.0;0.0;0.0;0.000178927429417
104169000000;5091;104169000000;odom;base_link;0.838781271826;0.00021379670787;0.0;0.0;0.0;0.000127825244735;0.99999999183;5.19574407502;-0.00109167455029;0.0;0.0;0.0;-0.00131352716459;-0.00109167455029;9.47754765563;0.0;0.0;0.0;5.15193573899;0.0;0.0;9.98153276816e-07;-6.95509389711e-23;-1.54033374829e-14;0.0;0.0;0.0;-6.95509389711e-23;9.96316749061e-07;-5.80129941078e-28;0.0;0.0;0.0;-1.54033374829e-14;-5.80129941048e-28;9.9631674906e-07;0.0;-0.00131352716459;5.15193573899;0.0;0.0;0.0;6.23219268849;0.502221926559;0.0;0.0;0.0;0.0;4.98568757448e-07;0.000506229475952;0.0;0.0;0.0;0.0;0.0;0.0;0.000506229475952;0.0;0.0;0.0;0.0;0.0;0.0;9.97233744246e-07;-2.37620908429e-27;-9.29475337528e-24;0.0;0.0;0.0;-2.37620908429e-27;9.89070770402e-07;-7.73818318653e-32;0.0;0.0;0.0;-9.29475337528e-24;-7.73821275337e-32;9.89070770402e-07;0.0;0.0;0.0;0.0;0.0;0.0;0.000178927429417
104189000000;5092;104189000000;odom;base_link;0.848781630455;0.000216353339241;0.0;0.0;0.0;0.000127830228632;0.99999999183;5.1967445046;-0.00111831763758;0.0;0.0;0.0;-0.00132956687449;-0.00111831763758;9.58290489908;0.0;0.0;0.0;5.2146759064;0.0;0.0;9.98153276816e-07;-6.90743462641e-23;-1.54018048363e-14;0.0;0.0;0.0;-6.90743462641e-23;9.96316749061e-07;-5.76099182933e-28;0.0;0.0;0.0;-1.54018048363e-14;-5.76099161562e-28;9.9631674906e-07;0.0;-0.00132956687449;5.2146759064;0.0;0.0;0.0;6.23339270043;0.502194029834;0.0;0.0;0.0;0.0;4.95203843597e-07;0.000506229475949;0.0;0.0;0.0;0.0;0.0;0.0;0.000506229475949;0.0;0.0;0.0;0.0;0.0;0.0;9.97233744246e-07;-2.37606534842e-27;-9.29382855775e-24;0.0;0.0;0.0;-2.37606534842e-27;9.89070770402e-07;-7.73692520852e-32;0.0;0.0;0.0;-9.29382855775e-24;-7.73694035416e-32;9.89070770402e-07;0.0;0.0;0.0;0.0;0.0;0.0;0.000178927429417
104209000000;5093;104209000000;odom;base_link;0.858781985346;0.000218910064715;0.0;0.0;0.0;0.000127833822851;0.999999991829;5.19774493426;-0.00114528193792;0.0;0.0;0.0;-0.00134560893618;-0.00114528193792;9.6895165947;0.0;0.0;0.0;5.2774229368;0.0;0.0;9.98153276816e-07;-4.16236416977e-23;-1.54002914562e-14;0.0;0.0;0.0;-4.16236416977e-23;9.96316749061e-07;-3.47121603807e-28;0.0;0.0;0.0;-1.54002914562e-14;-3.47121598517e-28;9.9631674906e-07;0.0;-0.00134560893618;5.2774229368;0.0;0.0;0.0;6.23459271237;0.502166483752;0.0;0.0;0.0;0.0;2.98384613164e-07;0.000506229475946;0.0;0.0;0.0;0.0;0.0;0.0;0.000506229475946;0.0;0.0;0.0;0.0;0.0;0.0;9.97233744246e-07;-2.37589845212e-27;-9.2929153659e-24;0.0;0.0;0.0;-2.37589845212e-27;9.89070770402e-07;-7.73568512893e-32;0.0;0.0;0.0;-9.2929153659e-24;-7.73563140007e-32;9.89070770402e-07;0.0;0.0;0.0;0.0;0.0;0.0;0.000178927429417
104229000000;5094;104229000000;odom;base_link;0.868782336544;0.000221466855108;0.0;0.0;0.0;0.000127836694067;0.999999991829;5.198745364;-0.00117256732325;0.0;0.0;0.0;-0.00136165318356;-0.00117256732325;9.79738278294;0.0;0.0;0.0;5.34017689378;0.0;0.0;9.98153276816e-07;-3.91125193844e-23;-1.53987970998e-14;0.0;0.0;0.0;-3.91125193844e-23;9.96316749061e-07;-3.26145779418e-28;0.0;0.0;0.0;-1.53987970998e-14;-3.26145817044e-28;9.9631674906e-07;0.0;-0.00136165318356;5.34017689378;0.0;0.0;0.0;6.23579272431;0.502139283877;0.0;0.0;0.0;0.0;2.80407821889e-07;0.000506229475943;0.0;0.0;0.0;0.0;0.0;0.0;0.000506229475943;0.0;0.0;0.0;0.0;0.0;0.0;9.97233744246e-07;-2.37572115046e-27;-9.2920136531e-24;0.0;0.0;0.0;-2.37572115046e-27;9.89070770402e-07;-7.73429349892e-32;0.0;0.0;0.0;-9.2920136531e-24;-7.73436246768e-32;9.89070770402e-07;0.0;0.0;0.0;0.0;0.0;0.0;0.000178927429417
104249000000;5095;104249000000;odom;base_link;0.878782684089;0.00022402370522;0.0;0.0;0.0;0.000127840746901;0.999999991828;5.19974579383;-0.00120017378889;0.0;0.0;0.0;-0.00137769959998;-0.00120017378889;9.90650350801;0.0;0.0;0.0;5.40293784013;0.0;0.0;9.98153276816e-07;-6.36964637618e-23;-1.53973215268e-14;0.0;0.0;0.0;-6.36964637618e-23;9.96316749061e-07;-5.31088679278e-28;0.0;0.0;0.0;-1.53973215268e-14;-5.31088711365e-28;9.9631674906e-07;0.0;-0.00137769959998;5.40293784013;0.0;0.0;0.0;6.23699273625;0.502112425828;0.0;0.0;0.0;0.0;4.56786112757e-07;0.000506229475941;0.0;0.0;0.0;0.0;0.0;0.0;0.000506229475941;0.0;0.0;0.0;0.0;0.0;0.0;9.97233744246e-07;-2.37556901102e-27;-9.29112327452e-24;0.0;0.0;0.0;-2.37556901102e-27;9.89070770402e-07;-7.73314870737e-32;0.0;0.0;0.0;-9.29112327452e-24;-7.73311636879e-32;9.89070770402e-07;0.0;0.0;0.0;0.0;0.0;0.0;0.000178927429417
104269000000;5096;104269000000;odom;base_link;0.888783028026;0.000226580633289;0.0;0.0;0.0;0.000127843181703;0.999999991828;5.20074622373;-0.00122810145826;0.0;0.0;0.0;-0.00139374831517;-0.00122810145826;10.0168788178;0.0;0.0;0.0;5.46570583786;0.0;0.0;9.98153276815e-07;-2.08698539109e-23;-1.53958645004e-14;0.0;0.0;0.0;-2.08698539109e-23;9.96316749061e-07;-1.73997997277e-28;0.0;0.0;0.0;-1.53958645004e-14;-1.73997967853e-28;9.9631674906e-07;0.0;-0.00139374831517;5.46570583786;0.0;0.0;0.0;6.23819274819;0.502085905281;0.0;0.0;0.0;0.0;1.49600614511e-07;0.000506229475938;0.0;0.0;0.0;0.0;0.0;0.0;0.000506229475938;0.0;0.0;0.0;0.0;0.0;0.0;9.97233744246e-07;-2.37538919173e-27;-9.29024408714e-24;0.0;0.0;0.0;-2.37538919173e-27;9.89070770402e-07;-7.73167442222e-32;0.0;0.0;0.0;-9.29024408714e-24;-7.73173917827e-32;9.89070770402e-07;0.0;0.0;0.0;0.0;0.0;0.0;0.000178927429417
104289000000;5097;104289000000;odom;base_link;0.898783368392;0.000229137601581;0.0;0.0;0.0;0.00012784503067;0.999999991828;5.20174665372;-0.00125635015024;0.0;0.0;0.0;-0.00140979910885;-0.00125635015024;10.128508764;0.0;0.0;0.0;5.52848094822;0.0;0.0;9.98153276815e-07;-2.77464967051e-23;-1.53944257866e-14;0.0;0.0;0.0;-2.77464967051e-23;9.96316749061e-07;-2.3130180264e-28;0.0;0.0;0.0;-1.53944257866e-14;-2.31301778593e-28;9.9631674906e-07;0.0;-0.00140979910885;5.52848094822;0.0;0.0;0.0;6.23939276013;0.502059717966;0.0;0.0;0.0;0.0;1.98958864107e-07;0.000506229475936;0.0;0.0;0.0;0.0;0.0;0.0;0.000506229475936;0.0;0.0;0.0;0.0;0.0;0.0;9.97233744246e-07;-2.37520147263e-27;-9.28937594978e-24;0.0;0.0;0.0;-2.37520147263e-27;9.89070770402e-07;-7.73041463742e-32;0.0;0.0;0.0;-9.28937594978e-24;-7.7304440385e-32;9.89070770402e-07;0.0;0.0;0.0;0.0;0.0;0.0;0.000178927429417
104309000000;5098;104309000000;odom;base_link;0.908783705229;0.000231694613153;0.0;0.0;0.0;0.000127848932055;0.999999991827;5.20274708379;-0.00128491990352;0.0;0.0;0.0;-0.00142585201535;-0.00128491990352;10.2413934017;0.0;0.0;0.0;5.59126323167;0.0;0.0;9.98153276815e-07;-6.55795002273e-23;-1.53930051543e-14;0.0;0.0;0.0;-6.55795002273e-23;9.96316749061e-07;-5.46634444746e-28;0.0;0.0;0.0;-1.53930051543e-14;-5.46634428745e-28;9.9631674906e-07;0.0;-0.00142585201535;5.59126323167;0.0;0.0;0.0;6.24059277207;0.502033859669;0.0;0.0;0.0;0.0;4.70444467994e-07;0.000506229475934;0.0;0.0;0.0;0.0;0.0;0.0;0.000506229475934;0.0;0.0;0.0;0.0;0.0;0.0;9.97233744246e-07;-2.37505510535e-27;-9.28851872301e-24;0.0;0.0;0.0;-2.37505510535e-27;9.89070770402e-07;-7.7292112699e-32;0.0;0.0;0.0;-9.28851872301e-24;-7.72917529595e-32;9.89070770402e-07;0.0;0.0;0.0;0.0;0.0;0.0;0.000178927429417
104340000000;5099;104340000000;odom;base_link;0.924312196659;0.000235665316479;0.0;0.0;0.0;0.000127857790648;0.999999991826;5.20429792308;-0.00132982345395;0.0;0.0;0.0;-0.00145073075138;-0.00132982345395;10.4187869418;0.0;0.0;0.0;5.6885583652;0.0;0.0;4.99622070082e-07;-4.40853515225e-23;-6.27930422496e-15;0.0;0.0;0.0;-4.40853515225e-23;4.99245844078e-07;-7.32481712172e-28;0.0;0.0;0.0;-6.27930422496e-15;-7.32481672693e-28;4.99245844077e-07;0.0;-0.00145073075138;5.6885583652;0.0;0.0;0.0;6.24245279595;0.503111358444;0.0;0.0;0.0;0.0;4.14228375754e-07;0.00079008621774;0.0;0.0;0.0;0.0;0.0;0.0;0.00079008621774;0.0;0.0;0.0;0.0;0.0;0.0;4.99433745189e-07;-3.87218815387e-27;-1.51424885086e-23;0.0;0.0;0.0;-3.87218815387e-27;4.97757627729e-07;-2.51286512278e-31;0.0;0.0;0.0;-1.51424885086e-23;-2.51286532508e-31;4.97757627729e-07;0.0;0.0;0.0;0.0;0.0;0.0;9.99957495085e-10
104360000000;5100;104360000000;odom;base_link;0.934312172945;0.000238222495867;0.0;0.0;0.0;0.000127861477275;0.999999991826;5.20529835336;-0.00135921289965;0.0;0.0;0.0;-0.00146679013458;-0.00135921289965;10.5348714125;0.0;0.0;0.0;5.75135959959;0.0;0.0;4.99622070082e-07;-2.8433220485e-23;-6.2789025711e-15;0.0;0.0;0.0;-2.8433220485e-23;4.99245844078e-07;-4.72390047603e-28;0.0;0.0;0.0;-6.2789025711e-15;-4.72390047497e-28;4.99245844077e-07;0.0;-0.00146679013458;5.75135959959;0.0;0.0;0.0;6.24365280789;0.503072279018;0.0;0.0;0.0;0.0;2.32665415421e-07;0.000790086217734;0.0;0.0;0.0;0.0;0.0;0.0;0.000790086217734;0.0;0.0;0.0;0.0;0.0;0.0;4.99433745189e-07;-3.87204836871e-27;-1.514151992e-23;0.0;0.0;0.0;-3.87204836871e-27;4.97757627729e-07;-2.51261148798e-31;0.0;0.0;0.0;-1.514151992e-23;-2.51261175559e-31;4.97757627729e-07;0.0;0.0;0.0;0.0;0.0;0.0;9.99957495085e-10
