%time,field.x,field.y,field.z
1524842709424529075,5.99998306454,5.59967488904,0.132273092614
1524842709424917936,5.99998306455,5.59967482302,0.132273092619
1524842709424992084,5.99998306455,5.599674757,0.132273092625
1524842709425056934,5.99998306455,5.59967469098,0.13227309263
1524842709426147937,5.99998306455,5.59967462496,0.132273092635
1524842709426516056,5.99998306456,5.59967455894,0.132273092641
1524842709426754951,5.99998306456,5.59967449292,0.132273092646
1524842709426954030,5.99998306456,5.5996744269,0.132273092652
1524842709427145004,5.99998306456,5.59967436088,0.132273092657
1524842709427472114,5.99998306456,5.59967429486,0.132273092662
1524842709427716970,5.99998306457,5.59967422884,0.132273092668
1524842709432234048,5.99998306457,5.59967416282,0.132273092673
1524842709433893918,5.99998306457,5.5996740968,0.132273092679
1524842709434830904,5.99998306457,5.59967403078,0.132273092684
1524842709436506986,5.99998306458,5.59967396476,0.132273092689
1524842709437011957,5.99998306458,5.59967389874,0.132273092695
1524842709456469058,5.99998306458,5.59967383273,0.1322730927
1524842709456568002,5.99998306458,5.59967376671,0.132273092705
1524842709456619024,5.99998306459,5.59967370069,0.132273092711
1524842709456656932,5.99998306459,5.59967363467,0.132273092716
1524842709527966976,5.99998306459,5.59967356865,0.132273092721
1524842709572822093,5.99998306459,5.59967350263,0.132273092727
1524842709610469102,5.9999830646,5.59967343661,0.132273092732
1524842709656048059,5.9999830646,5.59967337059,0.132273092737
1524842709689457893,5.9999830646,5.59967330458,0.132273092743
1524842709695400953,5.9999830646,5.59967323856,0.132273092748
1524842709725095033,5.9999830646,5.59967317254,0.132273092753
1524842709733150005,5.99998306461,5.59967310652,0.132273092759
1524842709760884046,5.99998306461,5.5996730405,0.132273092764
1524842709768799066,5.99998306461,5.59967297448,0.132273092769
1524842709797992944,5.99998306461,5.59967290847,0.132273092774
1524842709799426078,5.99998306462,5.59967284245,0.13227309278
1524842709825892925,5.99998306462,5.59967277643,0.132273092785
1524842709828670024,5.99998298709,5.59940458663,0.13227303253
1524842709829056978,5.99998280147,5.59746070227,0.132273035228
1524842709885792970,5.99998241088,5.59364175457,0.132273036723
1524842709895812988,5.9999818213,5.58794779663,0.132273037232
1524842709903552055,5.999981035,5.58037883415,0.132273037433
1524842709903908967,5.99998005302,5.57093486923,0.132273037558
1524842709944669961,5.9999788759,5.55961590255,0.132273037693
1524842709950114965,5.99997750397,5.54642193432,0.132273037882
1524842709970753908,5.99997593752,5.53135296455,0.132273038154
1524842709994731903,5.99997417686,5.51440899323,0.132273038532
1524842710047523975,5.99997222234,5.49559002036,0.13227303904
1524842710047944068,5.99997007434,5.47489604597,0.132273039698
1524842710069335937,5.99996773329,5.45232707013,0.132273040525
1524842710114253044,5.99996523755,5.42792041095,0.132273104971
1524842710119246959,5.99996269218,5.40292011783,0.132273095579
1524842710144584894,5.99996018395,5.37792002575,0.13227309334
1524842710197702884,5.99995769752,5.35291994913,0.132273092526
1524842710222091913,5.9999552198,5.32791987954,0.132273092183
1524842710225025892,5.99995274572,5.30291981399,0.132273091996
1524842710247313022,5.99995027323,5.27791975136,0.132273091863
1524842710270786046,5.99994780135,5.25291969121,0.132273091754
1524842710297794103,5.99994532944,5.22791963327,0.132273091658
1524842710325547933,5.99994285699,5.20291957731,0.132273091575
1524842710374756097,5.99994038355,5.17791952307,0.132273091504
1524842710410060882,5.99993790869,5.15291947029,0.132273091448
1524842710410275936,5.99993543203,5.12791941864,0.132273091408
1524842710420623064,5.99993295323,5.10291936778,0.132273091384
1524842710446221113,5.999930472,5.07791931738,0.132273091378
1524842710470844030,5.9999279881,5.05291926706,0.132273091389
1524842710494513034,5.99992550135,5.02791921646,0.132273091418
1524842710565335035,5.99992301167,5.00291916521,0.132273091464
1524842710565459012,5.99992051899,4.97791911298,0.132273091525
1524842710567364931,5.99991802335,4.95291905944,0.132273091601
1524842710620760917,5.99991552485,4.9279190043,0.13227309169
1524842710629316091,5.99991302365,4.90291894731,0.13227309179
1524842710650753974,5.99991051997,4.87791888825,0.132273091898
1524842710672519922,5.9999080141,4.85291882696,0.132273092014
1524842710717910051,5.99990550637,4.82791876332,0.132273092132
1524842710724294900,5.99990299714,4.80291869727,0.132273092252
1524842710766412973,5.99990048684,4.77791862881,0.132273092371
1524842710767366886,5.9998979759,4.75291855798,0.132273092486
1524842710798733949,5.99989546476,4.7279184849,0.132273092594
1524842710820560932,5.99989295388,4.70291840971,0.132273092693
1524842710843786001,5.99989044371,4.67791833262,0.132273092781
1524842710871371030,5.99988793467,4.65291825388,0.132273092857
1524842710897620916,5.99988542719,4.62791817378,0.132273092918
1524842710919533014,5.99988292163,4.60291809262,0.132273092963
1524842710993506908,5.99988041831,4.57791801075,0.132273092992
1524842710993891954,5.99987791752,4.55291792852,0.132273093003
1524842710997309923,5.99987541947,4.52791784631,0.132273092997
1524842711057996034,5.99987292432,4.50291776447,0.132273092974
1524842711058522939,5.99987043216,4.47791768336,0.132273092934
1524842711072540998,5.99986794302,4.45291760333,0.132273092879
1524842711125514030,5.99986545685,4.42791752468,0.13227309281
1524842711125629901,5.99986297353,4.4029174477,0.132273092728
1524842711147468090,5.99986049289,4.37791737263,0.132273092636
1524842711169291973,5.99985801469,4.35291729968,0.132273092536
1524842711194509029,5.99985553863,4.32791722899,0.132273092429
1524842711225204944,5.99985306437,4.30291716068,0.132273092319
1524842711269054889,5.99985059152,4.27791709478,0.132273092208
1524842711301523923,5.99984811967,4.25291703128,0.1322730921
1524842711326339960,5.99984564838,4.22791697013,0.132273091995
1524842711326812028,5.99984317719,4.20291691121,0.132273091898
1524842711368294000,5.99984070566,4.17791685435,0.132273091809
1524842711369054079,5.99983823334,4.15291679933,0.132273091733
1524842711412239074,5.99983575979,4.12791674589,0.132273091669
1524842711417390108,5.99983328463,4.10291669375,0.132273091621
1524842711444653987,5.99983080749,4.07791664258,0.132273091589
1524842711476407051,5.99982832805,4.05291659203,0.132273091573
1524842711490236043,5.99982584605,4.02791654174,0.132273091576
1524842711519087076,5.99982336129,4.00291649135,0.132273091595
1524842711550287008,5.99982087363,3.9779164405,0.132273091632
1524842711569045066,5.99981838299,3.95291638882,0.132273091686
1524842711595101118,5.99981588936,3.927916336,0.132273091755
1524842711638102054,5.99981339282,3.90291628171,0.132273091837
1524842711644442081,5.99981089349,3.8779162257,0.132273091931
1524842711684130907,5.99980839156,3.85291616771,0.132273092036
1524842711697662115,5.99980588729,3.82791610757,0.132273092148
1524842711719716072,5.99980338098,3.80291604512,0.132273092265
1524842711762331008,5.999800873,3.7779159803,0.132273092384
1524842711794312953,5.99979836374,3.75291591306,0.132273092504
1524842711796205997,5.99979585361,3.72791584342,0.13227309262
1524842711856874942,5.99979334306,3.70291577146,0.132273092732
1524842711860495090,5.99979083255,3.67791569732,0.132273092835
1524842711874553918,5.99978832252,3.65291562117,0.132273092929
1524842711904069900,5.99978581343,3.62791554324,0.132273093011
1524842711919590950,5.99978330568,3.6029154638,0.132273093079
1524842711943188905,5.99978079968,3.57791538315,0.132273093132
1524842711990582942,5.99977829576,3.55291530161,0.132273093168
1524842711994894981,5.99977579424,3.52791521955,0.132273093188
1524842712046211004,5.99977329536,3.50291513731,0.13227309319
1524842712054253101,5.99977079931,3.47791505527,0.132273093175
1524842712070859909,5.99976830622,3.45291497379,0.132273093143
1524842712108697891,5.99976581614,3.42791489321,0.132273093096
1524842712148150920,5.99976332905,3.40291481386,0.132273093033
1524842712148540973,5.99976084489,3.37791473605,0.132273092957
1524842712188410043,5.9997583635,3.35291466004,0.132273092869
1524842712236876010,5.99975588467,3.32791458604,0.132273092772
1524842712277158975,5.99975340814,3.30291451425,0.132273092668
1524842712277496099,5.99975093358,3.27791444478,0.132273092559
1524842712317126989,5.99974846063,3.25291437771,0.132273092449
1524842712328813076,5.99974598888,3.22791431306,0.132273092338
1524842712369159936,5.99974351792,3.2029142508,0.132273092231
1524842712408616065,5.99974104728,3.17791419082,0.132273092129
1524842712408828020,5.99973857652,3.15291413299,0.132273092036
1524842712449147939,5.99973610518,3.12791407712,0.132273091953
1524842712450283050,5.99973363283,3.10291402296,0.132273091883
1524842712488133907,5.99973115906,3.07791397024,0.132273091826
1524842712488226890,5.99972868348,3.05291391866,0.132273091786
1524842712528083086,5.99972620575,3.02791386787,0.132273091762
1524842712542151927,5.99972372559,3.00291381753,0.132273091755
1524842712584779024,5.99972124275,2.97791376726,0.132273091766
1524842712624705076,5.99971875708,2.95291371671,0.132273091794
1524842712624891042,5.99971626845,2.92791366551,0.132273091839
1524842712669465065,5.99971377683,2.90291361332,0.1322730919
1524842712669814109,5.99971128226,2.87791355982,0.132273091976
1524842712708254098,5.99970878482,2.85291350472,0.132273092065
1524842712708369970,5.99970628468,2.82791344776,0.132273092164
1524842712749337911,5.99970378207,2.80291338873,0.132273092272
1524842712749727964,5.99970127726,2.77791332746,0.132273092387
1524842712788816928,5.9996987706,2.75291326385,0.132273092505
1524842712814871072,5.99969626245,2.72791319783,0.132273092625
1524842712853137016,5.99969375323,2.7029131294,0.132273092743
1524842712893610000,5.99969124336,2.6779130586,0.132273092857
1524842712893788099,5.99968873331,2.65291298554,0.132273092964
1524842712933592081,5.99968622352,2.62791291039,0.132273093063
1524842712934097051,5.99968371445,2.60291283333,0.132273093151
1524842712977554082,5.99968120651,2.57791275463,0.132273093225
1524842712977756977,5.99967870013,2.55291267456,0.132273093286
1524842713017334938,5.99967619567,2.52791259345,0.13227309333
1524842713056318998,5.99967369346,2.50291251163,0.132273093358
1524842713096333026,5.99967119378,2.47791242945,0.132273093368
1524842713137556076,5.99966869684,2.4529123473,0.132273093362
1524842713137933015,5.99966620281,2.42791226552,0.132273093338
1524842713176032066,5.99966371176,2.40291218448,0.132273093298
1524842713176142930,5.99966122373,2.37791210451,0.132273093242
1524842713176211118,5.99965873867,2.35291202593,0.132273093172
1524842713224242925,5.99965625646,2.32791194902,0.13227309309
1524842713225529909,5.99965377692,2.30291187403,0.132273092997
1524842713264322042,5.99965129982,2.27791180116,0.132273092896
1524842713304548025,5.99964882485,2.25291173056,0.132273092789
1524842713304663896,5.99964635168,2.22791166232,0.132273092678
1524842713378520011,5.99964387991,2.2029115965,0.132273092567
1524842713378900051,5.99964140914,2.17791153309,0.132273092457
1524842713420084953,5.99963893892,2.15291147202,0.132273092352
1524842713420188903,5.9996364688,2.12791141318,0.132273092255
1524842713420250892,5.99963399832,2.10291135639,0.132273092166
1524842713461129903,5.99963152705,2.07791130144,0.132273092089
1524842713501817941,5.99962905455,2.05291124808,0.132273092025
1524842713540065050,5.99962658043,2.027911196,0.132273091976
1524842713540184974,5.99962410432,2.00291114489,0.132273091944
1524842713581315040,5.99962162592,1.9779110944,0.132273091928
1524842713581942081,5.99961914495,1.95291104416,0.13227309193
1524842713622036933,5.99961666121,1.92791099382,0.13227309195
1524842713684309005,5.99961417457,1.90291094301,0.132273091986
1524842713725711107,5.99961168495,1.87791089138,0.132273092039
1524842713726098060,5.99960919235,1.85291083859,0.132273092108
1524842713726347923,5.99960669683,1.82791078434,0.13227309219
1524842713726525068,5.99960419852,1.80291072835,0.132273092284
1524842713764184951,5.99960169761,1.77791067039,0.132273092388
1524842713767581939,5.99959919437,1.75291061027,0.132273092499
1524842713805414915,5.9995966891,1.72791054786,0.132273092616
1524842713844329118,5.99959418215,1.70291048306,0.132273092735
1524842713884131908,5.99959167392,1.67791041584,0.132273092854
1524842713924165010,5.99958916483,1.65291034622,0.13227309297
1524842713924238920,5.99958665533,1.62791027429,0.132273093081
1524842713924283981,5.99958414586,1.60291020018,0.132273093184
1524842713964000940,5.99958163689,1.57791012406,0.132273093277
1524842713982450008,5.99957912886,1.55291004616,0.132273093358
1524842714020169973,5.99957662217,1.52790996675,0.132273093425
1524842714062624931,5.99957411723,1.50290988614,0.132273093478
1524842714063200950,5.99957161438,1.47790980465,0.132273093513
1524842714101273059,5.99956911393,1.45290972263,0.132273093532
1524842714101634025,5.99956661612,1.42790964044,0.132273093534
1524842714140081882,5.99956412115,1.40290955845,0.132273093518
1524842714143311977,5.99956162913,1.37790947703,0.132273093486
1524842714184103012,5.99955914012,1.35290939651,0.132273093437
1524842714228071928,5.99955665411,1.32790931723,0.132273093374
1524842714264185905,5.99955417101,1.30290923949,0.132273093297
1524842714264318943,5.99955169069,1.27790916355,0.132273093209
1524842714304172039,5.99954921292,1.25290908963,0.132273093112
1524842714323333024,5.99954673745,1.22790901792,0.132273093007
1524842714360433101,5.99954426394,1.20290894853,0.132273092898
1524842714360821962,5.99954179204,1.17790888154,0.132273092786
1524842714401451110,5.99953932133,1.15290881696,0.132273092675
1524842714402018070,5.9995368514,1.12790875477,0.132273092567
1524842714444772005,5.99953438179,1.10290869487,0.132273092466
1524842714445020914,5.99953191205,1.07790863712,0.132273092372
1524842714493946075,5.99952944173,1.05290858131,0.132273092289
1524842714532241106,5.9995269704,1.02790852722,0.132273092218
1524842714572503089,5.99952449763,1.00290847457,0.132273092161
1524842714572639942,5.99952202305,0.977908423049,0.13227309212
1524842714572706937,5.99951954632,0.952908372318,0.132273092096
1524842714612066030,5.99951706715,0.927908322026,0.132273092089
1524842714651020050,5.9995145853,0.902908271807,0.1322730921
1524842714688314914,5.99951210061,0.877908221298,0.132273092128
1524842714688436985,5.99950961297,0.852908170138,0.132273092173
1524842714728311061,5.99950712234,0.827908117985,0.132273092233
1524842714736953973,5.99950462874,0.802908064516,0.132273092309
1524842714772311925,5.99950213229,0.777908009442,0.132273092397
1524842714812179088,5.99949963314,0.752907952507,0.132273092496
1524842714812288999,5.99949713151,0.727907893499,0.132273092604
1524842714852113962,5.9994946277,0.702907832256,0.132273092718
1524842714852197885,5.99949212203,0.677907768663,0.132273092836
1524842714892039060,5.99948961488,0.652907702662,0.132273092955
1524842714914779901,5.99948710666,0.627907634247,0.132273093072
1524842714954684019,5.9994845978,0.602907563472,0.132273093186
1524842714992424011,5.99948208876,0.577907490439,0.132273093293
1524842714992559909,5.99947957998,0.552907415307,0.132273093391
1524842715034070014,5.99947707192,0.527907338281,0.132273093478
1524842715035051107,5.99947456501,0.502907259607,0.132273093552
1524842715076188087,5.99947205966,0.477907179573,0.132273093612
1524842715076505899,5.99946955623,0.452907098495,0.132273093655
1524842715116246938,5.99946705505,0.427907016714,0.132273093683
1524842715156765937,5.9994645564,0.402906934588,0.132273093692
1524842715156886100,5.9994620605,0.37790685248,0.132273093685
1524842715201968908,5.9994595675,0.352906770756,0.132273093661
1524842715236696004,5.99945707749,0.327906689771,0.13227309362
1524842715276391029,5.9994545905,0.302906609865,0.132273093563
1524842715276501893,5.99945210647,0.277906531351,0.132273093493
1524842715276561021,5.99944962529,0.252906454512,0.13227309341
1524842715317136049,5.99944714678,0.227906379591,0.132273093316
1524842715326481103,5.9994446707,0.20290630679,0.132273093215
1524842715364181041,5.99944219675,0.17790623626,0.132273093107
1524842715404016971,5.99943972459,0.1529061681,0.132273092996
1524842715444144964,5.99943725383,0.127906102357,0.132273092884
1524842715444224119,5.99943478406,0.102906039019,0.132273092775
1524842715484960079,5.99943231484,0.0779059780235,0.132273092669
1524842715485131025,5.99942984571,0.0529059192509,0.132273092571
1524842715524806976,5.99942737622,0.027905862532,0.132273092482
1524842715567338943,5.99942490592,0.00290580765057,0.132273092405
1524842715604259014,5.9994224344,-0.0220942456517,0.132273092341
1524842715604402065,5.99941996125,-0.0470942976694,0.132273092292
1524842715644165039,5.9994174861,-0.0720943487264,0.132273092259
1524842715644253015,5.99941500865,-0.0970943991685,0.132273092243
1524842715684293985,5.99941252864,-0.122094449356,0.132273092245
1524842715684400081,5.99941004586,-0.147094499654,0.132273092264
1524842715724421977,5.99940756017,-0.172094550426,0.1322730923
1524842715724594116,5.99940507149,-0.197094602024,0.132273092353
1524842715770991086,5.99940257984,-0.222094654783,0.132273092421
1524842715787164926,5.99940008527,-0.247094709008,0.132273092503
1524842715824101924,5.9993975879,-0.272094764972,0.132273092597
1524842715824260950,5.99939508795,-0.29709482291,0.1322730927
1524842715870090007,5.99939258566,-0.322094883009,0.132273092812
1524842715904042005,5.99939008134,-0.347094945409,0.132273092928
1524842715944134950,5.99938757535,-0.372095010194,0.132273093046
1524842715985093116,5.99938506809,-0.397095077397,0.132273093165
1524842715985269069,5.99938255997,-0.422095146994,0.13227309328
1524842715985373020,5.99938005144,-0.447095218906,0.132273093391
1524842716024482965,5.99937754295,-0.472095293002,0.132273093493
1524842716024595975,5.99937503497,-0.497095369099,0.132273093586
1524842716046087026,5.99937252791,-0.522095446971,0.132273093666
1524842716088208913,5.99937002222,-0.547095526349,0.132273093733
1524842716124535083,5.99936751827,-0.572095606931,0.132273093784
1524842716124670982,5.99936501642,-0.597095688387,0.13227309382
1524842716192408084,5.99936251697,-0.622095770367,0.132273093838
1524842716192622900,5.99936002016,-0.647095852508,0.132273093839
1524842716232187986,5.99935752619,-0.672095934446,0.132273093823
1524842716232347011,5.99935503517,-0.697096015818,0.132273093789
1524842716275384902,5.99935254716,-0.722096096277,0.13227309374
1524842716287240982,5.99935006215,-0.747096175495,0.132273093676
1524842716325109958,5.99934758005,-0.772096253174,0.132273093599
1524842716364413022,5.99934510072,-0.797096329049,0.132273093511
1524842716405148983,5.99934262395,-0.822096402899,0.132273093412
1524842716405471086,5.99934014946,-0.847096474546,0.132273093307
1524842716448808908,5.99933767694,-0.872096543865,0.132273093197
1524842716448936939,5.99933520601,-0.897096610784,0.132273093085
1524842716449009895,5.99933273628,-0.922096675285,0.132273092974
1524842716495801925,5.99933026731,-0.947096737405,0.132273092866
1524842716496536016,5.99932779866,-0.972096797238,0.132273092764
1524842716550457000,5.99932532987,-0.997096854927,0.13227309267
1524842716588035106,5.9993228605,-1.02209691067,0.132273092586
1524842716588165044,5.99932039011,-1.04709696469,0.132273092515
1524842716629260063,5.99931791827,-1.07209701729,0.132273092458
1524842716640350103,5.99931544463,-1.09709706875,0.132273092417
1524842716677162885,5.99931296882,-1.12209711944,0.132273092393
1524842716677269935,5.99931049057,-1.14709716968,0.132273092385
1524842716716250896,5.99930800965,-1.17209721986,0.132273092396
1524842716716494083,5.99930552587,-1.19709727033,0.132273092424
1524842716756036043,5.99930303915,-1.22209732146,0.132273092468
1524842716815427064,5.99930054943,-1.24709737358,0.132273092529
1524842716852160930,5.99929805675,-1.27209742703,0.132273092604
1524842716852269887,5.99929556121,-1.29709748208,0.132273092692
1524842716852339982,5.99929306298,-1.32209753899,0.13227309279
1524842716892010927,5.99929056227,-1.34709759799,0.132273092898
1524842716894238948,5.99928805938,-1.37209765921,0.132273093012
1524842716932362079,5.99928555463,-1.39709772279,0.132273093129
1524842716980429887,5.99928304841,-1.42209778878,0.132273093248
1524842717020878076,5.99928054112,-1.44709785718,0.132273093365
1524842717021245956,5.9992780332,-1.47209792794,0.132273093478
1524842717060134887,5.9992755251,-1.49709800096,0.132273093585
1524842717060261011,5.99927301727,-1.52209807607,0.132273093682
1524842717100728034,5.99927051017,-1.54709815308,0.132273093768
1524842717102139949,5.99926800421,-1.57209823173,0.132273093842
1524842717140506982,5.99926549982,-1.59709831173,0.132273093901
1524842717180131912,5.99926299735,-1.62209839278,0.132273093944
1524842717180253028,5.99926049714,-1.64709847453,0.132273093971
1524842717220741033,5.99925799946,-1.67209855661,0.13227309398
1524842717221535921,5.99925550452,-1.69709863868,0.132273093972
1524842717260312080,5.99925301249,-1.72209872035,0.132273093947
1524842717301048040,5.99925052345,-1.74709880129,0.132273093905
1524842717340301036,5.99924803743,-1.77209888114,0.132273093848
1524842717340466022,5.99924555436,-1.79709895959,0.132273093777
1524842717381135940,5.99924307415,-1.82209903637,0.132273093694
1524842717381378889,5.9992405966,-1.84709911122,0.1322730936
1524842717420994043,5.99923812147,-1.87209918396,0.132273093498
1524842717430181980,5.99923564848,-1.89709925442,0.13227309339
1524842717467982053,5.99923317726,-1.92209932251,0.132273093278
1524842717508306980,5.99923070745,-1.94709938819,0.132273093166
1524842717508430004,5.99922823861,-1.97209945146,0.132273093056
1524842717550589084,5.99922577032,-1.99709951239,0.13227309295
1524842717550920009,5.99922330211,-2.02209957109,0.132273092852
1524842717588085889,5.99922083354,-2.04709962775,0.132273092762
1524842717629266023,5.99921836416,-2.07209968257,0.132273092685
1524842717669320106,5.99921589354,-2.09709973582,0.132273092621
1524842717669781923,5.99921342129,-2.12209978778,0.132273092571
1524842717708116054,5.99921094704,-2.14709983879,0.132273092538
1524842717708235979,5.99920847049,-2.17209988919,0.132273092522
1524842717758306026,5.99920599136,-2.19709993933,0.132273092524
1524842717770216941,5.99920350946,-2.22209998959,0.132273092543
1524842717808415889,5.99920102466,-2.24710004033,0.132273092579
1524842717808569908,5.99919853687,-2.2721000919,0.132273092632
1524842717848478078,5.9991960461,-2.29710014464,0.1322730927
1524842717848678112,5.99919355241,-2.32210019884,0.132273092781
1524842717889574050,5.99919105593,-2.34710025479,0.132273092875
1524842717894870042,5.99918855686,-2.37210031271,0.132273092978
1524842717932221889,5.99918605546,-2.3971003728,0.132273093089
1524842717972012042,5.99918355204,-2.42210043519,0.132273093205
1524842717972100973,5.99918104694,-2.44710049996,0.132273093323
1524842718072153091,5.99917854058,-2.47210056715,0.132273093441
1524842718073127031,5.99917603336,-2.49710063674,0.132273093556
1524842718112059116,5.99917352574,-2.52210070864,0.132273093666
1524842718112137079,5.99917101817,-2.54710078272,0.132273093768
1524842718112198114,5.9991685111,-2.5721008588,0.13227309386
1524842718152327060,5.99916600497,-2.59710093665,0.13227309394
1524842718152430057,5.9991635002,-2.62210101601,0.132273094006
1524842718169413089,5.99916099718,-2.64710109656,0.132273094057
1524842718240413904,5.99915849626,-2.67210117799,0.132273094091
1524842718282129049,5.99915599775,-2.69710125993,0.132273094109
1524842718282604932,5.99915350188,-2.72210134203,0.13227309411
1524842718327941894,5.99915100884,-2.74710142393,0.132273094093
1524842718328881978,5.99914851876,-2.77210150525,0.132273094059
1524842718369370937,5.99914603169,-2.79710158566,0.132273094009
1524842718409593105,5.99914354762,-2.82210166483,0.132273093945
1524842718410023927,5.99914106645,-2.84710174245,0.132273093867
1524842718452270984,5.99913858806,-2.87210181826,0.132273093778
1524842718452378988,5.99913611221,-2.89710189205,0.132273093679
1524842718452440977,5.99913363864,-2.92210196363,0.132273093574
1524842718493017911,5.99913116704,-2.94710203289,0.132273093463
1524842718494076967,5.99912869703,-2.97210209974,0.132273093351
1524842718546482086,5.9991262282,-2.99710216417,0.132273093239
1524842718588210105,5.99912376014,-3.02210222623,0.132273093131
1524842718588316917,5.99912129238,-3.047102286,0.132273093028
1524842718628694057,5.99911882449,-3.07210234362,0.132273092934
1524842718637772083,5.999116356,-3.0971023993,0.13227309285
1524842718680212020,5.99911388648,-3.12210245328,0.132273092779
1524842718680351018,5.99911141553,-3.14710250582,0.132273092722
1524842718721355915,5.99910894275,-3.17210255724,0.132273092681
1524842718722587108,5.99910646781,-3.19710260787,0.132273092656
1524842718760174989,5.99910399042,-3.22210265808,0.132273092649
1524842718800892114,5.99910151035,-3.24710270822,0.132273092659
1524842718801165103,5.99909902743,-3.27210275866,0.132273092686
1524842718840241909,5.99909654156,-3.29710280976,0.132273092731
1524842718872044086,5.99909405269,-3.32210286186,0.132273092791
1524842718914082050,5.99909156087,-3.34710291529,0.132273092866
1524842718914802074,5.99908906618,-3.37210297032,0.132273092954
1524842718953941106,5.9990865688,-3.39710302722,0.132273093052
1524842718957000970,5.99908406895,-3.4221030862,0.132273093159
1524842718992325067,5.99908156692,-3.44710314742,0.132273093273
1524842719037729978,5.99907906304,-3.47210321099,0.13227309339
1524842719038120031,5.99907655769,-3.49710327697,0.132273093508
1524842719076109886,5.99907405127,-3.52210334536,0.132273093625
1524842719076220035,5.99907154423,-3.54710341611,0.132273093738
1524842719116307973,5.99906903701,-3.57210348912,0.132273093844
1524842719119055032,5.99906653007,-3.59710356422,0.132273093941
1524842719164643049,5.99906402385,-3.62210364121,0.132273094027
1524842719200077056,5.99906151879,-3.64710371984,0.1322730941
1524842719200166940,5.99905901529,-3.67210379983,0.132273094158
1524842719240020990,5.99905651373,-3.69710388085,0.132273094201
1524842719251317024,5.99905401442,-3.72210396256,0.132273094227
1524842719288225889,5.99905151765,-3.74710404461,0.132273094235
1524842719328032970,5.99904902362,-3.77210412664,0.132273094227
1524842719328162908,5.9990465325,-3.79710420827,0.132273094201
1524842719369185924,5.99904404437,-3.82210428916,0.132273094159
1524842719390258073,5.99904155925,-3.84710436896,0.132273094102
1524842719428507089,5.99903907709,-3.87210444736,0.13227309403
1524842719428634881,5.99903659778,-3.89710452408,0.132273093946
1524842719468653917,5.99903412113,-3.92210459888,0.132273093852
1524842719468930959,5.99903164691,-3.94710467155,0.132273093749
1524842719534137964,5.9990291748,-3.97210474195,0.132273093641
1524842719573447942,5.99902670448,-3.99710480998,0.132273093529
1524842719573836088,5.99902423555,-4.02210487559,0.132273093416
1524842719612040996,5.99902176759,-4.0471049388,0.132273093306
1524842719612143993,5.99901930016,-4.07210499967,0.1322730932
1524842719652331113,5.99901683282,-4.09710505831,0.132273093101
1524842719652487039,5.99901436511,-4.12210511491,0.132273093012
1524842719692074060,5.99901189658,-4.14710516968,0.132273092934
1524842719694458007,5.99900942681,-4.17210522287,0.132273092869
1524842719733057975,5.9990069554,-4.19710527479,0.13227309282
1524842719772936105,5.99900448199,-4.22210532575,0.132273092787
1524842719816984891,5.99900200627,-4.24710537611,0.13227309277
1524842719817187070,5.99899952797,-4.27210542622,0.132273092772
1524842719856764078,5.9989970469,-4.29710547645,0.132273092791
1524842719856903076,5.99899456292,-4.32210552716,0.132273092827
1524842719897313117,5.99899207596,-4.34710557871,0.132273092879
1524842719897802114,5.99898958601,-4.37210563143,0.132273092947
1524842719936837911,5.99898709315,-4.39710568561,0.132273093028
1524842719969088077,5.9989845975,-4.42210574155,0.132273093122
1524842720011564016,5.99898209926,-4.44710579946,0.132273093225
1524842720011702060,5.99897959869,-4.47210585954,0.132273093335
1524842720049532890,5.9989770961,-4.49710592192,0.132273093451
1524842720050147056,5.99897459184,-4.52210598669,0.132273093569
1524842720095407009,5.99897208632,-4.54710605388,0.132273093686
1524842720113243103,5.99896957995,-4.57210612345,0.132273093801
1524842720152242898,5.99896707318,-4.59710619535,0.13227309391
1524842720192080020,5.99896456646,-4.62210626942,0.132273094012
1524842720232379913,5.99896206025,-4.64710634549,0.132273094103
1524842720232506990,5.99895955499,-4.67210642332,0.132273094183
1524842720272455930,5.99895705109,-4.69710650266,0.132273094249
1524842720272595882,5.99895454894,-4.72210658319,0.132273094299
1524842720272675037,5.9989520489,-4.74710666459,0.132273094333
1524842720314774990,5.99894955126,-4.77210674651,0.13227309435
1524842720321280002,5.99894705627,-4.79710682858,0.13227309435
1524842720360004901,5.99894456411,-4.82210691044,0.132273094333
1524842720400465011,5.99894207492,-4.84710699172,0.132273094298
1524842720400532960,5.99893958873,-4.87210707208,0.132273094248
1524842720440119028,5.99893710553,-4.89710715119,0.132273094183
1524842720446358919,5.99893462525,-4.92210722876,0.132273094105
1524842720494765043,5.99893214773,-4.94710730452,0.132273094015
1524842720532398939,5.99892967275,-4.97210737825,0.132273093916
1524842720532557964,5.99892720005,-4.99710744977,0.13227309381
1524842720576351881,5.99892472931,-5.02210751897,0.1322730937
1524842720576960086,5.99892226016,-5.04710758576,0.132273093587
1524842720620847940,5.99891979218,-5.07210765013,0.132273093475
1524842720620975017,5.99891732497,-5.09710771213,0.132273093366
1524842720660816907,5.99891485805,-5.12210777184,0.132273093264
1524842720671380043,5.99891239099,-5.14710782941,0.132273093169
1524842720723021030,5.99890992333,-5.17210788503,0.132273093085
1524842720760137081,5.99890745464,-5.19710793895,0.132273093013
1524842720801425933,5.9989049845,-5.22210799145,0.132273092956
1524842720801923036,5.99890251253,-5.24710804282,0.132273092915
1524842720840095043,5.9989000384,-5.27210809342,0.13227309289
1524842720840200901,5.99889756182,-5.29710814359,0.132273092883
1524842720880084037,5.99889508255,-5.3221081937,0.132273092893
1524842720907074928,5.99889260043,-5.34710824412,0.13227309292
1524842720944416999,5.99889011536,-5.37210829519,0.132273092964
1524842720944581031,5.99888762729,-5.39710834728,0.132273093025
1524842720944649934,5.99888513627,-5.42210840068,0.132273093099
1524842720986896038,5.99888264238,-5.44710845571,0.132273093187
1524842721027741909,5.9988801458,-5.4721085126,0.132273093285
1524842721064971923,5.99887764675,-5.49710857157,0.132273093392
1524842721065363883,5.99887514553,-5.52210863279,0.132273093505
1524842721104439020,5.99887264246,-5.54710869635,0.132273093622
1524842721122881889,5.99887013792,-5.57210876233,0.13227309374
1524842721160397052,5.99886763232,-5.59710883072,0.132273093856
1524842721160583972,5.9988651261,-5.62210890146,0.132273093969
1524842721201035022,5.9988626197,-5.64710897446,0.132273094074
1524842721201391935,5.99886011359,-5.67210904956,0.132273094171
1524842721240458011,5.99885760821,-5.69710912653,0.132273094256
1524842721245407104,5.99885510399,-5.72210920515,0.132273094329
1524842721285016059,5.99885260134,-5.74710928512,0.132273094387
1524842721325244903,5.99885010062,-5.77210936612,0.132273094429
1524842721364399909,5.99884760217,-5.79710944781,0.132273094454
1524842721364522933,5.99884510625,-5.82210952983,0.132273094463
1524842721408118009,5.99884261308,-5.84710961182,0.132273094454
1524842721408222913,5.99884012281,-5.87210969342,0.132273094427
1524842721448162078,5.99883763553,-5.89710977426,0.132273094385
1524842721461294889,5.99883515127,-5.92210985402,0.132273094327
1524842721501044988,5.99883266997,-5.94710993237,0.132273094255
1524842721501264095,5.9988301915,-5.97211000904,0.13227309417
1524842721540144920,5.9988277157,-5.99711008378,0.132273094076
1524842721544943094,5.99882524232,-6.0221101564,0.132273093972
1524842721584304094,5.99882277106,-6.04711022674,0.132273093864
1524842721624334096,5.99882030157,-6.07211029471,0.132273093752
1524842721664258003,5.99881783346,-6.09711036026,0.132273093639
1524842721664403915,5.99881536633,-6.12211042341,0.132273093528
1524842721705641031,5.99881289972,-6.14711048422,0.132273093422
1524842721705730915,5.99881043319,-6.17211054281,0.132273093323
1524842721744967937,5.99880796629,-6.19711059936,0.132273093233
1524842721771678924,5.99880549856,-6.22211065407,0.132273093155
1524842721809020042,5.99880302958,-6.24711070722,0.13227309309
1524842721848829984,5.99880055896,-6.27211075909,0.132273093041
1524842721848917007,5.99879808634,-6.29711081002,0.132273093007
1524842721848962068,5.9987956114,-6.32211086034,0.132273092991
1524842721889334917,5.99879313388,-6.34711091042,0.132273092993
1524842721894565105,5.99879065359,-6.37211096062,0.132273093011
1524842721944552898,5.99878817038,-6.39711101131,0.132273093047
1524842721984121084,5.99878568419,-6.42211106284,0.1322730931
1524842721984242916,5.99878319502,-6.44711111554,0.132273093167
1524842722034486055,5.99878070292,-6.47211116972,0.132273093248
1524842722042752981,5.99877820805,-6.49711122565,0.132273093341
1524842722082385063,5.99877571058,-6.52211128355,0.132273093444
1524842722120450019,5.99877321079,-6.54711134363,0.132273093555
1524842722120639085,5.99877070898,-6.57211140601,0.13227309367
1524842722160132884,5.99876820551,-6.59711147077,0.132273093787
1524842722160231113,5.99876570078,-6.62211153796,0.132273093905
1524842722200051069,5.99876319521,-6.64711160753,0.132273094019
1524842722200150966,5.99876068924,-6.67211167942,0.132273094128
1524842722252660989,5.99875818333,-6.69711175349,0.132273094229
1524842722277012109,5.99875567792,-6.72211182955,0.13227309432
1524842722321120977,5.99875317347,-6.74711190738,0.132273094399
1524842722360443115,5.99875067039,-6.7721119867,0.132273094465
1524842722360656023,5.99874816907,-6.79711206722,0.132273094514
1524842722360728025,5.99874566985,-6.8221121486,0.132273094548
1524842722401504993,5.99874317303,-6.84711223049,0.132273094565
1524842722402060031,5.99874067887,-6.87211231253,0.132273094564
1524842722463068962,5.99873818755,-6.89711239435,0.132273094546
1524842722463289022,5.99873569918,-6.92211247559,0.132273094512
1524842722500984907,5.99873321382,-6.94711255591,0.132273094461
1524842722540132999,5.99873073146,-6.97211263498,0.132273094395
1524842722540242910,5.998728252,-6.9971127125,0.132273094317
1524842722581434011,5.9987257753,-7.02211278821,0.132273094227
1524842722594202995,5.99872330115,-7.04711286189,0.132273094127
1524842722632035970,5.99872082927,-7.07211293335,0.132273094021
1524842722672724008,5.99871835934,-7.09711300249,0.13227309391
1524842722712115049,5.99871589099,-7.12211306922,0.132273093797
1524842722712210893,5.99871342382,-7.14711313354,0.132273093685
1524842722712268114,5.9987109574,-7.17211319548,0.132273093576
1524842722752410888,5.99870849128,-7.19711325514,0.132273093473
1524842722752634048,5.998706025,-7.22211331266,0.132273093378
1524842722796406984,5.99870355812,-7.24711336823,0.132273093294
1524842722841429948,5.9987010902,-7.27211342211,0.132273093222
1524842722882312059,5.99869862083,-7.29711347455,0.132273093165
1524842722882700920,5.99869614963,-7.32211352589,0.132273093123
1524842722882941961,5.99869367625,-7.34711357645,0.132273093098
1524842722920521020,5.99869120043,-7.37211362659,0.132273093091
1524842722923671007,5.99868872191,-7.39711367668,0.132273093101
1524842722960154056,5.99868624054,-7.42211372707,0.132273093128
1524842723003376007,5.99868375622,-7.44711377813,0.132273093172
1524842723003866910,5.9986812689,-7.4721138302,0.132273093232
1524842723040353059,5.99867877862,-7.49711388359,0.132273093307
1524842723092993974,5.99867628549,-7.52211393861,0.132273093394
1524842723133960008,5.99867378966,-7.5471139955,0.132273093493
1524842723135076045,5.99867129137,-7.57211405447,0.132273093599
1524842723172087907,5.9986687909,-7.59711411568,0.132273093712
1524842723172194004,5.99866628859,-7.62211417925,0.132273093829
1524842723172276973,5.99866378481,-7.64711424522,0.132273093947
1524842723212125062,5.99866127998,-7.67211431361,0.132273094063
1524842723258865118,5.99865877453,-7.69711438436,0.132273094174
1524842723296039104,5.99865626892,-7.72211445735,0.13227309428
1524842723296135902,5.99865376359,-7.74711453244,0.132273094376
1524842723336045026,5.998651259,-7.77211460942,0.132273094461
1524842723336141109,5.99864875557,-7.79711468802,0.132273094533
1524842723376310110,5.99864625371,-7.82211476798,0.13227309459
1524842723376466989,5.9986437538,-7.84711484896,0.132273094632
1524842723417040109,5.99864125614,-7.87211493063,0.132273094657
1524842723417336940,5.99863876103,-7.89711501263,0.132273094665
1524842723457627058,5.99863626866,-7.92211509459,0.132273094655
1524842723509862899,5.9986337792,-7.94711517615,0.132273094629
1524842723549233913,5.99863129274,-7.97211525696,0.132273094586
1524842723549909114,5.99862880928,-7.99711533667,0.132273094527
1524842723550158977,5.99862632878,-8.02211541498,0.132273094455
1524842723588076114,5.99862385112,-8.0471154916,0.13227309437
1524842723593282938,5.99862137612,-8.07211556629,0.132273094275
1524842723632046937,5.99861890353,-8.09711563885,0.132273094171
1524842723672272920,5.99861643306,-8.12211570914,0.132273094062
1524842723712038993,5.99861396436,-8.14711577705,0.13227309395
1524842723712135076,5.99861149703,-8.17211584255,0.132273093837
1524842723752616882,5.99860903068,-8.19711590565,0.132273093726
1524842723767446041,5.99860656484,-8.2221159664,0.132273093619
1524842723804167032,5.99860409907,-8.24711602494,0.13227309352
1524842723804302930,5.99860163293,-8.27211608144,0.13227309343
1524842723844080924,5.99859916595,-8.29711613611,0.132273093352
1524842723853574991,5.99859669772,-8.32211618921,0.132273093287
1524842723892646074,5.99859422784,-8.34711624104,0.132273093238
1524842723932038068,5.99859175596,-8.37211629193,0.132273093204
1524842723974263906,5.99858928175,-8.39711634222,0.132273093188
1524842723974534988,5.99858680497,-8.42211639228,0.132273093189
1524842723974616050,5.9985843254,-8.44711644246,0.132273093208
1524842724022332906,5.99858184292,-8.47211649313,0.132273093244
1524842724022557973,5.99857935746,-8.49711654465,0.132273093296
1524842724061866998,5.99857686901,-8.52211659734,0.132273093363
1524842724100239992,5.99857437764,-8.54711665151,0.132273093444
1524842724100408077,5.99857188349,-8.57211670743,0.132273093537
1524842724139983892,5.99856938676,-8.59711676533,0.13227309364
1524842724144999027,5.9985668877,-8.62211682541,0.13227309375
1524842724184737920,5.99856438663,-8.64711688779,0.132273093865
1524842724224083900,5.9985618839,-8.67211695256,0.132273093983
1524842724224160909,5.99855937991,-8.69711701974,0.1322730941
1524842724264106988,5.99855687509,-8.72211708932,0.132273094214
1524842724269870996,5.99855436987,-8.74711716121,0.132273094322
1524842724308434963,5.99855186472,-8.77211723528,0.132273094423
1524842724348469018,5.99854936008,-8.79711731133,0.132273094514
1524842724348624944,5.99854685639,-8.82211738916,0.132273094592
1524842724387968063,5.99854435408,-8.84711746847,0.132273094657
1524842724393421888,5.99854185354,-8.87211754897,0.132273094707
1524842724433235883,5.9985393551,-8.89711763033,0.13227309474
1524842724472131967,5.99853685907,-8.9221177122,0.132273094756
1524842724472268104,5.99853436569,-8.94711779422,0.132273094755
1524842724513335943,5.99853187515,-8.97211787601,0.132273094736
1524842724519206047,5.99852938757,-8.99711795722,0.132273094701
1524842724556063890,5.99852690299,-9.0221180375,0.13227309465
1524842724596004009,5.99852442141,-9.04711811653,0.132273094584
1524842724637773990,5.99852194274,-9.072118194,0.132273094505
1524842724638303041,5.99851946682,-9.09711826966,0.132273094415
1524842724676173925,5.99851699344,-9.12211834329,0.132273094315
1524842724676291942,5.99851452233,-9.14711841471,0.132273094208
1524842724717544078,5.99851205317,-9.17211848379,0.132273094097
1524842724732325077,5.99850958558,-9.19711855047,0.132273093984
1524842724769272089,5.99850711917,-9.22211861474,0.132273093871
1524842724809329032,5.9985046535,-9.24711867662,0.132273093762
1524842724849735975,5.99850218812,-9.27211873623,0.132273093659
1524842724849975109,5.99849972259,-9.2971187937,0.132273093564
1524842724850095033,5.99849725644,-9.32211884923,0.13227309348
1524842724891819953,5.99849478925,-9.34711890306,0.132273093408
1524842724895164966,5.9984923206,-9.37211895547,0.132273093351
1524842724932532072,5.99848985011,-9.39711900677,0.132273093309
1524842724972079992,5.99848737746,-9.4221190573,0.132273093284
1524842724972168922,5.99848490234,-9.44711910741,0.132273093276
1524842725012967109,5.99848242453,-9.47211915747,0.132273093286
1524842725050333023,5.99847994387,-9.49711920785,0.132273093314
1524842725084110975,5.99847746025,-9.52211925889,0.132273093358
1524842725084311008,5.99847497364,-9.54711931095,0.132273093418
1524842725124233961,5.99847248406,-9.57211936434,0.132273093492
1524842725124382972,5.99846999163,-9.59711941935,0.13227309358
1524842725165013074,5.99846749651,-9.62211947624,0.132273093678
1524842725195203065,5.99846499893,-9.64711953521,0.132273093784
1524842725232284069,5.99846249917,-9.67211959643,0.132273093897
1524842725232392072,5.99845999758,-9.69711966,0.132273094013
1524842725272031068,5.99845749452,-9.72211972598,0.132273094131
1524842725296422004,5.99845499042,-9.74711979437,0.132273094247
1524842725338077068,5.9984524857,-9.77211986512,0.132273094358
1524842725338479042,5.99844998082,-9.79711993812,0.132273094463
1524842725376228094,5.99844747624,-9.8221200132,0.132273094559
1524842725376306056,5.99844497239,-9.84712009017,0.132273094643
1524842725416129112,5.99844246971,-9.87212016877,0.132273094715
1524842725419090032,5.9984399686,-9.89712024872,0.132273094772
1524842725459830045,5.99843746944,-9.92212032968,0.132273094813
1524842725520971059,5.99843497255,-9.94712041134,0.132273094838
1524842725557110071,5.99843247819,-9.97212049331,0.132273094845
1524842725557270050,5.99842998659,-9.99712057525,0.132273094835
1524842725599114894,5.9984274979,-10.0221206568,0.132273094808
1524842725600210905,5.99842501219,-10.0471207376,0.132273094765
1524842725637276887,5.9984225295,-10.0721208172,0.132273094706
1524842725637465000,5.99842004976,-10.0971208955,0.132273094633
1524842725676974058,5.99841757286,-10.1221209721,0.132273094548
1524842725685719966,5.99841509862,-10.1471210467,0.132273094452
1524842725724507093,5.99841262678,-10.1721211192,0.132273094348
1524842725764451980,5.99841015706,-10.1971211895,0.132273094239
1524842725764625072,5.9984076891,-10.2221212573,0.132273094126
1524842725804513931,5.99840522252,-10.2471213228,0.132273094013
1524842725815891981,5.99840275689,-10.2721213858,0.132273093902
1524842725853020906,5.99840029178,-10.2971214465,0.132273093795
1524842725892036914,5.99839782674,-10.322121505,0.132273093696
1524842725892158985,5.99839536131,-10.3471215615,0.132273093606
1524842725932749032,5.99839289504,-10.3721216161,0.132273093527
1524842725941462993,5.99839042752,-10.3971216692,0.132273093463
1524842725980269908,5.99838795834,-10.422121721,0.132273093413
1524842725980370998,5.99838548715,-10.4471217718,0.13227309338
1524842726021853923,5.99838301364,-10.4721218221,0.132273093363
1524842726042697906,5.99838053754,-10.4971218721,0.132273093364
1524842726080624103,5.99837805867,-10.5221219223,0.132273093383
1524842726080699920,5.99837557687,-10.5471219729,0.132273093419
1524842726120326042,5.99837309209,-10.5721220244,0.132273093471
1524842726136544942,5.99837060432,-10.5971220771,0.132273093538
1524842726183559894,5.99836811364,-10.6221221313,0.132273093619
1524842726184232950,5.99836562018,-10.6471221872,0.132273093712
1524842726221568107,5.99836312413,-10.6721222451,0.132273093815
1524842726224435091,5.99836062577,-10.6971223052,0.132273093925
1524842726264112949,5.99835812539,-10.7221223676,0.13227309404
1524842726304538011,5.99835562336,-10.7471224323,0.132273094157
1524842726344782114,5.99835312007,-10.7721224995,0.132273094273
1524842726345076084,5.99835061596,-10.7971225691,0.132273094387
1524842726388365983,5.99834811145,-10.822122641,0.132273094496
1524842726394850015,5.99834560702,-10.8471227151,0.132273094596
1524842726433506965,5.9983431031,-10.8721227911,0.132273094686
1524842726433693885,5.99834060014,-10.897122869,0.132273094765
1524842726472505092,5.99833809856,-10.9221229483,0.132273094829
1524842726472645044,5.99833559875,-10.9471230288,0.132273094878
1524842726512037038,5.99833310104,-10.9721231101,0.132273094911
1524842726519957065,5.99833060575,-10.997123192,0.132273094926
1524842726557097911,5.99832811312,-11.0221232739,0.132273094925
1524842726615154981,5.99832562332,-11.0471233557,0.132273094906
1524842726652034997,5.99832313649,-11.0721234369,0.132273094871
1524842726692255973,5.99832065266,-11.0971235171,0.132273094819
1524842726692373037,5.99831817182,-11.1221235961,0.132273094753
1524842726692414999,5.99831569388,-11.1471236736,0.132273094673
1524842726734026908,5.9983132187,-11.1721237492,0.132273094583
1524842726766189098,5.99831074606,-11.1971238228,0.132273094482
1524842726804641962,5.99830827568,-11.2221238941,0.132273094375
1524842726804868936,5.99830580725,-11.2471239632,0.132273094264
1524842726844235897,5.99830334038,-11.2721240298,0.13227309415
1524842726844338893,5.99830087469,-11.297124094,0.132273094038
1524842726844388008,5.99829840973,-11.3221241558,0.132273093928
1524842726885323047,5.99829594505,-11.3471242154,0.132273093825
1524842726894454956,5.99829348022,-11.3721242728,0.13227309373
1524842726932251930,5.99829101477,-11.3971243283,0.132273093646
1524842726972019910,5.99828854826,-11.4221243821,0.132273093574
1524842726972120046,5.9982860803,-11.4471244345,0.132273093516
1524842727012346982,5.99828361049,-11.4721244857,0.132273093475
1524842727020381927,5.99828113851,-11.4971245362,0.13227309345
1524842727067047119,5.99827866406,-11.5221245863,0.132273093442
1524842727109226942,5.99827618692,-11.5471246364,0.132273093452
1524842727109363079,5.99827370693,-11.5721246867,0.132273093479
1524842727148871898,5.99827122397,-11.5971247378,0.132273093523
1524842727168942928,5.99826873802,-11.6221247898,0.132273093583
1524842727206129074,5.99826624911,-11.6471248432,0.132273093658
1524842727206459045,5.99826375735,-11.6721248982,0.132273093745
1524842727246620893,5.99826126289,-11.6971249551,0.132273093843
1524842727246845006,5.99825876598,-11.7221250141,0.132273093949
1524842727288178920,5.9982562669,-11.7471250753,0.132273094062
1524842727328244924,5.99825376598,-11.7721251389,0.132273094178
1524842727328375101,5.99825126361,-11.7971252049,0.132273094295
1524842727368139028,5.99824876019,-11.8221252733,0.132273094411
1524842727372694969,5.99824625617,-11.847125344,0.132273094522
1524842727412303924,5.99824815191,-11.8718954935,0.132275633153
1524842727452080011,5.99802811352,-11.8952908464,0.13239691706
1524842727494386911,5.99850931898,-11.9165134971,0.132306481456
1524842727494983911,6.00023185519,-11.9342379453,0.132674707994
1524842727532407999,5.99939413261,-11.9529782691,0.132410367665
1524842727532599925,6.00085699306,-11.9667197088,0.132817694707
1524842727580221891,6.00038182039,-11.9814474683,0.132484568214
1524842727580341100,6.00123664206,-11.9918195448,0.132804939835
1524842727622751951,6.00094352898,-12.0025768058,0.132505076923
1524842727623713016,6.00156030093,-12.0093127449,0.132852395066
1524842727660079956,6.00163349551,-12.0161637305,0.132512326228
1524842727707710027,6.00224344848,-12.0194379819,0.132887290372
1524842727744193077,6.00283353943,-12.0222221903,0.132517383819
1524842727785418033,6.00354875331,-12.0219388905,0.132928073489
1524842727824093103,6.00410679483,-12.0215520501,0.132524003441
1524842727824181079,6.00412472899,-12.0193900833,0.132728122595
1524842727824235916,6.00240735063,-12.0181130831,0.132331557912
1524842727824274063,6.00365859193,-12.014404926,0.132635551256
1524842727871366024,6.00195340898,-12.0126454387,0.132699009821
1524842727871602058,6.00338661498,-12.0085833084,0.132335266008
1524842727908344984,6.0015244273,-12.0070145897,0.132860369744
1524842727949690103,6.00181627593,-12.0041459429,0.132442254766
1524842727950356006,6.00078000603,-12.0035269507,0.132377296022
1524842727989367961,5.99940166629,-12.0065316694,0.132280976845
1524842727996601104,5.99805034205,-12.012031407,0.132272799002
1524842728064769983,5.99681919569,-12.0167212993,0.132322104589
1524842728105572938,5.99704876458,-12.0193038085,0.132340977518
1524842728105962991,5.99814054182,-12.0191664586,0.132740830081
1524842728144537925,5.99811893372,-12.0191634896,0.132624604667
1524842728144701957,5.99838659193,-12.0170082487,0.132816568105
1524842728184324979,5.99751070659,-12.015335304,0.132453693798
1524842728184493064,5.9982652987,-12.0121615845,0.132797898347
1524842728224076032,5.99652125469,-12.0104594992,0.132308373199
1524842728227543115,5.99721353085,-12.0088168635,0.132323982364
1524842728265115022,5.99519458637,-12.0114745126,0.13228592174
1524842728304527997,5.9933441104,-12.0167936893,0.132272312261
1524842728304624080,5.99108891494,-12.0240914983,0.132273214029
1524842728345258951,5.98827417602,-12.0331851507,0.132272815947
1524842728351761102,5.98490811404,-12.0440695555,0.13227256046
1524842728388199090,5.98115330593,-12.0562501908,0.132275204305
1524842728428536891,5.97745472762,-12.0672347899,0.132293084614
1524842728428622007,5.97677683259,-12.0758219281,0.132327675997
1524842728469248056,5.9753082037,-12.0824209374,0.132945392247
1524842728482812881,5.97530979243,-12.0880047034,0.132505395849
1524842728520142078,5.97452149095,-12.0912294441,0.132966155323
1524842728560278892,5.9756871385,-12.093344565,0.132507010413
1524842728560420989,5.97610869801,-12.0932312364,0.1329414495
1524842728601366996,5.97666378566,-12.0927949511,0.132457470072
1524842728601775884,5.97818767218,-12.0903307879,0.132494955
1524842728640115022,5.97612560877,-12.0889583126,0.132291575093
1524842728664674043,5.97888236295,-12.085310445,0.13227864005
1524842728705534934,5.97625319091,-12.0836251728,0.132657907529
1524842728706084966,5.97862902421,-12.0798474155,0.132335927779
1524842728744275093,5.97735832731,-12.0775261919,0.132905136061
1524842728744451999,5.97833063475,-12.074305202,0.13244206316
1524842728784087896,5.97858251728,-12.0713295633,0.132922238267
1524842728824013948,5.97808173981,-12.0687017092,0.132391985246
1524842728865844964,5.97996916535,-12.0652345779,0.132777017951
1524842728906579971,5.97819973366,-12.0629707534,0.132321743833
1524842728906697988,5.98143028226,-12.0590741178,0.132386064987
1524842728944273948,5.97958229278,-12.0570641863,0.132694840886
1524842728944423913,5.98008947189,-12.0557117233,0.132381645416
1524842728989507913,5.97772431167,-12.0578651461,0.132265716649
1524842728998066902,5.97500845109,-12.0626705841,0.132272281767
1524842729038336038,5.9713374639,-12.0693765147,0.132271951342
1524842729038399934,5.9667676806,-12.0777239928,0.132271752716
1524842729076167106,5.96129656169,-12.0877149215,0.132272176708
1524842729134206056,5.95492636604,-12.0993507467,0.132272970953
1524842729176368951,5.94765329743,-12.1126305117,0.132273153939
1524842729176515102,5.9394788236,-12.1275543828,0.132273186391
1524842729176587104,5.93040358302,-12.1441226461,0.132273196795
1524842729217467069,5.92042759107,-12.1623353129,0.132273200957
1524842729217945098,5.90955085391,-12.1821924006,0.132273197261
1524842729221201896,5.89779863615,-12.2036480741,0.132272396408
1524842729236324071,5.88578788028,-12.2255758566,0.132272441355
1524842729276753902,5.87377730968,-12.2475031898,0.132272451623
1524842729316108942,5.86176677622,-12.2694304867,0.132272454967
1524842729357268095,5.8497562796,-12.2913577531,0.132272456175
1524842729357867956,5.83774581795,-12.3132849926,0.132272456594
1524842729400088071,5.82573538932,-12.335212208,0.132272456555
1524842729400176048,5.81373733724,-12.357114879,0.132272623861
1524842729440123081,5.80236473326,-12.3779972679,0.132298171377
1524842729498670101,5.79109694706,-12.3970834855,0.132506862836
1524842729537863016,5.78118221731,-12.4135311039,0.133079088425
1524842729538367033,5.77460754749,-12.4293378648,0.132491041548
1524842729577451944,5.7655403406,-12.4435166166,0.132743928963
1524842729577756881,5.75972959625,-12.4564559419,0.132504354352
1524842729577945947,5.75371976441,-12.4671642177,0.132934552051
1524842729617315053,5.74941254355,-12.477443192,0.132562795894
1524842729620521068,5.74488149093,-12.4851921766,0.132891916199
1524842729666030883,5.74304810561,-12.4925502946,0.132480609208
1524842729704282045,5.74040120036,-12.4971287056,0.132904955231
1524842729704432964,5.74034092345,-12.5012860128,0.132490087369
1524842729744159936,5.73672273353,-12.5036774769,0.132392616278
1524842729758002042,5.73240312997,-12.5080528796,0.132266700085
1524842729796145915,5.72694837176,-12.5151330053,0.132272528007
1524842729836992979,5.72048917734,-12.5239046608,0.132273309123
1524842729876190900,5.71291655394,-12.5341839095,0.132273168133
1524842729876316070,5.70423125192,-12.5459717696,0.132273042435
1524842729876390933,5.69443364107,-12.5592687603,0.132272927923
1524842729921080112,5.68352381646,-12.5740750452,0.132272820366
1524842729946953058,5.67150180308,-12.5903906811,0.132272717848
1524842729985810041,5.65836760529,-12.6082156895,0.132272619176
1524842729986258983,5.64412122135,-12.6275500805,0.132272523123
1524842730024211883,5.62929394824,-12.6476852725,0.132272388906
1524842730024315118,5.61446341915,-12.667814635,0.132272458061
1524842730066634893,5.59963292751,-12.6879439102,0.132272464531
1524842730070357084,5.58480251727,-12.7080731404,0.13227245641
1524842730108076095,5.56997217999,-12.7282023261,0.132272445062
1524842730148458957,5.55514191153,-12.7483314677,0.132272433944
1524842730148628950,5.5403117094,-12.7684605658,0.132272424185
1524842730218568086,5.52548157162,-12.7885896211,0.1322724162
1524842730220191955,5.51065149633,-12.8087186342,0.132272410167
1524842730260230064,5.4958214817,-12.8288476059,0.132272406164
1524842730302412986,5.48150727114,-12.8483637354,0.132287961359
1524842730303189039,5.4678489924,-12.8662270941,0.132397569062
1524842730339960098,5.45620223699,-12.8816878895,0.132980172107
1524842730340045928,5.44615831139,-12.8970123812,0.132578755554
1524842730381267070,5.43583458325,-12.9100950347,0.132889877986
1524842730381592035,5.42809993333,-12.9227205831,0.132511691819
1524842730429748058,5.42009356232,-12.9328813905,0.132906248336
1524842730456712007,5.4145115243,-12.9427155565,0.132483783041
1524842730496270895,5.40895431698,-12.949940461,0.132959890501
1524842730496387958,5.4059168689,-12.9571412371,0.132480158334
1524842730536221027,5.40082091028,-12.9619304622,0.132429699353
1524842730536329984,5.39413867941,-12.9669178868,0.132367160733
1524842730579008102,5.38822798443,-12.9724282128,0.132428908796
1524842730579380989,5.38693318691,-12.9773872729,0.132259997263
1524842730617183923,5.38071711418,-12.9805946676,0.132420373765
1524842730656094074,5.38127288794,-12.9832598043,0.13229733769
1524842730656202077,5.37724479856,-12.9850202535,0.132441466393
1524842730702181100,5.37238699506,-12.9890306739,0.132277668376
1524842730726105928,5.3656990566,-12.9954613034,0.132272453434
1524842730764189004,5.3577433715,-13.0033325789,0.132272540688
1524842730804172039,5.34845145087,-13.0125189424,0.132272430061
1524842730804259061,5.33782578564,-13.0230227125,0.13227233046
1524842730845567941,5.32586663438,-13.0348443319,0.132272238387
1524842730846010923,5.31257405903,-13.0479839366,0.132272151947
1524842730886600017,5.29794807439,-13.0624415711,0.132272070577
1524842730887224912,5.28198868179,-13.0782172513,0.132271994153
1524842730924103975,5.26470704208,-13.0953013936,0.132271386765
1524842730924240112,5.24692948776,-13.112882956,0.132272425245
1524842730964711904,5.22914892627,-13.1304604829,0.132272501502
1524842730994910955,5.21136840748,-13.1480379665,0.132272526282
1524842731042337894,5.19358795214,-13.1656154199,0.132272535198
1524842731080543994,5.17580756049,-13.1831928461,0.132272537967
1524842731080728054,5.15802723077,-13.2007702471,0.132272537345
1524842731120820999,5.14024696093,-13.2183476247,0.1322725341
1524842731120945930,5.12248679293,-13.2359048328,0.132271933603
1524842731121012926,5.10566837235,-13.2526796306,0.132286029749
1524842731167459964,5.08840693949,-13.2675900507,0.132394961745
1524842731171001911,5.07716197279,-13.2818947535,0.13235126793
1524842731208120107,5.06177098157,-13.2945584415,0.132465447745
1524842731249367952,5.05356369898,-13.3065639737,0.132603507382
1524842731289457082,5.04088100487,-13.3169531345,0.132272546767
1524842731289879083,5.03499592815,-13.3261240825,0.132701341326
1524842731328378915,5.02535645014,-13.3341213027,0.132309414592
1524842731340862035,5.02160042853,-13.3405593201,0.132837157984
1524842731376157999,5.01557233483,-13.3464106308,0.132446304678
1524842731376261949,5.01367827461,-13.3500185173,0.132971225947
1524842731416693925,5.0117405448,-13.3537641175,0.132500700759
1524842731421525955,5.01138248168,-13.3548091208,0.133058345345
1524842731476716041,5.01320902017,-13.3564030503,0.132566144653
1524842731519052028,5.01148313372,-13.3549017888,0.132694585667
1524842731519478082,5.0145353699,-13.3539299418,0.132454724624
1524842731556081056,5.01388878861,-13.3513957304,0.132826242368
1524842731580120086,5.01692127053,-13.3495529601,0.132483027836
1524842731620702028,5.01701612508,-13.3469397377,0.132918623301
1524842731620801925,5.0194778691,-13.3449797261,0.132452960797
1524842731662638902,5.02117328432,-13.342752218,0.132965926344
1524842731662851095,5.02203917118,-13.3404177203,0.132354112762
1524842731701179027,5.02357909419,-13.3390749455,0.132314507928
1524842731740318059,5.0204203513,-13.3399030616,0.132271244581
1524842731740457057,5.0155028928,-13.3427016495,0.132272375209
1524842731781162023,5.00899685799,-13.3467109051,0.132272852626
1524842731783565998,5.00089179923,-13.3516992173,0.132272863928
1524842731820198059,4.99118941533,-13.357668938,0.132272748596
1524842731864094018,4.97989009498,-13.3646207632,0.132272623768
1524842731904278993,4.96699390759,-13.3725549356,0.132272506455
1524842731904424905,4.95250086298,-13.3814715183,0.132272396392
1524842731904489040,4.93641095905,-13.3913705332,0.132272293498
1524842731944046020,4.91872419033,-13.4022519886,0.132272197754
1524842731944134950,4.89944055054,-13.4141158881,0.132272109147
1524842732007313966,4.87860591937,-13.4269380508,0.132271477195
1524842732031716108,4.85731315124,-13.4400432841,0.132272297661
1524842732069274902,4.83601877218,-13.4531457841,0.132272351725
1524842732069766998,4.81472445625,-13.4662482608,0.132272361601
1524842732110021114,4.79343021845,-13.4793507212,0.132272360047
1524842732122936964,4.77247822789,-13.4922526944,0.132278808539
1524842732160301923,4.75333221863,-13.5047868789,0.132308387501
1524842732200262069,4.73151504932,-13.5143063148,0.132301150526
1524842732200407028,4.71854695617,-13.525072721,0.132844347926
1524842732200464963,4.70292405404,-13.5347158199,0.132510037745
1524842732240236043,4.69127801198,-13.5427616298,0.132984054532
1524842732244476079,4.67987877264,-13.5508178008,0.132522472354
1524842732287508010,4.6702356727,-13.5567258162,0.133070337654
1524842732324688911,4.66313682702,-13.5634659021,0.132461858694
1524842732324923992,4.65513427726,-13.5668900255,0.132990915423
1524842732381334066,4.652529024,-13.5722642734,0.132252661837
1524842732384744882,4.64654658015,-13.5734525046,0.132715668497
1524842732421204090,4.64767361166,-13.5768613109,0.132475120607
1524842732460154056,4.64472984454,-13.5766782212,0.132308951139
1524842732460293054,4.64846238291,-13.5779337019,0.132423077535
1524842732501324892,4.64646642776,-13.5758686415,0.13239479356
1524842732501477003,4.65014341466,-13.5753152423,0.132668181711
1524842732540158987,4.6495277012,-13.5725927612,0.132256008086
