%time,field.x,field.y,field.z
1524842709426188945,0.000282482192759,4.42221139624e-08,0.0
1524842709456525087,0.000282534961716,4.4231656533e-08,0.0
1524842709456639051,0.000282587730621,4.42411996805e-08,0.0
1524842709456703901,0.000282640499474,4.42507434828e-08,0.0
1524842709459372043,0.000282693268274,4.42602880428e-08,0.0
1524842709459451913,0.000282746037023,4.4269833292e-08,0.0
1524842709515460968,0.000282798805719,4.42793790734e-08,0.0
1524842709515564918,0.000282851574363,4.42889255584e-08,0.0
1524842709515610933,0.000282904342955,4.42984726179e-08,0.0
1524842709515825986,0.000282978218899,4.43118391538e-08,0.0
1524842709515877008,0.000283030987367,4.43213870238e-08,0.0
1524842709528343915,0.000283083755782,4.43309351551e-08,0.0
1524842709572900056,0.000283136524146,4.43404836043e-08,0.0
1524842709602938890,0.000283189292457,4.43500322515e-08,0.0
1524842709624855995,0.000283242060717,4.43595813319e-08,0.0
1524842709656056880,0.000283294828925,4.43691311338e-08,0.0
1524842709656181097,0.000283347597081,4.4378681359e-08,0.0
1524842709695090055,0.000283400365186,4.43882321533e-08,0.0
1524842709704221010,0.000283432026021,4.43939629571e-08,0.0
1524842709732546091,0.00028350590124,4.44073358226e-08,0.0
1524842709736547946,0.000283590329932,4.44226207235e-08,0.0
1524842709764089107,0.0002836430978,4.44321745902e-08,0.0
1524842709767096042,0.000283664204935,4.44359963708e-08,0.0
1524842709791553974,0.00028374863338,4.44512847533e-08,0.0
1524842709800786972,0.000283801401093,4.44608408335e-08,0.0
1524842709806618928,0.000283854168755,4.44703973405e-08,0.0
1524842709828416109,0.000283906936365,4.44799544424e-08,0.0
1524842709828871011,0.00030208588528,4.77709020436e-08,0.0
1524842709829045057,0.00140135090296,2.46068201672e-07,0.0
1524842709896579980,0.00581603955588,1.03406185369e-06,0.0
1524842709897066116,0.00989793611855,1.75656737411e-06,0.0
1524842709903546094,0.015158340497,2.68519361306e-06,0.0
1524842709903690099,0.0180158758335,3.188316415e-06,0.0
1524842709903759002,0.0251837626917,4.45168525334e-06,0.0
1524842709944690942,0.0335526753914,5.92603426845e-06,0.0
1524842709950124025,0.0431220582903,7.61141624738e-06,0.0
1524842709962515115,0.0538916340919,9.50790930405e-06,0.0
1524842710000255107,0.0718137845821,1.2664263087e-05,0.0
1524842710040256023,0.0854531694015,1.50659227483e-05,0.0
1524842710080091953,0.100292518876,1.76788917404e-05,0.0
1524842710080163002,0.116331874074,2.05032160683e-05,0.0
1524842710080207109,0.133571254912,2.35389481316e-05,0.0
1524842710119998931,0.152010670682,2.67861800525e-05,0.0
1524842710120088100,0.162878012968,2.86995046989e-05,0.0
1524842710125344991,0.191193377566,3.36950045972e-05,0.0
1524842710147716999,0.211058217953,3.72500272651e-05,0.0
1524842710185355901,0.230991265854,4.08464532857e-05,0.0
1524842710224076032,0.250958415831,4.44594266629e-05,0.0
1524842710224200963,0.270942612863,4.80798330601e-05,0.0
1524842710264471054,0.290935328273,5.17037372937e-05,0.0
1524842710264688968,0.310932297149,5.5329338822e-05,0.0
1524842710264802932,0.330931386772,5.89557909706e-05,0.0
1524842710304373979,0.350931530676,6.25827540562e-05,0.0
1524842710307542085,0.370932195602,6.62101097725e-05,0.0
1524842710374680995,0.390933114939,6.98377461046e-05,0.0
1524842710412175893,0.410934155423,7.3465688002e-05,0.0
1524842710412257909,0.430935250477,7.70939850291e-05,0.0
1524842710412307977,0.450936366876,8.07224594368e-05,0.0
1524842710453212976,0.470937488076,8.43510550148e-05,0.0
1524842710453319072,0.50308544492,9.01837012511e-05,0.0
1524842710470850944,0.530940817262,9.52382100129e-05,0.0
1524842710486608028,0.550941908015,9.88676762137e-05,0.0
1524842710524808883,0.570942988141,0.000102497251258,0.0
1524842710564811944,0.590944057528,0.000106127006333,0.0
1524842710604412078,0.610945116194,0.00010975702978,0.0
1524842710604576110,0.63094616422,0.000113387322108,0.0
1524842710644855022,0.663079915196,0.000119220067678,0.0
1524842710644946098,0.683079274033,0.000122850561829,0.0
1524842710644994020,0.703078643584,0.000126481210785,0.0
1524842710684356927,0.723078023706,0.000130111991157,0.0
1524842710686172962,0.743077414254,0.000133742833124,0.0
1524842710724920988,0.770953212258,0.000138803685732,0.0
1524842710725208997,0.790954179311,0.000142434980408,0.0
1524842710767514944,0.810955136699,0.000146066368093,0.0
1524842710773468017,0.843074517851,0.000151898080982,0.0
1524842710816648006,0.850957022772,0.000153329386728,0.0
1524842710816906929,0.883073426499,0.000159161318732,0.0
1524842710856977939,0.90307289449,0.000162793134226,0.0
1524842710860786914,0.930960681637,0.000167857548239,0.0
1524842710900058031,0.943071856817,0.000170056903114,0.0
1524842710900178909,0.963071350748,0.00017368886807,0.0
1524842710940552949,0.983070852914,0.00017732095548,0.0
1524842710969959020,1.00307036311,0.000180953159504,0.0
1524842711008274078,1.03096504545,0.000186019468115,0.0
1524842711008420944,1.0509658904,0.000189652288848,0.0
1524842711008558988,1.0630689397,0.000191850656016,0.0
1524842711059382915,1.0830684799,0.000195483511183,0.0
1524842711060910940,1.10306802709,0.000199116578582,0.0
1524842711097534894,1.13096917768,0.000204185354803,0.0
1524842711137808084,1.1630667086,0.000210016703173,0.0
1524842711137876033,1.18306628181,0.000213650561794,0.0
1524842711176013946,1.20306586107,0.000217284752678,0.0
1524842711176140069,1.22306544622,0.000220919145449,0.0
1524842711217631101,1.2509738323,0.000225991166776,0.0
1524842711218296051,1.27097457618,0.000229626332816,0.0
1524842711218663930,1.28306423557,0.00023182369789,0.0
1524842711269076108,1.30306384289,0.000235458953281,0.0
1524842711301590919,1.33097675415,0.000240532999161,0.0
1524842711340070009,1.35097746251,0.000244168976703,0.0
1524842711340162992,1.3709781622,0.000247805128843,0.0
1524842711380251884,1.40306195625,0.000253638339606,0.0
1524842711380395889,1.42306159376,0.000257274754574,0.0
1524842711380446910,1.44306123608,0.000260911380683,0.0
1524842711420051097,1.46306088319,0.000264548230737,0.0
1524842711434555053,1.50327322238,0.000271861442471,0.0
1524842711472182989,1.52305875074,0.000275460180588,0.0
1524842711512330055,1.54307061398,0.000279100256792,0.0
1524842711512478113,1.5630762812,0.00028273940507,0.0
1524842711553388118,1.58307876125,0.000286378093358,0.0
1524842711553725957,1.60307968148,0.000290016624328,0.0
1524842711592029094,1.62307984452,0.0002936551832,0.0
1524842711592120885,1.64307964176,0.00029729385801,0.0
1524842711633023977,1.66307926463,0.000300932700146,0.0
1524842711637432098,1.68307880706,0.000304571661795,0.0
1524842711677210092,1.70307831521,0.000308210783675,0.0
1524842711677453041,1.72307781175,0.000311850063047,0.0
1524842711716294050,1.74307730779,0.000315489388437,0.0
1524842711716433048,1.77101097013,0.00032057259328,0.0
1524842711756556034,1.79101130844,0.00032421224543,0.0
1524842711756804943,1.81101164554,0.000327851967501,0.0
1524842711796154022,1.83101198169,0.000331491855409,0.0
1524842711796277999,1.85101231701,0.000335131885222,0.0
1524842711837610960,1.8710126515,0.000338772055223,0.0
1524842711856180906,1.89101298514,0.000342412371538,0.0
1524842711892498016,1.91101331786,0.000346052770729,0.0
1524842711892700910,1.93101364959,0.000349693296943,0.0
1524842711932573080,1.96307229699,0.000355528807746,0.0
1524842711932766914,1.97101430972,0.000356974511825,0.0
1524842711973690032,1.99101463794,0.000360615259337,0.0
1524842711990477085,2.01101496478,0.000364256100661,0.0
1524842712029457092,2.04307072991,0.000370091814817,0.0
1524842712030168056,2.06307035682,0.000373732979879,0.0
1524842712030411005,2.0910162563,0.000378821230342,0.0
1524842712068974971,2.1030696315,0.000381015977217,0.0
1524842712069370031,2.12306927881,0.000384657839206,0.0
1524842712084503889,2.15101720518,0.000389747354464,0.0
1524842712115128993,2.17101751716,0.000393389810395,0.0
1524842712154959917,2.19101782681,0.000397032438047,0.0
1524842712155422925,2.21101813405,0.000400675266982,0.0
1524842712191983938,2.23101843881,0.000404318263857,0.0
1524842712218996047,2.25101874099,0.000407961446594,0.0
1524842712256120920,2.27101904055,0.000411604831615,0.0
1524842712256212949,2.29101933743,0.000415248542866,0.0
1524842712256292104,2.31101963158,0.000418892584962,0.0
1524842712303806066,2.34319109222,0.000424754678063,0.0
1524842712328938007,2.35102425155,0.000426182077554,0.0
1524842712370665073,2.38307172412,0.000432022394866,0.0
1524842712408535003,2.41103282848,0.000437118822216,0.0
1524842712408737897,2.43103377923,0.000440764727746,0.0
1524842712408829927,2.45103432124,0.000444410905873,0.0
1524842712449348926,2.47103465309,0.000448057366729,0.0
1524842712450479984,2.49103487954,0.000451704099466,0.0
1524842712488135099,2.52307597089,0.000457546894775,0.0
1524842712488228082,2.54307560528,0.000461194289614,0.0
1524842712528083086,2.5630752341,0.000464841921638,0.0
1524842712541872024,2.58307486388,0.000468489712062,0.0
1524842712583261013,2.59103560102,0.000469941767387,0.0
1524842712583758115,2.61103572978,0.000473590014965,0.0
1524842712620512962,2.63103585872,0.000477238625708,0.0
1524842712620714902,2.66307343595,0.000483083748188,0.0
1524842712660960912,2.6830730954,0.000486732839639,0.0
1524842712661273956,2.71103638166,0.000491835227681,0.0
1524842712700356006,2.73103651462,0.000495484788675,0.0
1524842712700490951,2.7510366485,0.000499134455797,0.0
1524842712740534067,2.7710367833,0.000502784167807,0.0
1524842712740732908,2.791036919,0.000506433901377,0.0
1524842712781435966,2.81103705558,0.000510083732538,0.0
1524842712781986951,2.84316201822,0.000515946401801,0.0
1524842712820122003,2.86306983999,0.000519579647397,0.0
1524842712853463888,2.90316105847,0.00052689671669,0.0
1524842712893821001,2.9110490843,0.000528336461596,0.0
1524842712893927097,2.94308283423,0.000534183425801,0.0
1524842712933593988,2.96308528871,0.000537834562991,0.0
1524842712934093952,2.98308626005,0.000541485597033,0.0
1524842712972064018,3.00308650661,0.000545136611135,0.0
1524842712977294921,3.02308640353,0.000548787679324,0.0
1524842713020407915,3.04308613394,0.000552438855899,0.0
1524842713020534992,3.06308578732,0.00055609017704,0.0
1524842713060808897,3.08308540751,0.000559741684821,0.0
1524842713060926914,3.10308501594,0.000563393346998,0.0
1524842713100200891,3.12308462305,0.000567045166111,0.0
1524842713115377902,3.15105655141,0.000572153053829,0.0
1524842713152158975,3.17105651845,0.000575805521253,0.0
1524842713152280092,3.18308347425,0.000578002008594,0.0
1524842713152334928,3.2110564619,0.000583111013339,0.0
1524842713192212104,3.23105643838,0.000586764174332,0.0
1524842713219161033,3.25105641789,0.000590417647359,0.0
1524842713256105899,3.27105640029,0.000594071363788,0.0
1524842713256287097,3.29105638543,0.000597725201486,0.0
1524842713256361961,3.31105637314,0.000601379255557,0.0
1524842713296175956,3.34308072211,0.000607230571965,0.0
1524842713304306030,3.36308040789,0.000610885168025,0.0
1524842713343350887,3.38308009968,0.000614540021048,0.0
1524842713385401964,3.40307979733,0.000618195083012,0.0
1524842713385591983,3.4310563462,0.000623308362008,0.0
1524842713385679006,3.44307920962,0.000625505913861,0.0
1524842713424212932,3.45105634849,0.000626964066724,0.0
1524842713436511039,3.50307836875,0.000636474472009,0.0
1524842713476449966,3.51105636549,0.00063793313807,0.0
1524842713516155958,3.54307783419,0.000643788148228,0.0
1524842713516274929,3.55105638483,0.000645247126965,0.0
1524842713556301116,3.58307731976,0.000651103166077,0.0
1524842713556441068,3.60307706996,0.000654761273589,0.0
1524842713596807956,3.62307682505,0.000658419574395,0.0
1524842713597372055,3.64307658498,0.000662078037445,0.0
1524842713637979030,3.66307634972,0.000665736747963,0.0
1524842713651287078,3.68307611925,0.00066939565038,0.0
1524842713689062118,3.71105652392,0.00067451500455,0.0
1524842713689141988,3.7310565483,0.000678174442067,0.0
1524842713732319116,3.76307524451,0.000684033301849,0.0
1524842713732455015,3.78307503746,0.000687693095411,0.0
1524842713772228956,3.80307483498,0.000691353037488,0.0
1524842713772393941,3.82307463704,0.000695013182845,0.0
1524842713812140941,3.84307444358,0.00069867346796,0.0
1524842713812269926,3.86307425454,0.000702333874603,0.0
1524842713853236913,3.88307406986,0.000705994381391,0.0
1524842713853746891,3.90307388947,0.00070965499295,0.0
1524842713892359018,3.92307371329,0.000713315720749,0.0
1524842713892508029,3.94307354124,0.000716976529641,0.0
1524842713932106971,3.96307337322,0.000720637467731,0.0
1524842713932189941,3.98307320913,0.000724298502085,0.0
1524842713973222017,4.00307304886,0.000727959631048,0.0
1524842713973649024,4.0230728923,0.000731620884109,0.0
1524842714012198925,4.05105714326,0.00073674413067,0.0
1524842714012322902,4.07105719106,0.00074040570425,0.0
1524842714056090116,4.09105723967,0.00074406742708,0.0
1524842714056212902,4.10307230069,0.000746267270817,0.0
1524842714100359916,4.13105733885,0.000751391259916,0.0
1524842714116168022,4.16307188964,0.000757253575717,0.0
1524842714156395912,4.1830717581,0.000760916114327,0.0
1524842714156575918,4.20307162908,0.000764578854535,0.0
1524842714196082115,4.23105759342,0.000769704578052,0.0
1524842714196181058,4.24307137806,0.000771905094612,0.0
1524842714237260103,4.2710576957,0.000777031653411,0.0
1524842714256778955,4.29105774655,0.000780695549504,0.0
1524842714297107934,4.31105779711,0.000784359618027,0.0
1524842714297667026,4.3310578473,0.000788023781134,0.0
1524842714297784090,4.35105789704,0.000791688137082,0.0
1524842714336283922,4.37105794629,0.000795352735652,0.0
1524842714336402893,4.391057995,0.000799017654933,0.0
1524842714349029064,4.41105804313,0.000802682865557,0.0
1524842714370246887,4.43105809065,0.000806348393685,0.0
1524842714408092975,4.45105813755,0.00081001414633,0.0
1524842714408217906,4.46307012779,0.000812215909899,0.0
1524842714448652982,4.49105822944,0.000817346447923,0.0
1524842714456243991,4.52306981681,0.000823215099209,0.0
1524842714494213104,4.54306971569,0.000826882097272,0.0
1524842714532130002,4.56306961585,0.00083054937218,0.0
1524842714532280921,4.5830695173,0.000834216899051,0.0
1524842714572427034,4.60306942008,0.000837884652527,0.0
1524842714572565078,4.62306932421,0.000841552704547,0.0
1524842714612173080,4.64306922973,0.000845221035945,0.0
1524842714612276077,4.66306913669,0.000848889573904,0.0
1524842714651915073,4.69105865741,0.000854023903209,0.0
1524842714652081012,4.71105869848,0.000857692885233,0.0
1524842714692001104,4.73105873948,0.000861362011096,0.0
1524842714733432054,4.75105878048,0.000865031358944,0.0
1524842714772277116,4.77105882155,0.000868700961487,0.0
1524842714772413969,4.80306852913,0.000874574574866,0.0
1524842714772460937,4.82306844908,0.000878244638647,0.0
1524842714812144041,4.84306837082,0.000881914785873,0.0
1524842714812264919,4.86306829437,0.000885585094222,0.0
1524842714826491117,4.88306821973,0.000889255610455,0.0
1524842714847443103,4.90306814691,0.000892926317226,0.0
1524842714885736942,4.92306807591,0.000896597173822,0.0
1524842714886358022,4.94306800671,0.000900268095394,0.0
1524842714924185037,4.9630679393,0.00090393905558,0.0
1524842714924290895,4.98306787363,0.000907610147958,0.0
1524842714965192079,5.00306780967,0.00091128147781,0.0
1524842714965574026,5.02306774738,0.000914953032911,0.0
1524842715006231069,5.04306768669,0.000918624701892,0.0
1524842715006766080,5.07105946909,0.000923763567365,0.0
1524842715044068098,5.0910595144,0.000927435310505,0.0
1524842715075731992,5.11105955979,0.000931107115836,0.0
1524842715112554073,5.13105960517,0.00093477906586,0.0
1524842715112708091,5.15105965047,0.000938451176683,0.0
1524842715152597904,5.16306735227,0.000940655962616,0.0
1524842715152652025,5.19105974058,0.000945796129091,0.0
1524842715152686119,5.2110597852,0.000949469033665,0.0
1524842715208406925,5.24306715132,0.000955347623683,0.0
1524842715236148118,5.26306710295,0.000959021166867,0.0
1524842715273756980,5.28306705515,0.000962694995589,0.0
1524842715274236917,5.30306700783,0.000966369099806,0.0
1524842715274373054,5.31106000092,0.000967837539163,0.0
1524842715312196969,5.34306691432,0.000973718049923,0.0
1524842715312290906,5.36306686799,0.000977392748321,0.0
1524842715318975925,5.38306682185,0.000981067690118,0.0
1524842715337843894,5.39106016054,0.000982536530712,0.0
1524842715377161026,5.42306672996,0.000988418418653,0.0
1524842715416131019,5.44306668414,0.000992094206318,0.0
1524842715457568883,5.46306663835,0.000995770246543,0.0
1524842715458106040,5.48306659258,0.000999446545296,0.0
1524842715458268880,5.50306654683,0.00100312314527,0.0
1524842715496217012,5.52306650111,0.00100680007376,0.0
1524842715496346950,5.55106043455,0.00101194722164,0.0
1524842715540575981,5.57106046454,0.00101562494499,0.0
1524842715566891908,5.59106049369,0.00101930292966,0.0
1524842715604844093,5.61106052204,0.00102298112539,0.0
1524842715604926109,5.64306622856,0.00102886779343,0.0
1524842715644196987,5.66306618382,0.00103254672073,0.0
1524842715644264936,5.68306613942,0.00103622591598,0.0
1524842715644316911,5.70306609543,0.00103990536416,0.0
1524842715684302091,5.72306605191,0.00104358497334,0.0
1524842715684400081,5.74306600893,0.00104726473342,0.0
1524842715721478939,5.76306596656,0.00105094469525,0.0
1524842715721704959,5.78306592486,0.00105462479847,0.0
1524842715760014057,5.8030658839,0.0010583050971,0.0
1524842715760096073,5.82306584374,0.00106198559898,0.0
1524842715801513910,5.83106080141,0.00106345691479,0.0
1524842715820451021,5.88306572856,0.00107302803431,0.0
1524842715860079050,5.90306569209,0.00107670923342,0.0
1524842715903996944,5.92306565662,0.00108039055764,0.0
1524842715944221973,5.95106095025,0.00108554363917,0.0
1524842715944335937,5.97106097592,0.00108922505364,0.0
1524842715985090970,5.9910610019,0.0010929065589,0.0
1524842715985272884,6.01106102817,0.00109658812825,0.0
1524842715985373020,6.03106105474,0.00110026975818,0.0
1524842716024462938,6.08306540995,0.00110984350764,0.0
1524842716036700963,6.10306538345,0.00111352581822,0.0
1524842716080854892,6.12306535776,0.00111720825429,0.0
1524842716121565103,6.14306533282,0.00112089079749,0.0
1524842716122113943,6.16306530857,0.00112457344542,0.0
1524842716160552978,6.18306528493,0.00112825626467,0.0
1524842716169806003,6.20306526182,0.00113193929901,0.0
1524842716208085060,6.24306521683,0.00113930586143,0.0
1524842716208194017,6.26306519481,0.00114298931553,0.0
1524842716248018980,6.28306517299,0.00114667291817,0.0
1524842716286207914,6.31106143311,0.0011518295433,0.0
1524842716325315952,6.33106145806,0.00115551357974,0.0
1524842716325449943,6.35106148236,0.0011591978229,0.0
1524842716364511966,6.37106150596,0.00116288234347,0.0
1524842716364729881,6.38306506415,0.0011650938285,0.0
1524842716405215024,6.41106155082,0.00117025212029,0.0
1524842716405549049,6.43106157199,0.00117393736707,0.0
1524842716444307088,6.46306497354,0.00117983493635,0.0
1524842716444447994,6.48306495001,0.00118352093782,0.0
1524842716444492101,6.5030649261,0.00118720723913,0.0
1524842716484404087,6.51106164776,0.00118868126432,0.0
1524842716496175050,6.5430648771,0.0011945810478,0.0
1524842716537655115,6.56306485203,0.00119826841027,0.0
1524842716576250076,6.5830648266,0.00120195601572,0.0
1524842716576387882,6.60306480085,0.00120564389476,0.0
1524842716576451063,6.62306477481,0.0012093320565,0.0
1524842716620176076,6.64306474855,0.0012130204454,0.0
1524842716639504909,6.66306472209,0.00121670907929,0.0
1524842716676390886,6.69106176844,0.0012218732575,0.0
1524842716676573991,6.71106177855,0.00122556268853,0.0
1524842716676637887,6.73106178823,0.00122925234405,0.0
1524842716716265916,6.75106179758,0.00123294223834,0.0
1524842716716376066,6.77106180666,0.00123663233017,0.0
1524842716750792980,6.79106181556,0.00124032266963,0.0
1524842716751329898,6.81106182436,0.00124401320879,0.0
1524842716788100957,6.83106183312,0.00124770389341,0.0
1524842716828118085,6.85106184193,0.00125139471924,0.0
1524842716828224897,6.88306443846,0.00125730091407,0.0
1524842716868658065,6.90306441516,0.00126099233567,0.0
1524842716868849992,6.92306439254,0.0012646839208,0.0
1524842716908335924,6.94306437064,0.00126837559769,0.0
1524842716908432960,6.96306434949,0.00127206736591,0.0
1524842716949920892,6.98306432911,0.00127575923557,0.0
1524842716964652061,7.00306430953,0.00127945123748,0.0
1524842717004157066,7.02306429075,0.00128314336889,0.0
1524842717004255056,7.04306427277,0.00128683558708,0.0
1524842717044132947,7.06306425557,0.00129052791358,0.0
1524842717044250965,7.09106196924,0.00129569701217,0.0
1524842717084372043,7.11106198227,0.00129938962593,0.0
1524842717084567070,7.13106199561,0.00130308234674,0.0
1524842717124097108,7.15106200922,0.00130677526818,0.0
1524842717124193906,7.17106202305,0.00131046829133,0.0
1524842717168219089,7.19106203703,0.00131416136812,0.0
1524842717168375015,7.22306414192,0.001320070818,0.0
1524842717208219051,7.24306412987,0.00132376423101,0.0
1524842717208333015,7.25106207926,0.0013252412797,0.0
1524842717249089002,7.28306410641,0.00133115153564,0.0
1524842717260312080,7.30306409485,0.001334845434,0.0
1524842717301203012,7.32306408329,0.00133853952583,0.0
1524842717301342964,7.33106213357,0.00134001685583,0.0
1524842717301413059,7.3510621463,0.00134371124405,0.0
1524842717340301990,7.3830640479,0.00134962303932,0.0
1524842717352555036,7.40306403562,0.00135331795725,0.0
1524842717388253927,7.423064023,0.00135701311752,0.0
1524842717388379096,7.44306400998,0.00136070853027,0.0
1524842717428740024,7.46306399653,0.0013644041908,0.0
1524842717428925991,7.48306398259,0.00136810009539,0.0
1524842717468302011,7.50306396814,0.00137179625165,0.0
1524842717468383073,7.52306395317,0.00137549271523,0.0
1524842717508261919,7.54306393766,0.00137918949014,0.0
1524842717508399963,7.56306392161,0.00138288656846,0.0
1524842717549032926,7.59106224791,0.00138806269941,0.0
1524842717552385091,7.61106225138,0.00139176053327,0.0
1524842717588085889,7.63106225413,0.00139545858024,0.0
1524842717629460096,7.65106225619,0.00139915683913,0.0
1524842717669727087,7.68306381506,0.00140507478965,0.0
1524842717670089960,7.70306379595,0.00140877365589,0.0
1524842717670283079,7.72306377661,0.00141247264728,0.0
1524842717708348989,7.7430637571,0.0014161717404,0.0
1524842717708440065,7.76306373749,0.00141987093323,0.0
1524842717713459968,7.78306371786,0.00142357026179,0.0
1524842717718501091,7.80306765823,0.00142727050988,0.0
1524842717767575025,7.83106249804,0.00143244930091,0.0
1524842717804270029,7.85106257969,0.00143614932963,0.0
1524842717844660043,7.86306395836,0.00143836972498,0.0
1524842717844902992,7.88306399186,0.00144207012853,0.0
1524842717844968080,7.90306399671,0.00144577064191,0.0
1524842717884778022,7.92306398787,0.00144947128685,0.0
1524842717888765096,7.95106265124,0.00145465216537,0.0
1524842717928291082,7.97106264852,0.0014583531202,0.0
1524842717969278097,7.9910626455,0.00146205422264,0.0
1524842717969594001,8.01106264265,0.00146575544174,0.0
1524842718008297920,8.03106264019,0.00146945674237,0.0
1524842718025382995,8.06306386314,0.00147537939312,0.0
1524842718072873115,8.08306384665,0.00147908100827,0.0
1524842718112030982,8.12306381598,0.00148648459905,0.0
1524842718112135887,8.13106263605,0.00148796520006,0.0
1524842718152270078,8.16306378824,0.00149388904486,0.0
1524842718152394056,8.18306377536,0.00149759150328,0.0
1524842718152435064,8.20306376308,0.00150129403542,0.0
1524842718192725896,8.22306375133,0.00150499665002,0.0
1524842718222307920,8.24306374005,0.00150869945439,0.0
1524842718260997056,8.26306372916,0.00151240252939,0.0
1524842718301314115,8.29106265319,0.00151758685609,0.0
1524842718301805019,8.31106265624,0.00152129029982,0.0
1524842718301970958,8.32306369806,0.00152351266628,0.0
1524842718340672016,8.36306645947,0.00153092101176,0.0
1524842718340821027,8.38306365304,0.00153462465081,0.0
1524842718378010988,8.40306380207,0.00153832911259,0.0
1524842718378454923,8.43106293222,0.00154351555795,0.0
1524842718416013956,8.45106294838,0.00154722052295,0.0
1524842718416122913,8.46306390056,0.00154944380139,0.0
1524842718456111907,8.49106295644,0.00155463134797,0.0
1524842718456219911,8.51106295499,0.00155833709513,0.0
1524842718496339082,8.53106295181,0.00156204306309,0.0
1524842718496464014,8.55106294747,0.00156574914855,0.0
1524842718536051034,8.57106294224,0.00156945543509,0.0
1524842718549609899,8.59106293626,0.00157316200105,0.0
1524842718588212966,8.62306378745,0.0015790932649,0.0
1524842718588330984,8.63106292235,0.0015805760263,0.0
1524842718628428936,8.6510629145,0.00158428354114,0.0
1524842718628592967,8.67106290611,0.00158799135678,0.0
1524842718669512033,8.70306371102,0.00159392470153,0.0
1524842718669751882,8.73106287814,0.00159911667179,0.0
1524842718708295106,8.75106286807,0.00160282560983,0.0
1524842718749300003,8.77106285773,0.00160653484675,0.0
1524842718749720096,8.79106284719,0.00161024432163,0.0
1524842718749910116,8.81106283652,0.00161395402649,0.0
1524842718788326025,8.83106282579,0.00161766396985,0.0
1524842718788470029,8.85106281508,0.00162137410311,0.0
1524842718809441089,8.87106280447,0.00162508438939,0.0
1524842718821331024,8.89106279403,0.00162879487504,0.0
1524842718869580030,8.91106278384,0.00163250558509,0.0
1524842718908094882,8.93106277395,0.00163621648811,0.0
1524842718948438882,8.97106275536,0.00164363864558,0.0
1524842718948616027,8.99106274676,0.00164735002146,0.0
1524842718988209009,9.02306340218,0.00165328854135,0.0
1524842718988318920,9.04306338659,0.00165700014901,0.0
1524842719028146028,9.06306337172,0.0016607117956,0.0
1524842719028450012,9.08306335759,0.00166442351391,0.0
1524842719070372104,9.11106270733,0.00166961997372,0.0
1524842719070611000,9.12306333155,0.00167184726221,0.0
1524842719108079910,9.15106269913,0.00167704412363,0.0
1524842719108185052,9.17106269592,0.00168075648901,0.0
1524842719148016929,9.19106269326,0.00168446905774,0.0
1524842719168627977,9.2110626911,0.00168818182887,0.0
1524842719208726882,9.2310626894,0.00169189471669,0.0
1524842719208973884,9.24306326971,0.00169412263978,0.0
1524842719209068059,9.26306326134,0.00169783581925,0.0
1524842719248337030,9.29106268645,0.00170303446751,0.0
1524842719248470067,9.31106268596,0.00170674803241,0.0
1524842719263783931,9.33106268538,0.00171046178762,0.0
1524842719308590888,9.35106268503,0.00171417572645,0.0
1524842719348285913,9.37106268467,0.00171788984003,0.0
1524842719348479032,9.39106268421,0.00172160423584,0.0
1524842719348560094,9.41106268357,0.00172531890639,0.0
1524842719389149904,9.423063202,0.00172754791794,0.0
1524842719392412900,9.45106268148,0.00173274893415,0.0
1524842719432348012,9.47106267988,0.00173646421461,0.0
1524842719472485065,9.49106267784,0.00174017976125,0.0
1524842719472851991,9.51106267529,0.00174389559354,0.0
1524842719473006010,9.53106267219,0.00174761168054,0.0
1524842719513051033,9.55106266851,0.00175132803498,0.0
1524842719534873008,9.57106266422,0.00175504465345,0.0
1524842719573563098,9.6110626537,0.00176247880465,0.0
1524842719573822021,9.63106264746,0.00176619619858,0.0
1524842719612040996,9.64306309511,0.00176842681579,0.0
1524842719612143993,9.67106263307,0.00177363169977,0.0
1524842719652514934,9.69106262495,0.00177734984051,0.0
1524842719652616977,9.71106261626,0.00178106827956,0.0
1524842719692081928,9.73106260705,0.00178478700605,0.0
1524842719692198038,9.75106259735,0.00178850600007,0.0
1524842719733670949,9.77106258722,0.00179222532873,0.0
1524842719733750104,9.79106257673,0.00179594491677,0.0
1524842719772933959,9.81106256595,0.00179966461075,0.0
1524842719788386106,9.83106255494,0.00180338446836,0.0
1524842719828490972,9.85106254378,0.00180710460339,0.0
1524842719828685998,9.87106253254,0.00181082495284,0.0
1524842719868145942,9.90306289719,0.00181677792861,0.0
1524842719868285894,9.92306288124,0.00182049871322,0.0
1524842719908282041,9.94306286554,0.00182421969065,0.0
1524842719908395051,9.96306285018,0.00182794085287,0.0
1524842719948810100,9.98306283522,0.00183166213044,0.0
1524842719969088077,10.0030628207,0.00183538357042,0.0
1524842720009471893,10.0230628067,0.00183910516588,0.0
1524842720009955883,10.0430627933,0.00184282673841,0.0
1524842720053394079,10.0710624319,0.00184803686437,0.0
1524842720053781032,10.0910624243,0.00185175850564,0.0
1524842720092888116,10.1230627458,0.00185771333232,0.0
1524842720095285892,10.1430627356,0.00186143510161,0.0
1524842720133007049,10.1630627261,0.00186515692825,0.0
1524842720172323942,10.1910623955,0.00187036742169,0.0
1524842720172506093,10.2110623915,0.00187408932923,0.0
1524842720213732004,10.231062388,0.00187781137032,0.0
1524842720214296102,10.251062385,0.00188153355126,0.0
1524842720252980947,10.2830626816,0.00188748944796,0.0
1524842720262800931,10.3030626759,0.00189121201366,0.0
1524842720301496028,10.3310623769,0.00189642382649,0.0
1524842720340276956,10.3430626655,0.00189865762536,0.0
1524842720340445995,10.3710623742,0.00190386991073,0.0
1524842720340521097,10.3910623729,0.00190759325971,0.0
1524842720380444049,10.4110623716,0.00191131675455,0.0
1524842720380734920,10.4310623702,0.00191504032657,0.0
1524842720394850015,10.4510623686,0.00191876405459,0.0
1524842720409584045,10.4710623667,0.00192248800308,0.0
1524842720448332071,10.4910623644,0.00192621221772,0.0
1524842720448434114,10.5110623618,0.00192993668887,0.0
1524842720494205951,10.5310623587,0.00193366137446,0.0
1524842720503554105,10.5510623551,0.0019373863406,0.0
1524842720544629096,10.5710623509,0.00194111159517,0.0
1524842720545222043,10.5910623462,0.00194483706016,0.0
1524842720586626052,10.6230625803,0.00195079853156,0.0
1524842720586746931,10.6430625708,0.00195452497011,0.0
1524842720624308109,10.6510623281,0.00195601559344,0.0
1524842720624464988,10.6830625501,0.00196197890633,0.0
1524842720666228055,10.7030625388,0.0019657064026,0.0
1524842720666768074,10.7230625269,0.00196943415113,0.0
1524842720705456018,10.7430625145,0.00197316214601,0.0
1524842720723432064,10.7630625015,0.00197689047358,0.0
1524842720760521888,10.7830624881,0.00198061911795,0.0
1524842720801258087,10.8030624743,0.00198434797882,0.0
1524842720801547050,10.8230624601,0.00198807709183,0.0
1524842720802500963,10.8430624457,0.00199180652238,0.0
1524842720840697050,10.863062431,0.00199553618849,0.0
1524842720840774059,10.8830624162,0.00199926606803,0.0
1524842720840830087,10.9030624014,0.00200299620492,0.0
1524842720889822006,10.9230623865,0.00200672661459,0.0
1524842720906708955,10.9430623718,0.00201045719713,0.0
1524842720945192098,10.9630623572,0.00201418793332,0.0
1524842720945281982,10.9830623428,0.00201791886721,0.0
1524842720945349931,11.0030623288,0.00202164995221,0.0
1524842720985914945,11.0230623152,0.00202538122732,0.0
1524842720986074924,11.043062302,0.00202911267587,0.0
1524842721028525114,11.0630622893,0.00203284425443,0.0
1524842721060312032,11.0830622771,0.00203657595486,0.0
1524842721101619005,11.1110620834,0.00204180040451,0.0
1524842721102210998,11.131062075,0.00204553237285,0.0
1524842721102391958,11.1510620671,0.00204926450213,0.0
1524842721140289068,11.1710620599,0.00205299672273,0.0
1524842721140450000,11.1910620533,0.00205672905047,0.0
1524842721152439117,11.2110620472,0.00206046143171,0.0
1524842721170428991,11.2310620418,0.00206419391294,0.0
1524842721208228111,11.251062037,0.00206792658004,0.0
1524842721249027013,11.2830621896,0.00207389924434,0.0
1524842721249428987,11.3030621841,0.00207763223335,0.0
1524842721288295984,11.323062179,0.00208136522673,0.0
1524842721288395881,11.3430621743,0.00208509833777,0.0
1524842721329286098,11.3630621699,0.00208883155536,0.0
1524842721329860925,11.391062015,0.00209405822654,0.0
1524842721368206024,11.4110620129,0.00209779176995,0.0
1524842721368355035,11.4310620107,0.00210152542016,0.0
1524842721408118009,11.4510620086,0.00210525920775,0.0
1524842721408222913,11.4710620062,0.00210899314551,0.0
1524842721448160886,11.4910620037,0.00211272733153,0.0
1524842721460864067,11.5110620009,0.00211646182607,0.0
1524842721501632928,11.5310619978,0.00212019659313,0.0
1524842721501909017,11.5510619943,0.00212393153164,0.0
1524842721540208101,11.5710619903,0.00212766666721,0.0
1524842721540313005,11.5910619858,0.00213140210085,0.0
1524842721580209970,11.6110619808,0.00213513777684,0.0
1524842721580323934,11.6310619751,0.00213887370241,0.0
1524842721642071962,11.6710619619,0.00214634612422,0.0
1524842721642427921,11.6910619544,0.00215008279473,0.0
1524842721680349111,11.7110619462,0.00215381975691,0.0
1524842721680582046,11.7340622181,0.0021581175728,0.0
1524842721720262050,11.7510619606,0.00216129449629,0.0
1524842721720366954,11.7710619577,0.00216503248863,0.0
1524842721760041952,11.7910619509,0.00216877088566,0.0
1524842721771933078,11.8110619414,0.00217250952936,0.0
1524842721808386087,11.8310619304,0.00217624848566,0.0
1524842721848253011,11.8510619185,0.00217998770245,0.0
1524842721848371982,11.8710619059,0.00218372723689,0.0
1524842721848476886,11.891061893,0.00218746711906,0.0
1524842721890818119,11.9110618797,0.00219120727924,0.0
1524842721890970945,11.9230619786,0.00219345149892,0.0
1524842721894526958,11.951061853,0.00219868823684,0.0
1524842721916395902,11.9710618396,0.00220242912706,0.0
1524842721956084966,11.9830619343,0.0022046738447,0.0
1524842721956254005,12.0110618133,0.00220991180221,0.0
1524842721996063947,12.0430618917,0.00221589848702,0.0
1524842721996165990,12.0630618781,0.00221964032511,0.0
1524842722042720079,12.083061865,0.00222338231432,0.0
1524842722043093919,12.1030618524,0.00222712442996,0.0
1524842722080852031,12.1230618404,0.00223086662221,0.0
1524842722120150089,12.1500621958,0.00223591872319,0.0
1524842722120287895,12.1630618369,0.0022383511744,0.0
1524842722160219907,12.1910617686,0.00224359055063,0.0
1524842722160325050,12.211061765,0.00224733314032,0.0
1524842722200052022,12.223061848,0.00224957877835,0.0
1524842722200158119,12.2510617533,0.00225481878177,0.0
1524842722240181922,12.271061747,0.0022585617939,0.0
1524842722275932073,12.291061741,0.00226230484369,0.0
1524842722314186096,12.3110617353,0.0022660479117,0.0
1524842722314352989,12.33106173,0.00226979111184,0.0
1524842722314441919,12.3510617252,0.0022735344665,0.0
1524842722352385044,12.3710617207,0.00227727793945,0.0
1524842722352561950,12.3910617166,0.00228102154951,0.0
1524842722352771997,12.4110617127,0.00228476527493,0.0
1524842722394735097,12.431061709,0.00228850905611,0.0
1524842722433001041,12.4630617796,0.00229449947846,0.0
1524842722433485984,12.4830617751,0.00229824373075,0.0
1524842722472060918,12.5030617706,0.00230198813,0.0
1524842722472168922,12.523061766,0.00230573268511,0.0
1524842722513227939,12.5430617611,0.00230947745977,0.0
1524842722513428926,12.5710616824,0.00231472060415,0.0
1524842722553700923,12.5910616776,0.00231846610078,0.0
1524842722554250955,12.6110616723,0.00232221197997,0.0
1524842722592196941,12.6310616665,0.00232595828425,0.0
1524842722596911907,12.6510616602,0.00232970490336,0.0
1524842722636462926,12.6710616534,0.00233345182175,0.0
1524842722680461883,12.703061707,0.00233944754539,0.0
1524842722717221975,12.7230616977,0.00234319526205,0.0
1524842722717607975,12.7430616878,0.0023469432769,0.0
1524842722717731952,12.7630616773,0.00235069160054,0.0
1524842722756946086,12.7830616661,0.00235444020095,0.0
1524842722757569074,12.8030616544,0.00235818907902,0.0
1524842722796250104,12.8310615765,0.00236343799629,0.0
1524842722841413974,12.863061779,0.00236943736633,0.0
1524842722884654045,12.8710615572,0.00237093730182,0.0
1524842722884818077,12.9030615974,0.00237693772822,0.0
1524842722884881973,12.9230615878,0.00238068843811,0.0
1524842722884943008,12.9430615755,0.00238443942063,0.0
1524842722920540094,12.963061713,0.00238819059194,0.0
1524842722924288034,12.9910615259,0.00239344250031,0.0
1524842722965325117,13.0030615737,0.00239569347924,0.0
1524842723004167079,13.0310614821,0.00240094599188,0.0
1524842723004271030,13.0510614656,0.00240469804054,0.0
1524842723044363975,13.0710614508,0.00240845021684,0.0
1524842723046653985,13.10306148,0.00241445411463,0.0
1524842723085278987,13.111061424,0.00241595518817,0.0
1524842723124207019,13.1510613999,0.00242346089998,0.0
1524842723124330997,13.1710613887,0.00242721395972,0.0
1524842723165498971,13.1910613781,0.00243096720973,0.0
1524842723166054010,13.2110613682,0.00243472064455,0.0
1524842723204535007,13.2310613589,0.00243847420273,0.0
1524842723208332061,13.2630613908,0.00244448016004,0.0
1524842723248202085,13.2830613826,0.00244823397758,0.0
1524842723290025949,13.3030613751,0.00245198783446,0.0
1524842723290517091,13.3310613219,0.00245724339949,0.0
1524842723329317092,13.3510613163,0.00246099759815,0.0
1524842723329860925,13.3710613112,0.00246475206843,0.0
1524842723368313074,13.4030613456,0.00247075952023,0.0
1524842723368500947,13.423061341,0.00247451421695,0.0
1524842723408209085,13.4430613367,0.00247826901706,0.0
1524842723408334016,13.4630613326,0.00248202397968,0.0
1524842723449686050,13.4830613287,0.00248577911316,0.0
1524842723450448036,13.5030613247,0.00248953436495,0.0
1524842723500396013,13.5230613208,0.00249328972938,0.0
1524842723513727903,13.5630613127,0.00250080109088,0.0
1524842723553719043,13.5830613083,0.00250455713511,0.0
1524842723554255008,13.6030613036,0.00250831334736,0.0
1524842723591965913,13.6230612985,0.00251206971099,0.0
1524842723592042922,13.643061293,0.00251582625523,0.0
1524842723632081031,13.663061287,0.00251958302552,0.0
1524842723632174015,13.6830612805,0.00252334005591,0.0
1524842723672399997,13.7030612734,0.002527097369,0.0
1524842723672555923,13.7230612656,0.00253085498882,0.0
1524842723712044000,13.7430612573,0.0025346128961,0.0
1524842723712138891,13.7630612484,0.00253837110503,0.0
1524842723767826080,13.7910612014,0.00254363307962,0.0
1524842723768141031,13.8110611914,0.00254739196045,0.0
1524842723804169893,13.8310611808,0.00255115106992,0.0
1524842723804313898,13.8510611696,0.00255491045867,0.0
1524842723844258069,13.8710611579,0.002558670111,0.0
1524842723844372987,13.8910611457,0.00256243001999,0.0
1524842723844450950,13.903061169,0.00256468607138,0.0
1524842723888268947,13.9230611557,0.00256844634903,0.0
1524842723913028955,13.9510611067,0.00257371117686,0.0
1524842723953284025,13.9710610931,0.00257747212795,0.0
1524842723992283105,14.0030610999,0.00258349018211,0.0
1524842723992424964,14.0230610857,0.00258725167814,0.0
1524842723992487907,14.0310610518,0.00258875632208,0.0
1524842724033058881,14.0630610574,0.00259477527835,0.0
1524842724033238887,14.0830610435,0.00259853742164,0.0
1524842724040461063,14.1030610298,0.002602299758,0.0
1524842724057331085,14.1230610165,0.00260606231279,0.0
1524842724098774909,14.1510609728,0.00261133022112,0.0
1524842724137264966,14.1710609609,0.00261509318716,0.0
1524842724176641941,14.1910609495,0.00261885626533,0.0
1524842724216232061,14.2310609285,0.00262638276234,0.0
1524842724216321945,14.2510609189,0.00263014615666,0.0
1524842724257478952,14.2830609283,0.00263616777574,0.0
1524842724257958889,14.3030609201,0.00263993137185,0.0
1524842724258138895,14.3230609124,0.00264369506184,0.0
1524842724296164989,14.3430609054,0.00264745886343,0.0
1524842724299513101,14.363060899,0.00265122283274,0.0
1524842724336730957,14.3830608931,0.0026549869766,0.0
1524842724376451015,14.4030608878,0.00265875129143,0.0
1524842724376578092,14.4230608829,0.00266251583585,0.0
1524842724416192054,14.4310608595,0.00266402172731,0.0
1524842724416287899,14.4630608743,0.00267004548774,0.0
1524842724457459926,14.4830608704,0.002673810561,0.0
1524842724457861900,14.5030608667,0.00267757588051,0.0
1524842724496407985,14.5310608413,0.00268284762211,0.0
1524842724496530055,14.5430608597,0.00268510704862,0.0
1524842724536302089,14.5710608346,0.00269037918446,0.0
1524842724536405086,14.5910608311,0.00269414518383,0.0
1524842724576276063,14.6110608273,0.0026979114519,0.0
1524842724617887020,14.6310608233,0.0027016779136,0.0
1524842724656188964,14.6510608189,0.00270544451016,0.0
1524842724656290054,14.6710608141,0.00270921120734,0.0
1524842724656332969,14.7030608243,0.00271523827095,0.0
1524842724696508884,14.723060818,0.00271900549426,0.0
1524842724696620941,14.7430608111,0.00272277294488,0.0
1524842724732240915,14.7630608036,0.00272654069265,0.0
1524842724733450889,14.7830607955,0.00273030869728,0.0
1524842724773487091,14.8030607867,0.0027340769193,0.0
1524842724774043083,14.8230607773,0.00273784538908,0.0
1524842724818864107,14.8510607459,0.00274312164455,0.0
1524842724825006961,14.8710607352,0.00274689068801,0.0
1524842724864185094,14.891060724,0.00275065997653,0.0
1524842724904099941,14.9230607213,0.00275669143037,0.0
1524842724904192924,14.9430607086,0.00276046141305,0.0
1524842724904259920,14.9630606955,0.00276423156202,0.0
1524842724945633888,14.983060682,0.00276800191709,0.0
1524842724962677001,14.991060661,0.00276951011902,0.0
1524842725000186920,15.0310606338,0.00277705167595,0.0
1524842725000328063,15.0430606404,0.00277931430994,0.0
1524842725000365972,15.0630606264,0.0027830855259,0.0
1524842725049679040,15.0830606124,0.00278685687929,0.0
1524842725053534984,15.1110605789,0.00279213689029,0.0
1524842725092225074,15.1310605656,0.00279590846119,0.0
1524842725133219003,15.1430605714,0.00279817148934,0.0
1524842725133449077,15.1710605398,0.00280345209341,0.0
1524842725133500099,15.1910605275,0.00280722410182,0.0
1524842725172087907,15.2110605157,0.00281099629534,0.0
1524842725200994968,15.2310605044,0.00281476871866,0.0
1524842725240364074,15.2630605341,0.00282080491628,0.0
1524842725240611076,15.263060496,0.0028208049091,0.0
1524842725281460046,15.3030604821,0.00282835059539,0.0
1524842725281604051,15.3230604744,0.00283212360808,0.0
1524842725321199893,15.3430604668,0.00283589670043,0.0
1524842725321602106,15.3630604596,0.00283966995855,0.0
1524842725360296010,15.3830604529,0.00284344340072,0.0
1524842725360424995,15.4030604467,0.0028472169606,0.0
1524842725400397062,15.4310604276,0.0028525001746,0.0
1524842725400543928,15.4510604227,0.00285627411054,0.0
1524842725440192937,15.4630604311,0.00285853856771,0.0
1524842725440324068,15.4910604141,0.00286382239907,0.0
1524842725481164932,15.5110604103,0.00286759667125,0.0
1524842725521445035,15.5310604067,0.00287137112178,0.0
1524842725560235977,15.5510604033,0.00287514581375,0.0
1524842725560342073,15.5710603999,0.00287892067818,0.0
1524842725560408115,15.603060405,0.00288496093777,0.0
1524842725606451988,15.6110603931,0.00288647109587,0.0
1524842725606558084,15.6430603976,0.00289251220096,0.0
1524842725623467922,15.6630603935,0.00289628820247,0.0
1524842725623636007,15.6830603891,0.00290006441531,0.0
1524842725660414934,15.7030603843,0.00290384089829,0.0
1524842725700261116,15.7310603668,0.00290912838473,0.0
1524842725700383901,15.7510603609,0.00291290542129,0.0
1524842725700449943,15.763060367,0.00291517178751,0.0
1524842725745822906,15.7910603474,0.00292046042065,0.0
1524842725746169090,15.8110603397,0.00292423836218,0.0
1524842725784245967,15.8310603314,0.00292801653342,0.0
1524842725825062990,15.8430603356,0.00293028355636,0.0
1524842725825387001,15.8710603129,0.00293557375227,0.0
1524842725864330053,15.8910603027,0.00293935281108,0.0
1524842725876619100,15.9230602941,0.00294539978433,0.0
1524842725917512893,15.9510602687,0.00295069128629,0.0
1524842725917922019,15.9710602564,0.00295447126305,0.0
1524842725956036090,16.0070602704,0.00296127564999,0.0
1524842725959496021,16.0230602375,0.00296430026298,0.0
1524842725997087955,16.0430602263,0.00296808125644,0.0
1524842726036497116,16.0630602136,0.00297186250665,0.0
1524842726077617883,16.0830602002,0.00297564396491,0.0
1524842726078049898,16.1030601864,0.00297942564915,0.0
1524842726078150987,16.1230601725,0.00298320755428,0.0
1524842726116106986,16.1430601586,0.00298698959973,0.0
1524842726130700111,16.1630601449,0.00299077177294,0.0
1524842726169502973,16.2030601184,0.00299833642164,0.0
1524842726170025110,16.2230601057,0.00300211904668,0.0
1524842726208187103,16.2430600934,0.00300590182603,0.0
1524842726208307981,16.2630600817,0.0030096847259,0.0
1524842726249557018,16.2830600706,0.00301346779336,0.0
1524842726249927043,16.3110600497,0.00301876442769,0.0
1524842726288285017,16.3310600401,0.00302254795228,0.0
1524842726288429021,16.3510600312,0.00302633168199,0.0
1524842726341191053,16.3710600229,0.0030301154537,0.0
1524842726341670036,16.3910600152,0.003033899289,0.0
1524842726394861936,16.4110600081,0.00303768324115,0.0
1524842726432405948,16.4510599957,0.00304525128886,0.0
1524842726432523965,16.4710599903,0.00304903546078,0.0
1524842726432600021,16.4910599854,0.00305281972499,0.0
1524842726472307920,16.5110599809,0.00305660411391,0.0
1524842726472445011,16.5310599767,0.0030603886753,0.0
1524842726510582923,16.5710599692,0.00306795833768,0.0
1524842726525449037,16.5830599726,0.00307022936738,0.0
1524842726564935922,16.6110599623,0.00307552877948,0.0
1524842726604176044,16.6310599588,0.00307931429451,0.0
1524842726644742012,16.6510599553,0.00308310007644,0.0
1524842726684487104,16.6710599516,0.00308688614311,0.0
1524842726684665918,16.6910599476,0.00309067245036,0.0
1524842726684762954,16.7110599434,0.00309445905651,0.0
1524842726684845924,16.7430599413,0.00310051844813,0.0
1524842726725378036,16.7510599338,0.00310203343554,0.0
1524842726740514993,16.7710599282,0.00310582103941,0.0
1524842726780242919,16.8030599236,0.00311188180409,0.0
1524842726780348062,16.8230599166,0.0031156703143,0.0
1524842726780415058,16.8310599084,0.00311718581788,0.0
1524842726821521043,16.8630599008,0.00312324825541,0.0
1524842726822026014,16.8830598919,0.003127037612,0.0
1524842726835855960,16.9030598823,0.00313082725266,0.0
1524842726852622985,16.9230598722,0.0031346171261,0.0
1524842726890274047,16.951059852,0.00313992330873,0.0
1524842726928081035,16.9630598501,0.00314219756216,0.0
1524842726928184986,16.9830598382,0.00314598823969,0.0
1524842726968760013,17.0110598161,0.00315129566395,0.0
1524842726968880891,17.0310598033,0.00315508711343,0.0
1524842727008001089,17.05105979,0.00315887890637,0.0
1524842727008083105,17.0710597766,0.00316267102162,0.0
1524842727048826932,17.0910597628,0.00316646347988,0.0
1524842727067369937,17.111059749,0.00317025619931,0.0
1524842727109162092,17.1310597351,0.00317404922025,0.0
1524842727109365940,17.1510597212,0.00317784251729,0.0
1524842727148303031,17.1710597074,0.00318163602363,0.0
1524842727169822931,17.1910596938,0.00318542970361,0.0
1524842727206243991,17.2110596804,0.00318922355076,0.0
1524842727206456899,17.2310596673,0.00319301759589,0.0
1524842727244111061,17.2630596505,0.00319908831024,0.0
1524842727246752023,17.2910596306,0.00320440035887,0.0
1524842727288194894,17.3110596193,0.0032081947669,0.0
1524842727288326025,17.3310596087,0.00321198930894,0.0
1524842727328244924,17.3430596056,0.00321426605755,0.0
1524842727328372955,17.3630595958,0.00321806065712,0.0
1524842727368086099,17.3910595803,0.00322337323887,0.0
1524842727368171930,17.4030595782,0.00322565011218,0.0
1524842727408288002,17.4310595646,0.00323096295622,0.0
1524842727408488988,17.4510595576,0.00323475794243,0.0
1524842727464451074,17.4705462806,0.00323803911239,0.0
1524842727465275049,17.506349064,0.00320449753715,0.0
1524842727504436969,17.5226569433,0.00311438901171,0.0
1524842727544398069,17.5377684833,0.00292972903036,0.0
1524842727544580936,17.5603719708,0.00240682064274,0.0
1524842727544719934,17.5644388296,0.00224981767402,0.0
1524842727584024906,17.5830702097,0.00146149300161,0.0
1524842727584172964,17.586291505,0.00126447560581,0.0
1524842727622169017,17.5954223521,0.00071034853855,0.0
1524842727623152971,17.6083124836,-0.000209336956175,0.0
1524842727660530090,17.6100369539,-0.000383143181327,0.0
1524842727660653114,17.6190234518,-0.00120959215967,0.0
1524842727739573955,17.6230061349,-0.00169540128649,0.0
1524842727739845037,17.6248973032,-0.0019468008802,0.0
1524842727776135921,17.6256550393,-0.00207788050023,0.0
1524842727817342042,17.6259374458,-0.00213525860711,0.0
1524842727817929029,17.62630934,-0.00218868723593,0.0
1524842727818139076,17.6263890958,-0.00219510821602,0.0
1524842727857625007,17.6264352832,-0.00219495240443,0.0
1524842727870783090,17.6264503592,-0.00218902854308,0.0
1524842727908184051,17.6263395803,-0.00215760986787,0.0
1524842727949795961,17.6262822775,-0.00213742134135,0.0
1524842727950354099,17.626943693,-0.00223334156565,0.0
1524842727950691938,17.6284465248,-0.00249912822833,0.0
1524842727990947008,17.6309762382,-0.0029919534217,0.0
1524842727991175889,17.6346295701,-0.00373899959144,0.0
1524842727999515056,17.638699894,-0.00461176313122,0.0
1524842728064742088,17.6408375227,-0.00509268536466,0.0
1524842728105386018,17.643771483,-0.00576723730582,0.0
1524842728105891942,17.646646094,-0.00649015933771,0.0
1524842728145354032,17.6465672544,-0.00651447776226,0.0
1524842728145421981,17.6465090409,-0.00651871472201,0.0
1524842728145456075,17.6465239129,-0.00652516997595,0.0
1524842728184225082,17.6464182726,-0.00649638957834,0.0
1524842728184356927,17.6465657344,-0.00652272459507,0.0
1524842728196218013,17.6465455776,-0.00650902000154,0.0
1524842728228113889,17.6474244584,-0.0067270123207,0.0
1524842728265213012,17.6493673204,-0.00724881092832,0.0
1524842728265443086,17.652587411,-0.00815216245017,0.0
1524842728304249048,17.6569076179,-0.00940482415234,0.0
1524842728304379940,17.6623852226,-0.0110206781236,0.0
1524842728345391035,17.6690162027,-0.012996213565,0.0
1524842728345818042,17.6767968394,-0.0153293132968,0.0
1524842728388220071,17.6857237019,-0.0180186636229,0.0
1524842728388315916,17.6957630642,-0.0210545463276,0.0
1524842728428107976,17.7047565833,-0.0238285878824,0.0
1524842728428217887,17.7129660691,-0.0263944958697,0.0
1524842728469670057,17.7195997234,-0.0285249950026,0.0
1524842728469748020,17.7252384733,-0.0303829056661,0.0
1524842728508316993,17.7263383044,-0.0308086590125,0.0
1524842728517996072,17.7328174223,-0.033049612067,0.0
1524842728557590007,17.7348987216,-0.0338572636771,0.0
1524842728557949066,17.7356737559,-0.0342265877974,0.0
1524842728596309900,17.7357242718,-0.034318592569,0.0
1524842728600640058,17.7356337325,-0.034330658796,0.0
1524842728636712074,17.7357296681,-0.0343701098613,0.0
1524842728677037000,17.7357994409,-0.0343927902692,0.0
1524842728677129030,17.73584107,-0.0344021425863,0.0
1524842728677194118,17.7358262447,-0.0343888113987,0.0
1524842728716366052,17.7358597277,-0.0343905261084,0.0
1524842728726370096,17.7359056819,-0.0343862564694,0.0
1524842728764580011,17.7359011261,-0.0343759427388,0.0
1524842728765047073,17.7359829968,-0.0343986653353,0.0
1524842728804136991,17.736012397,-0.0344030244293,0.0
1524842728824012994,17.7359421217,-0.0343691802386,0.0
1524842728864670991,17.7360372026,-0.0343944269396,0.0
1524842728901968002,17.7360049781,-0.0343702687452,0.0
1524842728902667999,17.7360376256,-0.0343725044151,0.0
1524842728902900934,17.7358867482,-0.0342867672165,0.0
1524842728940244913,17.7365753396,-0.0345959987959,0.0
1524842728940335035,17.7384946542,-0.0355450412665,0.0
1524842728960387945,17.7414395525,-0.0370362731568,0.0
1524842728998068094,17.743743383,-0.0381854909651,0.0
1524842729037422895,17.7504756321,-0.0417623054856,0.0
1524842729037919998,17.7565794191,-0.0450009229632,0.0
1524842729076169013,17.767738506,-0.0509129047887,0.0
1524842729134206056,17.7763573215,-0.0555371538479,0.0
1524842729176561117,17.7860277058,-0.0607395717015,0.0
1524842729176728963,17.7967498006,-0.0665201349131,0.0
1524842729176857948,17.8152922807,-0.0765850841118,0.0
1524842729176947116,17.8287595391,-0.0838731342755,0.0
1524842729220426082,17.8432786707,-0.0917392798404,0.0
1524842729220657110,17.8588496851,-0.100183474285,0.0
1524842729220705032,17.8661391815,-0.104095059301,0.0
1524842729236064910,17.8930759284,-0.118769404047,0.0
1524842729264548063,17.9106847113,-0.128375984001,0.0
1524842729313997030,17.9352872445,-0.141832088749,0.0
1524842729353481054,17.9527960504,-0.151422203724,0.0
1524842729353996038,17.9703213226,-0.161023803432,0.0
1524842729392020940,17.9878548489,-0.170631029675,0.0
1524842729399991989,18.0159954275,-0.186046537537,0.0
1524842729436808109,18.0335367337,-0.195658558282,0.0
1524842729437333106,18.0508840061,-0.2051708712,0.0
1524842729476226091,18.0670562555,-0.214086351056,0.0
1524842729496507883,18.0818861724,-0.222325681847,0.0
1524842729537520885,18.100556562,-0.232847433622,0.0
1524842729537924051,18.1129889959,-0.239951955512,0.0
1524842729577383995,18.1207792996,-0.244419986542,0.0
1524842729577747106,18.1347716827,-0.25282812997,0.0
1524842729577920913,18.144072836,-0.25851927667,0.0
1524842729617245912,18.152268202,-0.26365510649,0.0
1524842729617499113,18.1593278463,-0.268188327839,0.0
1524842729656261920,18.1653828862,-0.272177415724,0.0
1524842729697226047,18.1736469467,-0.277729221263,0.0
1524842729697695970,18.1744158193,-0.278356847566,0.0
1524842729697838068,18.1794377068,-0.281918737676,0.0
1524842729736234903,18.1820945294,-0.283839054277,0.0
1524842729740349054,18.185301514,-0.286148120103,0.0
1524842729780728101,18.190393227,-0.28972992154,0.0
1524842729827698945,18.1960211768,-0.293772080173,0.0
1524842729869147062,18.2082760958,-0.302720549126,0.0
1524842729869288921,18.2184718846,-0.310048332256,0.0
1524842729869359016,18.2279677881,-0.31696670243,0.0
1524842729908366918,18.2384986727,-0.324650135137,0.0
1524842729908555030,18.2500269405,-0.333074294482,0.0
1524842729924729108,18.2625347349,-0.342226080893,0.0
1524842729951052904,18.2760138411,-0.352099043419,0.0
1524842729988106966,18.2904604125,-0.362690026479,0.0
1524842729988265037,18.3058726172,-0.373997470457,0.0
1524842730028312921,18.3220702669,-0.385896112805,0.0
1524842730028414011,18.3382123267,-0.397797218635,0.0
1524842730070817947,18.3543232166,-0.409696723953,0.0
1524842730070938110,18.3704185241,-0.421595221301,0.0
1524842730108102083,18.3865060743,-0.433493068983,0.0
1524842730108196020,18.4025897816,-0.445390474018,0.0
1524842730148614883,18.4186715999,-0.457287553959,0.0
1524842730148782968,18.4411198213,-0.47389932007,0.0
1524842730192276954,18.4571998848,-0.485795577063,0.0
1524842730219104051,18.4732803989,-0.497692033695,0.0
1524842730256305932,18.4893611579,-0.509588503735,0.0
1524842730256481885,18.5054420581,-0.521484896155,0.0
1524842730256618022,18.5210669086,-0.533069035993,0.0
1524842730296236991,18.535806543,-0.544036736886,0.0
1524842730296381950,18.549747542,-0.554450163711,0.0
1524842730326833009,18.5627380982,-0.56422212295,0.0
1524842730336447000,18.5746196065,-0.573270444178,0.0
1524842730372201919,18.5856359767,-0.581807925654,0.0
1524842730372334957,18.5956110325,-0.589699204706,0.0
1524842730430521011,18.6101653638,-0.601444190734,0.0
1524842730430788040,18.6194955999,-0.609068642947,0.0
1524842730469597101,18.624271144,-0.613321163473,0.0
1524842730508277893,18.6298692686,-0.618207000407,0.0
1524842730548516035,18.6355057886,-0.623328127841,0.0
1524842730548681020,18.640379323,-0.62765832225,0.0
1524842730548768997,18.6459015987,-0.632590615717,0.0
1524842730588834047,18.6539372858,-0.639992698767,0.0
1524842730588967084,18.6579828646,-0.643819853488,0.0
1524842730592330932,18.6609650771,-0.646739291285,0.0
1524842730623620986,18.6632284734,-0.649020211316,0.0
1524842730660494089,18.6655489239,-0.651335480002,0.0
1524842730660703897,18.6688799829,-0.654587954784,0.0
1524842730726160049,18.6729829222,-0.658617153284,0.0
1524842730726402044,18.6779885054,-0.663551718028,0.0
1524842730764189958,18.6809064811,-0.666381297174,0.0
1524842730804162025,18.6905421512,-0.676023408142,0.0
1524842730804277896,18.7020247095,-0.68742167864,0.0
1524842730804358959,18.7107388789,-0.696138218356,0.0
1524842730848553895,18.7202935315,-0.705709402504,0.0
1524842730849256038,18.7306892568,-0.71613580583,0.0
1524842730856762886,18.7419263645,-0.727417696855,0.0
1524842730871371030,18.7540050236,-0.739555191152,0.0
1524842730908221006,18.7744446542,-0.760169328369,0.0
1524842730949661970,18.7885976014,-0.774421481165,0.0
1524842730988110065,18.8027044972,-0.788676994089,0.0
1524842730988234996,18.8167801842,-0.802926138891,0.0
1524842731028197050,18.8308403312,-0.817171935913,0.0
1524842731028352022,18.8364392644,-0.82284863806,0.0
1524842731069453001,18.864513111,-0.851312243967,0.0
1524842731070022106,18.8785558494,-0.865551106056,0.0
1524842731108500957,18.8926000838,-0.879791630212,0.0
1524842731108673095,18.9151248049,-0.902626656456,0.0
1524842731148905992,18.9338007091,-0.921632033144,0.0
1524842731171001911,18.953899035,-0.94214799266,0.0
1524842731208000898,18.9651455759,-0.953750667715,0.0
1524842731208102941,18.9753884889,-0.964473553367,0.0
1524842731249171018,18.9848501987,-0.974557121719,0.0
1524842731249322891,18.9992700493,-0.989951155397,0.0
1524842731290008068,19.001771832,-0.992961786223,0.0
1524842731290618896,19.0086518493,-1.00074529448,0.0
1524842731328488111,19.0160538612,-1.00942697914,0.0
1524842731346939086,19.0207399279,-1.01500589431,0.0
1524842731384082078,19.0245033073,-1.01960234643,0.0
1524842731384223937,19.0275633304,-1.02343373332,0.0
1524842731428597927,19.0297981298,-1.02632543754,0.0
1524842731428749084,19.0312207,-1.02825148052,0.0
1524842731476377964,19.0319109017,-1.02927718384,0.0
1524842731476643085,19.033436574,-1.03127469066,0.0
1524842731516990900,19.0325939345,-1.03031830519,0.0
1524842731517369985,19.0325995675,-1.03033653491,0.0
1524842731517532110,19.0325962467,-1.03033182372,0.0
1524842731580152988,19.0326829452,-1.03041853178,0.0
1524842731580406904,19.0326350794,-1.03034898855,0.0
1524842731620096921,19.0327120996,-1.03042143632,0.0
1524842731620172977,19.0327021772,-1.03038920175,0.0
1524842731660744905,19.0327288793,-1.0304030118,0.0
1524842731663305044,19.0328067568,-1.03048993639,0.0
1524842731701535940,19.0334605429,-1.03138305013,0.0
1524842731701917886,19.0351168704,-1.03386594728,0.0
1524842731744337081,19.0364341498,-1.03579151669,0.0
1524842731744455099,19.0400286895,-1.04141094464,0.0
1524842731784132957,19.043427316,-1.04673036912,0.0
1524842731784246921,19.0474535967,-1.05307429798,0.0
1524842731824223041,19.0521075539,-1.06044199733,0.0
1524842731824315071,19.0573891478,-1.06883301141,0.0
1524842731864576101,19.0663670329,-1.08305606778,0.0
1524842731864738941,19.0731480702,-1.09389359196,0.0
1524842731904274940,19.0805568843,-1.10575400737,0.0
1524842731904418945,19.0885935524,-1.11863733546,0.0
1524842731944040060,19.0932128444,-1.12613328626,0.0
1524842731944129943,19.1022609964,-1.14066196748,0.0
1524842731989168882,19.1164712238,-1.16342468904,0.0
1524842732031694889,19.1267684799,-1.18003059897,0.0
1524842732069408893,19.1371607442,-1.1968506254,0.0
1524842732069811105,19.1476009237,-1.21377747057,0.0
1524842732069971084,19.1580652214,-1.23075757428,0.0
1524842732108803033,19.168541673,-1.24776419988,0.0
1524842732109112977,19.1790242851,-1.26478398808,0.0
1524842732125112056,19.1891156374,-1.28122861302,0.0
1524842732132343053,19.1985965927,-1.29675058152,0.0
1524842732169346094,19.2044786515,-1.30633368156,0.0
1524842732208688020,19.2158162939,-1.3251670911,0.0
1524842732208800077,19.2234500156,-1.33794400714,0.0
1524842732247987031,19.230358987,-1.34974158635,0.0
1524842732248107910,19.240455411,-1.36742772765,0.0
1524842732289557933,19.2420211804,-1.37041184182,0.0
1524842732289969921,19.2499515095,-1.38496930526,0.0
1524842732328468084,19.2510523755,-1.38722009722,0.0
1524842732328608989,19.2545558903,-1.39401460133,0.0
1524842732368630886,19.259409141,-1.4036510599,0.0
1524842732384788990,19.261378097,-1.40781481496,0.0
1524842732420362949,19.2627430927,-1.4108569572,0.0
1524842732420545101,19.2635920182,-1.4128838645,0.0
1524842732460187911,19.2638989088,-1.41379288085,0.0
1524842732460310935,19.2637905071,-1.4137854578,0.0
1524842732501324892,19.2637374975,-1.41377184978,0.0
1524842732501471996,19.2636812656,-1.41368945706,0.0
1524842732540297985,19.263718671,-1.41376579773,0.0
1524842732540469884,19.2637285006,-1.41377554923,0.0
1524842732582340002,19.2637227735,-1.41374307461,0.0
1524842732582700014,19.2637726928,-1.41381211908,0.0
1524842732620604038,19.2637366522,-1.41371830252,0.0
1524842732620695114,19.263770874,-1.41376571837,0.0
1524842732660289049,19.2637748594,-1.41374655664,0.0
