%time;field.header.seq;field.header.stamp;field.header.frame_id;field.pose.pose.position.x;field.pose.pose.position.y;field.pose.pose.position.z;field.pose.pose.orientation.x;field.pose.pose.orientation.y;field.pose.pose.orientation.z;field.pose.pose.orientation.w;field.pose.covariance0;field.pose.covariance1;field.pose.covariance2;field.pose.covariance3;field.pose.covariance4;field.pose.covariance5;field.pose.covariance6;field.pose.covariance7;field.pose.covariance8;field.pose.covariance9;field.pose.covariance10;field.pose.covariance11;field.pose.covariance12;field.pose.covariance13;field.pose.covariance14;field.pose.covariance15;field.pose.covariance16;field.pose.covariance17;field.pose.covariance18;field.pose.covariance19;field.pose.covariance20;field.pose.covariance21;field.pose.covariance22;field.pose.covariance23;field.pose.covariance24;field.pose.covariance25;field.pose.covariance26;field.pose.covariance27;field.pose.covariance28;field.pose.covariance29;field.pose.covariance30;field.pose.covariance31;field.pose.covariance32;field.pose.covariance33;field.pose.covariance34;field.pose.covariance35
241630000000;13;241630000000;map;2.97316299973;-0.0711697869792;0.0;0.0;0.0;-0.00372029703372;0.999993079671;12.3282172503;2.34213195999;0.0;0.0;0.0;0.0;2.34213195999;2.08680129905;0.0;0.0;0.0;0.0;0.0;0.0;0.0;0.0;0.0;0.0;0.0;0.0;0.0;0.0;0.0;0.0;0.0;0.0;0.0;0.0;0.0;0.0;0.0;0.0;0.0;0.0;0.0;0.207296897688
242132000000;14;242132000000;map;3.22433123007;-0.069691758346;0.0;0.0;0.0;-0.00285457642756;0.999995925688;8.75300080463;1.41392369673;0.0;0.0;0.0;0.0;1.41392369673;1.40349029338;0.0;0.0;0.0;0.0;0.0;0.0;0.0;0.0;0.0;0.0;0.0;0.0;0.0;0.0;0.0;0.0;0.0;0.0;0.0;0.0;0.0;0.0;0.0;0.0;0.0;0.0;0.0;0.115884418459
242635000000;15;242635000000;map;3.47568158605;-0.068997483129;0.0;0.0;0.0;-0.0024602713259;0.999996973528;4.8478634329;1.07925687181;0.0;0.0;0.0;0.0;1.07925687181;0.974034882665;0.0;0.0;0.0;0.0;0.0;0.0;0.0;0.0;0.0;0.0;0.0;0.0;0.0;0.0;0.0;0.0;0.0;0.0;0.0;0.0;0.0;0.0;0.0;0.0;0.0;0.0;0.0;0.0751463378865
243144000000;16;243144000000;map;3.73088810135;-0.0680938520628;0.0;0.0;0.0;-0.00210442128966;0.999997785703;2.71197117413;0.711643220903;0.0;0.0;0.0;0.0;0.711643220903;0.713512112908;0.0;0.0;0.0;0.0;0.0;0.0;0.0;0.0;0.0;0.0;0.0;0.0;0.0;0.0;0.0;0.0;0.0;0.0;0.0;0.0;0.0;0.0;0.0;0.0;0.0;0.0;0.0;0.0414994290224
243647000000;17;243647000000;map;3.98248195636;-0.0662148085;0.0;0.0;0.0;-0.00137394650823;0.999999056135;1.68044667801;0.413509627787;0.0;0.0;0.0;0.0;0.413509627787;0.470182577842;0.0;0.0;0.0;0.0;0.0;0.0;0.0;0.0;0.0;0.0;0.0;0.0;0.0;0.0;0.0;0.0;0.0;0.0;0.0;0.0;0.0;0.0;0.0;0.0;0.0;0.0;0.0;0.0238560285972
244154000000;18;244154000000;map;4.23658618573;-0.0652344394159;0.0;0.0;0.0;-0.00128616138672;0.999999172894;1.2010388727;0.134379173713;0.0;0.0;0.0;0.0;0.134379173713;0.128696391398;0.0;0.0;0.0;0.0;0.0;0.0;0.0;0.0;0.0;0.0;0.0;0.0;0.0;0.0;0.0;0.0;0.0;0.0;0.0;0.0;0.0;0.0;0.0;0.0;0.0;0.0;0.0;0.0144673017045
244659000000;19;244659000000;map;4.48952319003;-0.064485648592;0.0;0.0;0.0;-0.00103178453267;0.99999946771;1.03150247712;0.156764583551;0.0;0.0;0.0;0.0;0.156764583551;0.207556097115;0.0;0.0;0.0;0.0;0.0;0.0;0.0;0.0;0.0;0.0;0.0;0.0;0.0;0.0;0.0;0.0;0.0;0.0;0.0;0.0;0.0;0.0;0.0;0.0;0.0;0.0;0.0;0.0101014549367
245180000000;20;245180000000;map;4.75079691912;-0.0635329391502;0.0;0.0;0.0;-0.000982947237584;0.999999516907;0.828045998013;0.0220223928072;0.0;0.0;0.0;0.0;0.0220223928072;0.0256744930565;0.0;0.0;0.0;0.0;0.0;0.0;0.0;0.0;0.0;0.0;0.0;0.0;0.0;0.0;0.0;0.0;0.0;0.0;0.0;0.0;0.0;0.0;0.0;0.0;0.0;0.0;0.0;0.00912924489272
245684000000;21;245684000000;map;5.00380906711;-0.0609357290241;0.0;0.0;0.0;-0.0005157690737;0.999999866991;0.646046454387;-0.00764160846382;0.0;0.0;0.0;0.0;-0.00764160846382;0.0124549304883;0.0;0.0;0.0;0.0;0.0;0.0;0.0;0.0;0.0;0.0;0.0;0.0;0.0;0.0;0.0;0.0;0.0;0.0;0.0;0.0;0.0;0.0;0.0;0.0;0.0;0.0;0.0;0.00444158969664
246187000000;22;246187000000;map;5.25621116847;-0.0599226685048;0.0;0.0;0.0;-0.0005138240221;0.999999867992;0.49145608765;-0.0240218491463;0.0;0.0;0.0;0.0;-0.0240218491463;0.00538006529629;0.0;0.0;0.0;0.0;0.0;0.0;0.0;0.0;0.0;0.0;0.0;0.0;0.0;0.0;0.0;0.0;0.0;0.0;0.0;0.0;0.0;0.0;0.0;0.0;0.0;0.0;0.0;0.00175787859479
246706000000;23;246706000000;map;5.5165308928;-0.0579718930723;0.0;0.0;0.0;-0.000338874653267;0.999999942582;0.219773909533;-0.0152268675698;0.0;0.0;0.0;0.0;-0.0152268675698;0.00290586534586;0.0;0.0;0.0;0.0;0.0;0.0;0.0;0.0;0.0;0.0;0.0;0.0;0.0;0.0;0.0;0.0;0.0;0.0;0.0;0.0;0.0;0.0;0.0;0.0;0.0;0.0;0.0;0.000787835463255
247211000000;24;247211000000;map;5.76982410458;-0.0555380540311;0.0;0.0;0.0;0.000178816519394;0.999999984012;0.21664873668;-0.0166119224091;0.0;0.0;0.0;0.0;-0.0166119224091;0.0031103490127;0.0;0.0;0.0;0.0;0.0;0.0;0.0;0.0;0.0;0.0;0.0;0.0;0.0;0.0;0.0;0.0;0.0;0.0;0.0;0.0;0.0;0.0;0.0;0.0;0.0;0.0;0.0;0.000787345121818
247712000000;25;247712000000;map;6.02108265307;-0.054016097468;0.0;0.0;0.0;0.000128682463978;0.99999999172;0.000961214380233;-7.04312334553e-05;0.0;0.0;0.0;0.0;-7.04312334554e-05;0.00181547334321;0.0;0.0;0.0;0.0;0.0;0.0;0.0;0.0;0.0;0.0;0.0;0.0;0.0;0.0;0.0;0.0;0.0;0.0;0.0;0.0;0.0;0.0;0.0;0.0;0.0;0.0;0.0;0.000444090429903
248219000000;26;248219000000;map;6.27593688663;-0.0533856337712;0.0;0.0;0.0;0.000168999604696;0.99999998572;0.000980391910872;-6.52424413566e-05;0.0;0.0;0.0;0.0;-6.52424413565e-05;0.00187558487603;0.0;0.0;0.0;0.0;0.0;0.0;0.0;0.0;0.0;0.0;0.0;0.0;0.0;0.0;0.0;0.0;0.0;0.0;0.0;0.0;0.0;0.0;0.0;0.0;0.0;0.0;0.0;0.000463488696605
248722000000;27;248722000000;map;6.52821662956;-0.0514611630218;0.0;0.0;0.0;0.000225073740317;0.999999974671;0.00102839406691;-5.77539005352e-05;0.0;0.0;0.0;0.0;-5.77539005352e-05;0.00192417175062;0.0;0.0;0.0;0.0;0.0;0.0;0.0;0.0;0.0;0.0;0.0;0.0;0.0;0.0;0.0;0.0;0.0;0.0;0.0;0.0;0.0;0.0;0.0;0.0;0.0;0.0;0.0;0.00047710851103
249241000000;28;249241000000;map;6.78782701385;-0.050976101554;0.0;0.0;0.0;-0.000150334221648;0.9999999887;0.00108277036054;-4.10283310591e-05;0.0;0.0;0.0;0.0;-4.10283310591e-05;0.00189853184722;0.0;0.0;0.0;0.0;0.0;0.0;0.0;0.0;0.0;0.0;0.0;0.0;0.0;0.0;0.0;0.0;0.0;0.0;0.0;0.0;0.0;0.0;0.0;0.0;0.0;0.0;0.0;0.000505205463393
249750000000;29;249750000000;map;7.0438230477;-0.0504141593509;0.0;0.0;0.0;-3.91659290976e-05;0.999999999233;0.00109080252728;-7.8759606937e-05;0.0;0.0;0.0;0.0;-7.8759606937e-05;0.00198519231994;0.0;0.0;0.0;0.0;0.0;0.0;0.0;0.0;0.0;0.0;0.0;0.0;0.0;0.0;0.0;0.0;0.0;0.0;0.0;0.0;0.0;0.0;0.0;0.0;0.0;0.0;0.0;0.000503022390039
250254000000;30;250254000000;map;7.29647770747;-0.0503104714042;0.0;0.0;0.0;-0.000569175240511;0.99999983802;0.00112904987871;-5.63549063531e-05;0.0;0.0;0.0;0.0;-5.63549063531e-05;0.00199054763446;0.0;0.0;0.0;0.0;0.0;0.0;0.0;0.0;0.0;0.0;0.0;0.0;0.0;0.0;0.0;0.0;0.0;0.0;0.0;0.0;0.0;0.0;0.0;0.0;0.0;0.0;0.0;0.000486259414211
250771000000;31;250771000000;map;7.55607277729;-0.0490652985763;0.0;0.0;0.0;-0.000383495411302;0.999999926466;0.00115686119618;-6.23460122808e-05;0.0;0.0;0.0;0.0;-6.23460122808e-05;0.00188276058326;0.0;0.0;0.0;0.0;0.0;0.0;0.0;0.0;0.0;0.0;0.0;0.0;0.0;0.0;0.0;0.0;0.0;0.0;0.0;0.0;0.0;0.0;0.0;0.0;0.0;0.0;0.0;0.00047551260465
251272000000;32;251272000000;map;7.80767309466;-0.0482347152133;0.0;0.0;0.0;-0.000187851176806;0.999999982356;0.00117639482077;-2.84149330566e-05;0.0;0.0;0.0;0.0;-2.84149330566e-05;0.00188501765521;0.0;0.0;0.0;0.0;0.0;0.0;0.0;0.0;0.0;0.0;0.0;0.0;0.0;0.0;0.0;0.0;0.0;0.0;0.0;0.0;0.0;0.0;0.0;0.0;0.0;0.0;0.0;0.000441868092721
251772000000;33;251772000000;map;8.05882368991;-0.0476345321195;0.0;0.0;0.0;-0.000131205694383;0.999999991393;0.00121755318162;-2.97165216622e-05;0.0;0.0;0.0;0.0;-2.97165216622e-05;0.00188358060817;0.0;0.0;0.0;0.0;0.0;0.0;0.0;0.0;0.0;0.0;0.0;0.0;0.0;0.0;0.0;0.0;0.0;0.0;0.0;0.0;0.0;0.0;0.0;0.0;0.0;0.0;0.0;0.00043963150717
252291000000;34;252291000000;map;8.31910926138;-0.0466240818549;0.0;0.0;0.0;-0.000165022689943;0.999999986384;0.00126931255723;-1.98644186826e-05;0.0;0.0;0.0;0.0;-1.98644186826e-05;0.00187156324783;0.0;0.0;0.0;0.0;0.0;0.0;0.0;0.0;0.0;0.0;0.0;0.0;0.0;0.0;0.0;0.0;0.0;0.0;0.0;0.0;0.0;0.0;0.0;0.0;0.0;0.0;0.0;0.000434862064964
252796000000;35;252796000000;map;8.57235505812;-0.0458840905359;0.0;0.0;0.0;-0.000406792081755;0.99999991726;0.00133482966751;-1.35714271323e-05;0.0;0.0;0.0;0.0;-1.35714271323e-05;0.00187848253281;0.0;0.0;0.0;0.0;0.0;0.0;0.0;0.0;0.0;0.0;0.0;0.0;0.0;0.0;0.0;0.0;0.0;0.0;0.0;0.0;0.0;0.0;0.0;0.0;0.0;0.0;0.0;0.000424017296865
253297000000;36;253297000000;map;8.82373580015;-0.0453670849325;0.0;0.0;0.0;-0.000429610127847;0.999999907718;0.00138891121379;-3.18299711503e-05;0.0;0.0;0.0;0.0;-3.18299711503e-05;0.00188056684405;0.0;0.0;0.0;0.0;0.0;0.0;0.0;0.0;0.0;0.0;0.0;0.0;0.0;0.0;0.0;0.0;0.0;0.0;0.0;0.0;0.0;0.0;0.0;0.0;0.0;0.0;0.0;0.000422589653524
253800000000;37;253800000000;map;9.07592638125;-0.0458959011305;0.0;0.0;0.0;-0.000515666256198;0.999999867044;0.00140961496541;-3.61870408877e-05;0.0;0.0;0.0;0.0;-3.61870408877e-05;0.00188917463969;0.0;0.0;0.0;0.0;0.0;0.0;0.0;0.0;0.0;0.0;0.0;0.0;0.0;0.0;0.0;0.0;0.0;0.0;0.0;0.0;0.0;0.0;0.0;0.0;0.0;0.0;0.0;0.000416308464517
254303000000;38;254303000000;map;9.32834764425;-0.0461081925108;0.0;0.0;0.0;-0.00053956534112;0.999999854435;0.00145920047009;-6.75109683764e-05;0.0;0.0;0.0;0.0;-6.75109683764e-05;0.00194769921729;0.0;0.0;0.0;0.0;0.0;0.0;0.0;0.0;0.0;0.0;0.0;0.0;0.0;0.0;0.0;0.0;0.0;0.0;0.0;0.0;0.0;0.0;0.0;0.0;0.0;0.0;0.0;0.000427127342939
254824000000;39;254824000000;map;9.59028249526;-0.0462527716219;0.0;0.0;0.0;-0.000743336703631;0.999999723725;0.00146615391462;-6.69088705356e-05;0.0;0.0;0.0;0.0;-6.69088705356e-05;0.00198299646897;0.0;0.0;0.0;0.0;0.0;0.0;0.0;0.0;0.0;0.0;0.0;0.0;0.0;0.0;0.0;0.0;0.0;0.0;0.0;0.0;0.0;0.0;0.0;0.0;0.0;0.0;0.0;0.000428344336724
255330000000;40;255330000000;map;9.8441675929;-0.0459304235357;0.0;0.0;0.0;-0.000496936025829;0.999999876527;0.00150946086207;-5.22879018703e-05;0.0;0.0;0.0;0.0;-5.22879018703e-05;0.0020366059409;0.0;0.0;0.0;0.0;0.0;0.0;0.0;0.0;0.0;0.0;0.0;0.0;0.0;0.0;0.0;0.0;0.0;0.0;0.0;0.0;0.0;0.0;0.0;0.0;0.0;0.0;0.0;0.00042252842546
255834000000;41;255834000000;map;10.0966546866;-0.0458332720576;0.0;0.0;0.0;-0.000656337142182;0.999999784611;0.00151271987967;-2.56843494059e-05;0.0;0.0;0.0;0.0;-2.5684349406e-05;0.00193800667442;0.0;0.0;0.0;0.0;0.0;0.0;0.0;0.0;0.0;0.0;0.0;0.0;0.0;0.0;0.0;0.0;0.0;0.0;0.0;0.0;0.0;0.0;0.0;0.0;0.0;0.0;0.0;0.000413494032648
256343000000;42;256343000000;map;10.3527024545;-0.0460392383251;0.0;0.0;0.0;-0.000776336217792;0.999999698651;0.00154757568465;-7.89202495777e-06;0.0;0.0;0.0;0.0;-7.89202495777e-06;0.00190028586761;0.0;0.0;0.0;0.0;0.0;0.0;0.0;0.0;0.0;0.0;0.0;0.0;0.0;0.0;0.0;0.0;0.0;0.0;0.0;0.0;0.0;0.0;0.0;0.0;0.0;0.0;0.0;0.000411147115976
256862000000;43;256862000000;map;10.6134058097;-0.0458284914821;0.0;0.0;0.0;-0.000591953285535;0.999999824796;0.0015748992198;-2.49566175964e-06;0.0;0.0;0.0;0.0;-2.49566175969e-06;0.00189826744584;0.0;0.0;0.0;0.0;0.0;0.0;0.0;0.0;0.0;0.0;0.0;0.0;0.0;0.0;0.0;0.0;0.0;0.0;0.0;0.0;0.0;0.0;0.0;0.0;0.0;0.0;0.0;0.000429507301308
257368000000;44;257368000000;map;10.8672265547;-0.0471730402225;0.0;0.0;0.0;-0.00102118749037;0.999999478588;0.00167374731836;-2.32396536259e-06;0.0;0.0;0.0;0.0;-2.32396536259e-06;0.00186627629688;0.0;0.0;0.0;0.0;0.0;0.0;0.0;0.0;0.0;0.0;0.0;0.0;0.0;0.0;0.0;0.0;0.0;0.0;0.0;0.0;0.0;0.0;0.0;0.0;0.0;0.0;0.0;0.000430358562368
257876000000;45;257876000000;map;11.1210749621;-0.0468270349963;0.0;0.0;0.0;-0.000957222178773;0.999999541863;0.00172764166935;3.2093966893e-06;0.0;0.0;0.0;0.0;3.2093966893e-06;0.00189347567884;0.0;0.0;0.0;0.0;0.0;0.0;0.0;0.0;0.0;0.0;0.0;0.0;0.0;0.0;0.0;0.0;0.0;0.0;0.0;0.0;0.0;0.0;0.0;0.0;0.0;0.0;0.0;0.000454656520318
258376000000;46;258376000000;map;11.3719323016;-0.0471293205411;0.0;0.0;0.0;-0.0010358569668;0.9999994635;0.00175981346581;-1.62671961309e-05;0.0;0.0;0.0;0.0;-1.62671961309e-05;0.00196764180572;0.0;0.0;0.0;0.0;0.0;0.0;0.0;0.0;0.0;0.0;0.0;0.0;0.0;0.0;0.0;0.0;0.0;0.0;0.0;0.0;0.0;0.0;0.0;0.0;0.0;0.0;0.0;0.000458481196991
258880000000;47;258880000000;map;11.6237804842;-0.0474753873713;0.0;0.0;0.0;-0.000949262868478;0.99999954945;0.00180761689705;-5.68887473268e-05;0.0;0.0;0.0;0.0;-5.68887473267e-05;0.00203034680311;0.0;0.0;0.0;0.0;0.0;0.0;0.0;0.0;0.0;0.0;0.0;0.0;0.0;0.0;0.0;0.0;0.0;0.0;0.0;0.0;0.0;0.0;0.0;0.0;0.0;0.0;0.0;0.000474483321586
259388000000;48;259388000000;map;11.8789265475;-0.0487633105309;0.0;0.0;0.0;-0.00147026528371;0.999998919159;0.00187491338332;-3.58522716165e-05;0.0;0.0;0.0;0.0;-3.58522716165e-05;0.0020457814691;0.0;0.0;0.0;0.0;0.0;0.0;0.0;0.0;0.0;0.0;0.0;0.0;0.0;0.0;0.0;0.0;0.0;0.0;0.0;0.0;0.0;0.0;0.0;0.0;0.0;0.0;0.0;0.000481720137616
259890000000;49;259890000000;map;12.1315553871;-0.0489761014147;0.0;0.0;0.0;-0.00144007767113;0.999998963088;0.00194751792449;-4.20710804452e-05;0.0;0.0;0.0;0.0;-4.20710804452e-05;0.00209654154188;0.0;0.0;0.0;0.0;0.0;0.0;0.0;0.0;0.0;0.0;0.0;0.0;0.0;0.0;0.0;0.0;0.0;0.0;0.0;0.0;0.0;0.0;0.0;0.0;0.0;0.0;0.0;0.000477382958877
260391000000;50;260391000000;map;12.3831005428;-0.0483567409659;0.0;0.0;0.0;-0.0012445985543;0.999999225487;0.0020287717839;-3.3057486821e-05;0.0;0.0;0.0;0.0;-3.3057486821e-05;0.00215785342685;0.0;0.0;0.0;0.0;0.0;0.0;0.0;0.0;0.0;0.0;0.0;0.0;0.0;0.0;0.0;0.0;0.0;0.0;0.0;0.0;0.0;0.0;0.0;0.0;0.0;0.0;0.0;0.000465104368102
260897000000;51;260897000000;map;12.6375649755;-0.0486479186906;0.0;0.0;0.0;-0.00116936726181;0.99999931629;0.00202908496766;-3.26476322761e-05;0.0;0.0;0.0;0.0;-3.26476322762e-05;0.00218354814164;0.0;0.0;0.0;0.0;0.0;0.0;0.0;0.0;0.0;0.0;0.0;0.0;0.0;0.0;0.0;0.0;0.0;0.0;0.0;0.0;0.0;0.0;0.0;0.0;0.0;0.0;0.0;0.000476574134951
261403000000;52;261403000000;map;12.8920985107;-0.0490300461086;0.0;0.0;0.0;-0.00123638018377;0.999999235682;0.00206151445394;-2.37079205935e-05;0.0;0.0;0.0;0.0;-2.37079205935e-05;0.00224673922853;0.0;0.0;0.0;0.0;0.0;0.0;0.0;0.0;0.0;0.0;0.0;0.0;0.0;0.0;0.0;0.0;0.0;0.0;0.0;0.0;0.0;0.0;0.0;0.0;0.0;0.0;0.0;0.000480518647095
261904000000;53;261904000000;map;13.1442466651;-0.0485260792435;0.0;0.0;0.0;-0.00105465355384;0.999999443853;0.00220846472484;3.04394762081e-05;0.0;0.0;0.0;0.0;3.04394762081e-05;0.00228711212744;0.0;0.0;0.0;0.0;0.0;0.0;0.0;0.0;0.0;0.0;0.0;0.0;0.0;0.0;0.0;0.0;0.0;0.0;0.0;0.0;0.0;0.0;0.0;0.0;0.0;0.0;0.0;0.000510592449056
262410000000;54;262410000000;map;13.3988273034;-0.0492123386522;0.0;0.0;0.0;-0.000892969443792;0.999999601303;0.00223410977816;5.28926096163e-05;0.0;0.0;0.0;0.0;5.28926096163e-05;0.00230682269729;0.0;0.0;0.0;0.0;0.0;0.0;0.0;0.0;0.0;0.0;0.0;0.0;0.0;0.0;0.0;0.0;0.0;0.0;0.0;0.0;0.0;0.0;0.0;0.0;0.0;0.0;0.0;0.000519800490597
262911000000;55;262911000000;map;13.6512996687;-0.0503620686442;0.0;0.0;0.0;-0.00120865912416;0.999999269571;0.00223312094502;4.74487574096e-05;0.0;0.0;0.0;0.0;4.74487574095e-05;0.00238172293719;0.0;0.0;0.0;0.0;0.0;0.0;0.0;0.0;0.0;0.0;0.0;0.0;0.0;0.0;0.0;0.0;0.0;0.0;0.0;0.0;0.0;0.0;0.0;0.0;0.0;0.0;0.0;0.00052079716498
263413000000;56;263413000000;map;13.9041321432;-0.0519238476473;0.0;0.0;0.0;-0.0011616497926;0.999999325285;0.00230528954464;2.0148108567e-05;0.0;0.0;0.0;0.0;2.0148108567e-05;0.00240862155764;0.0;0.0;0.0;0.0;0.0;0.0;0.0;0.0;0.0;0.0;0.0;0.0;0.0;0.0;0.0;0.0;0.0;0.0;0.0;0.0;0.0;0.0;0.0;0.0;0.0;0.0;0.0;0.000534711183852
263915000000;57;263915000000;map;14.1556697333;-0.0522825408215;0.0;0.0;0.0;-0.00108319189009;0.999999413347;0.00235873253942;6.26377542523e-06;0.0;0.0;0.0;0.0;6.26377542534e-06;0.00245343521361;0.0;0.0;0.0;0.0;0.0;0.0;0.0;0.0;0.0;0.0;0.0;0.0;0.0;0.0;0.0;0.0;0.0;0.0;0.0;0.0;0.0;0.0;0.0;0.0;0.0;0.0;0.0;0.000550297290439
264419000000;58;264419000000;map;14.4094800303;-0.0524113121418;0.0;0.0;0.0;-0.000984334636217;0.999999515543;0.00251739660902;-1.58352997195e-05;0.0;0.0;0.0;0.0;-1.58352997195e-05;0.00248360904838;0.0;0.0;0.0;0.0;0.0;0.0;0.0;0.0;0.0;0.0;0.0;0.0;0.0;0.0;0.0;0.0;0.0;0.0;0.0;0.0;0.0;0.0;0.0;0.0;0.0;0.0;0.0;0.000553255836607
264940000000;59;264940000000;map;14.6715245045;-0.053673717569;0.0;0.0;0.0;-0.000875823428105;0.999999616467;0.00253029615615;-4.3487806999e-05;0.0;0.0;0.0;0.0;-4.3487806999e-05;0.00255636589177;0.0;0.0;0.0;0.0;0.0;0.0;0.0;0.0;0.0;0.0;0.0;0.0;0.0;0.0;0.0;0.0;0.0;0.0;0.0;0.0;0.0;0.0;0.0;0.0;0.0;0.0;0.0;0.000556754617381
265455000000;60;265455000000;map;14.9303153512;-0.0539403792514;0.0;0.0;0.0;-0.000791366816081;0.999999686869;0.00258469510212;-1.72633252639e-05;0.0;0.0;0.0;0.0;-1.7263325264e-05;0.0027212105969;0.0;0.0;0.0;0.0;0.0;0.0;0.0;0.0;0.0;0.0;0.0;0.0;0.0;0.0;0.0;0.0;0.0;0.0;0.0;0.0;0.0;0.0;0.0;0.0;0.0;0.0;0.0;0.000586133256097
265957000000;61;265957000000;map;15.1826281711;-0.0550504376503;0.0;0.0;0.0;-0.00114354624108;0.999999346151;0.00261494798721;-8.59068598553e-05;0.0;0.0;0.0;0.0;-8.59068598553e-05;0.00285298239091;0.0;0.0;0.0;0.0;0.0;0.0;0.0;0.0;0.0;0.0;0.0;0.0;0.0;0.0;0.0;0.0;0.0;0.0;0.0;0.0;0.0;0.0;0.0;0.0;0.0;0.0;0.0;0.000582915787283
266465000000;62;266465000000;map;15.4388686397;-0.0552180304431;0.0;0.0;0.0;-0.000797133047158;0.999999682289;0.00274232064356;-0.000156939011858;0.0;0.0;0.0;0.0;-0.000156939011858;0.0029037535764;0.0;0.0;0.0;0.0;0.0;0.0;0.0;0.0;0.0;0.0;0.0;0.0;0.0;0.0;0.0;0.0;0.0;0.0;0.0;0.0;0.0;0.0;0.0;0.0;0.0;0.0;0.0;0.00059536514149
266966000000;63;266966000000;map;15.6921818569;-0.0554162425605;0.0;0.0;0.0;-0.000825007201938;0.999999659682;0.00276482793745;-0.000196965099927;0.0;0.0;0.0;0.0;-0.000196965099927;0.00306668160966;0.0;0.0;0.0;0.0;0.0;0.0;0.0;0.0;0.0;0.0;0.0;0.0;0.0;0.0;0.0;0.0;0.0;0.0;0.0;0.0;0.0;0.0;0.0;0.0;0.0;0.0;0.0;0.000635936821924
267471000000;64;267471000000;map;15.947753045;-0.0581193259399;0.0;0.0;0.0;-0.000903503882548;0.99999959184;0.00278487613195;-0.000214506564887;0.0;0.0;0.0;0.0;-0.000214506564887;0.00323845809868;0.0;0.0;0.0;0.0;0.0;0.0;0.0;0.0;0.0;0.0;0.0;0.0;0.0;0.0;0.0;0.0;0.0;0.0;0.0;0.0;0.0;0.0;0.0;0.0;0.0;0.0;0.0;0.000649774683641
267972000000;65;267972000000;map;16.2013130857;-0.0589244922777;0.0;0.0;0.0;-0.000641596833069;0.999999794177;0.0028852329753;-0.000252238519293;0.0;0.0;0.0;0.0;-0.000252238519293;0.00344030177983;0.0;0.0;0.0;0.0;0.0;0.0;0.0;0.0;0.0;0.0;0.0;0.0;0.0;0.0;0.0;0.0;0.0;0.0;0.0;0.0;0.0;0.0;0.0;0.0;0.0;0.0;0.0;0.00064860778083
268473000000;66;268473000000;map;16.4545325912;-0.0595975551533;0.0;0.0;0.0;-0.000743287505507;0.999999723762;0.00291754635094;-0.000194442874403;0.0;0.0;0.0;0.0;-0.000194442874403;0.00355853072008;0.0;0.0;0.0;0.0;0.0;0.0;0.0;0.0;0.0;0.0;0.0;0.0;0.0;0.0;0.0;0.0;0.0;0.0;0.0;0.0;0.0;0.0;0.0;0.0;0.0;0.0;0.0;0.000633237156493
268981000000;67;268981000000;map;16.7114307771;-0.0611681516735;0.0;0.0;0.0;-0.00101508697035;0.999999484799;0.00289386440426;-0.000320387435892;0.0;0.0;0.0;0.0;-0.000320387435892;0.00372020089949;0.0;0.0;0.0;0.0;0.0;0.0;0.0;0.0;0.0;0.0;0.0;0.0;0.0;0.0;0.0;0.0;0.0;0.0;0.0;0.0;0.0;0.0;0.0;0.0;0.0;0.0;0.0;0.00062260726669
269494000000;68;269494000000;map;16.9721772398;-0.0631796866659;0.0;0.0;0.0;-0.00127502697004;0.999999187153;0.00286620036292;-0.000326712831158;0.0;0.0;0.0;0.0;-0.000326712831158;0.00358654546885;0.0;0.0;0.0;0.0;0.0;0.0;0.0;0.0;0.0;0.0;0.0;0.0;0.0;0.0;0.0;0.0;0.0;0.0;0.0;0.0;0.0;0.0;0.0;0.0;0.0;0.0;0.0;0.000592831161418
269996000000;69;269996000000;map;17.2268719513;-0.0645677196602;0.0;0.0;0.0;-0.00146491535026;0.999998927011;0.00282632329743;-0.000311384843394;0.0;0.0;0.0;0.0;-0.000311384843394;0.0036774876271;0.0;0.0;0.0;0.0;0.0;0.0;0.0;0.0;0.0;0.0;0.0;0.0;0.0;0.0;0.0;0.0;0.0;0.0;0.0;0.0;0.0;0.0;0.0;0.0;0.0;0.0;0.0;0.000580058759516
270496000000;70;270496000000;map;17.4810503783;-0.0661687410064;0.0;0.0;0.0;-0.00177350329001;0.999998427342;0.00272863755845;-0.000209250591143;0.0;0.0;0.0;0.0;-0.000209250591143;0.00368892597343;0.0;0.0;0.0;0.0;0.0;0.0;0.0;0.0;0.0;0.0;0.0;0.0;0.0;0.0;0.0;0.0;0.0;0.0;0.0;0.0;0.0;0.0;0.0;0.0;0.0;0.0;0.0;0.000577928089381
271011000000;71;271011000000;map;17.7419151952;-0.0687567334829;0.0;0.0;0.0;-0.00214467800672;0.999997700175;0.00274311384561;-0.00020170501025;0.0;0.0;0.0;0.0;-0.00020170501025;0.00362212923531;0.0;0.0;0.0;0.0;0.0;0.0;0.0;0.0;0.0;0.0;0.0;0.0;0.0;0.0;0.0;0.0;0.0;0.0;0.0;0.0;0.0;0.0;0.0;0.0;0.0;0.0;0.0;0.000561588788966
271532000000;72;271532000000;map;18.0058995231;-0.0710820028062;0.0;0.0;0.0;-0.00195630807813;0.999998086428;0.00266022434988;-0.000204045089359;0.0;0.0;0.0;0.0;-0.000204045089359;0.00373283280655;0.0;0.0;0.0;0.0;0.0;0.0;0.0;0.0;0.0;0.0;0.0;0.0;0.0;0.0;0.0;0.0;0.0;0.0;0.0;0.0;0.0;0.0;0.0;0.0;0.0;0.0;0.0;0.000562768678078
272037000000;73;272037000000;map;18.2620992697;-0.072610279447;0.0;0.0;0.0;-0.00192687794705;0.999998143569;0.00263215247332;-0.000172781697569;0.0;0.0;0.0;0.0;-0.000172781697569;0.00374517619056;0.0;0.0;0.0;0.0;0.0;0.0;0.0;0.0;0.0;0.0;0.0;0.0;0.0;0.0;0.0;0.0;0.0;0.0;0.0;0.0;0.0;0.0;0.0;0.0;0.0;0.0;0.0;0.000555845383299
272542000000;74;272542000000;map;18.517599624;-0.0751405575333;0.0;0.0;0.0;-0.00209046163046;0.999997814983;0.0025881825556;-0.000203613247163;0.0;0.0;0.0;0.0;-0.000203613247163;0.00372194409248;0.0;0.0;0.0;0.0;0.0;0.0;0.0;0.0;0.0;0.0;0.0;0.0;0.0;0.0;0.0;0.0;0.0;0.0;0.0;0.0;0.0;0.0;0.0;0.0;0.0;0.0;0.0;0.00054557007667
273048000000;75;273048000000;map;18.7737658505;-0.0785331352234;0.0;0.0;0.0;-0.00272951278373;0.999996274873;0.00249881101814;-0.000170127693962;0.0;0.0;0.0;0.0;-0.000170127693962;0.00356173236589;0.0;0.0;0.0;0.0;0.0;0.0;0.0;0.0;0.0;0.0;0.0;0.0;0.0;0.0;0.0;0.0;0.0;0.0;0.0;0.0;0.0;0.0;0.0;0.0;0.0;0.0;0.0;0.00053107037256
273550000000;76;273550000000;map;19.0267999192;-0.0809020111412;0.0;0.0;0.0;-0.00311748440026;0.999995140634;0.00244183834656;-0.000198401709699;0.0;0.0;0.0;0.0;-0.000198401709698;0.00356698826858;0.0;0.0;0.0;0.0;0.0;0.0;0.0;0.0;0.0;0.0;0.0;0.0;0.0;0.0;0.0;0.0;0.0;0.0;0.0;0.0;0.0;0.0;0.0;0.0;0.0;0.0;0.0;0.000512210636227
274070000000;77;274070000000;map;19.2894069697;-0.0835036361515;0.0;0.0;0.0;-0.00339603521329;0.999994233456;0.00241671372811;-0.000155747217468;0.0;0.0;0.0;0.0;-0.000155747217468;0.00355607530247;0.0;0.0;0.0;0.0;0.0;0.0;0.0;0.0;0.0;0.0;0.0;0.0;0.0;0.0;0.0;0.0;0.0;0.0;0.0;0.0;0.0;0.0;0.0;0.0;0.0;0.0;0.0;0.00052663821979
274579000000;78;274579000000;map;19.5464984415;-0.087132096903;0.0;0.0;0.0;-0.00366519951594;0.999993283134;0.00243122424217;-0.000115761949429;0.0;0.0;0.0;0.0;-0.000115761949429;0.00353766614699;0.0;0.0;0.0;0.0;0.0;0.0;0.0;0.0;0.0;0.0;0.0;0.0;0.0;0.0;0.0;0.0;0.0;0.0;0.0;0.0;0.0;0.0;0.0;0.0;0.0;0.0;0.0;0.000533460840864
275087000000;79;275087000000;map;19.8011925977;-0.0896494633677;0.0;0.0;0.0;-0.00407172898512;0.999991710477;0.00246842925912;-6.32372770872e-05;0.0;0.0;0.0;0.0;-6.32372770872e-05;0.00346772292637;0.0;0.0;0.0;0.0;0.0;0.0;0.0;0.0;0.0;0.0;0.0;0.0;0.0;0.0;0.0;0.0;0.0;0.0;0.0;0.0;0.0;0.0;0.0;0.0;0.0;0.0;0.0;0.000516389050759
275605000000;80;275605000000;map;20.0615034052;-0.0929946091448;0.0;0.0;0.0;-0.00411759364042;0.999991522675;0.00241053425839;-7.08955388817e-05;0.0;0.0;0.0;0.0;-7.08955388817e-05;0.00347705427801;0.0;0.0;0.0;0.0;0.0;0.0;0.0;0.0;0.0;0.0;0.0;0.0;0.0;0.0;0.0;0.0;0.0;0.0;0.0;0.0;0.0;0.0;0.0;0.0;0.0;0.0;0.0;0.000528608248994
276109000000;81;276109000000;map;20.3140365622;-0.0946831982441;0.0;0.0;0.0;-0.00435760348981;0.999990505601;0.00247622900099;-4.38338472382e-05;0.0;0.0;0.0;0.0;-4.38338472382e-05;0.00333678771009;0.0;0.0;0.0;0.0;0.0;0.0;0.0;0.0;0.0;0.0;0.0;0.0;0.0;0.0;0.0;0.0;0.0;0.0;0.0;0.0;0.0;0.0;0.0;0.0;0.0;0.0;0.0;0.000526209997707
276617000000;82;276617000000;map;20.5703588135;-0.0965596936906;0.0;0.0;0.0;-0.00435307115844;0.999990525341;0.00248044447039;-3.25235431171e-05;0.0;0.0;0.0;0.0;-3.25235431171e-05;0.00314801770429;0.0;0.0;0.0;0.0;0.0;0.0;0.0;0.0;0.0;0.0;0.0;0.0;0.0;0.0;0.0;0.0;0.0;0.0;0.0;0.0;0.0;0.0;0.0;0.0;0.0;0.0;0.0;0.000491551995042
277120000000;83;277120000000;map;20.8230433244;-0.0997272724817;0.0;0.0;0.0;-0.00473871375426;0.999988772233;0.0024088624117;-6.69992807132e-05;0.0;0.0;0.0;0.0;-6.69992807132e-05;0.00308273600364;0.0;0.0;0.0;0.0;0.0;0.0;0.0;0.0;0.0;0.0;0.0;0.0;0.0;0.0;0.0;0.0;0.0;0.0;0.0;0.0;0.0;0.0;0.0;0.0;0.0;0.0;0.0;0.000489879291188
277640000000;84;277640000000;map;21.0839465237;-0.102347340274;0.0;0.0;0.0;-0.00497303757522;0.999987634372;0.00249438991881;-1.96415456806e-05;0.0;0.0;0.0;0.0;-1.96415456806e-05;0.00303621087032;0.0;0.0;0.0;0.0;0.0;0.0;0.0;0.0;0.0;0.0;0.0;0.0;0.0;0.0;0.0;0.0;0.0;0.0;0.0;0.0;0.0;0.0;0.0;0.0;0.0;0.0;0.0;0.000506314979916
278165000000;85;278165000000;map;21.3472318565;-0.104460207807;0.0;0.0;0.0;-0.00554522085291;0.999984625145;0.00252447626025;-3.91690670245e-05;0.0;0.0;0.0;0.0;-3.91690670249e-05;0.00308155846426;0.0;0.0;0.0;0.0;0.0;0.0;0.0;0.0;0.0;0.0;0.0;0.0;0.0;0.0;0.0;0.0;0.0;0.0;0.0;0.0;0.0;0.0;0.0;0.0;0.0;0.0;0.0;0.000513334954966
278667000000;86;278667000000;map;21.5993029306;-0.1070976072;0.0;0.0;0.0;-0.00576605699899;0.999983376155;0.0025019455955;-8.97564426188e-05;0.0;0.0;0.0;0.0;-8.97564426183e-05;0.00295320753778;0.0;0.0;0.0;0.0;0.0;0.0;0.0;0.0;0.0;0.0;0.0;0.0;0.0;0.0;0.0;0.0;0.0;0.0;0.0;0.0;0.0;0.0;0.0;0.0;0.0;0.0;0.0;0.00050887497897
279175000000;87;279175000000;map;21.8532242289;-0.110020556982;0.0;0.0;0.0;-0.00573107965812;0.999983577228;0.00255468332142;-9.86364263418e-05;0.0;0.0;0.0;0.0;-9.86364263418e-05;0.00282237107534;0.0;0.0;0.0;0.0;0.0;0.0;0.0;0.0;0.0;0.0;0.0;0.0;0.0;0.0;0.0;0.0;0.0;0.0;0.0;0.0;0.0;0.0;0.0;0.0;0.0;0.0;0.0;0.000513487613483
279679000000;88;279679000000;map;22.1062692259;-0.114158757444;0.0;0.0;0.0;-0.00589951901555;0.999982597686;0.00254228385779;-0.000100789976636;0.0;0.0;0.0;0.0;-0.000100789976636;0.0028178996951;0.0;0.0;0.0;0.0;0.0;0.0;0.0;0.0;0.0;0.0;0.0;0.0;0.0;0.0;0.0;0.0;0.0;0.0;0.0;0.0;0.0;0.0;0.0;0.0;0.0;0.0;0.0;0.000510425483112
280185000000;89;280185000000;map;22.3604838984;-0.117068067732;0.0;0.0;0.0;-0.00637311399004;0.999979691503;0.00269200754775;-4.80004423919e-05;0.0;0.0;0.0;0.0;-4.80004423919e-05;0.00283172975397;0.0;0.0;0.0;0.0;0.0;0.0;0.0;0.0;0.0;0.0;0.0;0.0;0.0;0.0;0.0;0.0;0.0;0.0;0.0;0.0;0.0;0.0;0.0;0.0;0.0;0.0;0.0;0.00051826199035
280690000000;90;280690000000;map;22.6156273179;-0.119903800351;0.0;0.0;0.0;-0.00666301930599;0.99997780184;0.00264323634701;-8.20006231206e-05;0.0;0.0;0.0;0.0;-8.20006231206e-05;0.00273460257158;0.0;0.0;0.0;0.0;0.0;0.0;0.0;0.0;0.0;0.0;0.0;0.0;0.0;0.0;0.0;0.0;0.0;0.0;0.0;0.0;0.0;0.0;0.0;0.0;0.0;0.0;0.0;0.000500952240549
281193000000;91;281193000000;map;22.8695632504;-0.124609430046;0.0;0.0;0.0;-0.00673521388047;0.99997731819;0.00266450637127;-9.87036034483e-05;0.0;0.0;0.0;0.0;-9.87036034479e-05;0.00268525441472;0.0;0.0;0.0;0.0;0.0;0.0;0.0;0.0;0.0;0.0;0.0;0.0;0.0;0.0;0.0;0.0;0.0;0.0;0.0;0.0;0.0;0.0;0.0;0.0;0.0;0.0;0.0;0.000484961828147
281700000000;92;281700000000;map;23.1243581574;-0.127782479809;0.0;0.0;0.0;-0.00635589818226;0.999979801075;0.00263061695875;-7.37697869271e-05;0.0;0.0;0.0;0.0;-7.37697869271e-05;0.00263341873229;0.0;0.0;0.0;0.0;0.0;0.0;0.0;0.0;0.0;0.0;0.0;0.0;0.0;0.0;0.0;0.0;0.0;0.0;0.0;0.0;0.0;0.0;0.0;0.0;0.0;0.0;0.0;0.000503159117385
282204000000;93;282204000000;map;23.3768089403;-0.130000625753;0.0;0.0;0.0;-0.00627610386508;0.999980305066;0.00268036764476;-6.77705969414e-05;0.0;0.0;0.0;0.0;-6.77705969414e-05;0.00263894717089;0.0;0.0;0.0;0.0;0.0;0.0;0.0;0.0;0.0;0.0;0.0;0.0;0.0;0.0;0.0;0.0;0.0;0.0;0.0;0.0;0.0;0.0;0.0;0.0;0.0;0.0;0.0;0.00046647897408
282708000000;94;282708000000;map;23.6303440363;-0.133023835105;0.0;0.0;0.0;-0.00604282854751;0.999981741945;0.00269925757721;-1.40784749409e-05;0.0;0.0;0.0;0.0;-1.40784749409e-05;0.00259646628113;0.0;0.0;0.0;0.0;0.0;0.0;0.0;0.0;0.0;0.0;0.0;0.0;0.0;0.0;0.0;0.0;0.0;0.0;0.0;0.0;0.0;0.0;0.0;0.0;0.0;0.0;0.0;0.000451935846736
283216000000;95;283216000000;map;23.8864842545;-0.135887987323;0.0;0.0;0.0;-0.00589920447874;0.999982599542;0.00267715230336;4.34388201453e-06;0.0;0.0;0.0;0.0;4.34388201453e-06;0.00262719233056;0.0;0.0;0.0;0.0;0.0;0.0;0.0;0.0;0.0;0.0;0.0;0.0;0.0;0.0;0.0;0.0;0.0;0.0;0.0;0.0;0.0;0.0;0.0;0.0;0.0;0.0;0.0;0.000433050824348
283718000000;96;283718000000;map;24.1375210316;-0.138594284394;0.0;0.0;0.0;-0.00586607525989;0.999982794433;0.00268317911491;5.25239422222e-06;0.0;0.0;0.0;0.0;5.25239422222e-06;0.00252616748531;0.0;0.0;0.0;0.0;0.0;0.0;0.0;0.0;0.0;0.0;0.0;0.0;0.0;0.0;0.0;0.0;0.0;0.0;0.0;0.0;0.0;0.0;0.0;0.0;0.0;0.0;0.0;0.000434460296439
284238000000;97;284238000000;map;24.3981119457;-0.140979925385;0.0;0.0;0.0;-0.00591567032564;0.999982502269;0.00270601759041;5.22896222517e-05;0.0;0.0;0.0;0.0;5.22896222517e-05;0.00244785699653;0.0;0.0;0.0;0.0;0.0;0.0;0.0;0.0;0.0;0.0;0.0;0.0;0.0;0.0;0.0;0.0;0.0;0.0;0.0;0.0;0.0;0.0;0.0;0.0;0.0;0.0;0.0;0.000447287665852
284742000000;98;284742000000;map;24.6517740462;-0.142551658709;0.0;0.0;0.0;-0.00586061853281;0.999982826428;0.00281013449842;9.3838141185e-05;0.0;0.0;0.0;0.0;9.3838141185e-05;0.00234193536904;0.0;0.0;0.0;0.0;0.0;0.0;0.0;0.0;0.0;0.0;0.0;0.0;0.0;0.0;0.0;0.0;0.0;0.0;0.0;0.0;0.0;0.0;0.0;0.0;0.0;0.0;0.0;0.000430205286918
285261000000;99;285261000000;map;24.9135246146;-0.145777095694;0.0;0.0;0.0;-0.00601053970448;0.999981936543;0.00283048039842;0.000119261482467;0.0;0.0;0.0;0.0;0.000119261482467;0.00233523006878;0.0;0.0;0.0;0.0;0.0;0.0;0.0;0.0;0.0;0.0;0.0;0.0;0.0;0.0;0.0;0.0;0.0;0.0;0.0;0.0;0.0;0.0;0.0;0.0;0.0;0.0;0.0;0.000442951515342
285770000000;100;285770000000;map;25.1700636559;-0.14590353151;0.0;0.0;0.0;-0.00571434028889;0.999983673024;0.0028512828726;0.000172305306984;0.0;0.0;0.0;0.0;0.000172305306983;0.00225875546787;0.0;0.0;0.0;0.0;0.0;0.0;0.0;0.0;0.0;0.0;0.0;0.0;0.0;0.0;0.0;0.0;0.0;0.0;0.0;0.0;0.0;0.0;0.0;0.0;0.0;0.0;0.0;0.000434538327953
286274000000;101;286274000000;map;25.4226961703;-0.147959911431;0.0;0.0;0.0;-0.00546109279393;0.999985088122;0.00279948109585;0.000107667191408;0.0;0.0;0.0;0.0;0.000107667191408;0.00218724732608;0.0;0.0;0.0;0.0;0.0;0.0;0.0;0.0;0.0;0.0;0.0;0.0;0.0;0.0;0.0;0.0;0.0;0.0;0.0;0.0;0.0;0.0;0.0;0.0;0.0;0.0;0.0;0.000413097853489
286779000000;102;286779000000;map;25.6767957812;-0.149736642308;0.0;0.0;0.0;-0.00536674889319;0.999985598899;0.00283241111049;0.000149570482317;0.0;0.0;0.0;0.0;0.000149570482317;0.00229935947252;0.0;0.0;0.0;0.0;0.0;0.0;0.0;0.0;0.0;0.0;0.0;0.0;0.0;0.0;0.0;0.0;0.0;0.0;0.0;0.0;0.0;0.0;0.0;0.0;0.0;0.0;0.0;0.000408616198194
287282000000;103;287282000000;map;25.9294691467;-0.150963740186;0.0;0.0;0.0;-0.00536247382079;0.999985621834;0.00271329178543;0.000132056669764;0.0;0.0;0.0;0.0;0.000132056669765;0.00223045756857;0.0;0.0;0.0;0.0;0.0;0.0;0.0;0.0;0.0;0.0;0.0;0.0;0.0;0.0;0.0;0.0;0.0;0.0;0.0;0.0;0.0;0.0;0.0;0.0;0.0;0.0;0.0;0.000383304386726
287785000000;104;287785000000;map;26.1820733774;-0.152353668063;0.0;0.0;0.0;-0.00506781028615;0.999987158567;0.00274777068546;0.000141417233387;0.0;0.0;0.0;0.0;0.000141417233387;0.00220001983107;0.0;0.0;0.0;0.0;0.0;0.0;0.0;0.0;0.0;0.0;0.0;0.0;0.0;0.0;0.0;0.0;0.0;0.0;0.0;0.0;0.0;0.0;0.0;0.0;0.0;0.0;0.0;0.000373241913847
288287000000;105;288287000000;map;26.4340908532;-0.153899653068;0.0;0.0;0.0;-0.00507374296187;0.999987128483;0.00270634376841;0.000149439890287;0.0;0.0;0.0;0.0;0.000149439890287;0.00223803907127;0.0;0.0;0.0;0.0;0.0;0.0;0.0;0.0;0.0;0.0;0.0;0.0;0.0;0.0;0.0;0.0;0.0;0.0;0.0;0.0;0.0;0.0;0.0;0.0;0.0;0.0;0.0;0.000366685124012
288808000000;106;288808000000;map;26.6965177652;-0.155197379107;0.0;0.0;0.0;-0.00481711156753;0.999988397651;0.00276476403008;0.000119271310317;0.0;0.0;0.0;0.0;0.000119271310317;0.00217257003933;0.0;0.0;0.0;0.0;0.0;0.0;0.0;0.0;0.0;0.0;0.0;0.0;0.0;0.0;0.0;0.0;0.0;0.0;0.0;0.0;0.0;0.0;0.0;0.0;0.0;0.0;0.0;0.000385680207255
289327000000;107;289327000000;map;26.9570637547;-0.157150440342;0.0;0.0;0.0;-0.00487400113783;0.999988121986;0.00272653359923;0.000147619018722;0.0;0.0;0.0;0.0;0.000147619018723;0.00218844894958;0.0;0.0;0.0;0.0;0.0;0.0;0.0;0.0;0.0;0.0;0.0;0.0;0.0;0.0;0.0;0.0;0.0;0.0;0.0;0.0;0.0;0.0;0.0;0.0;0.0;0.0;0.0;0.000399165718463
289832000000;108;289832000000;map;27.2116071341;-0.158820556314;0.0;0.0;0.0;-0.00494395707278;0.99998777857;0.00265108350141;0.000197507232;0.0;0.0;0.0;0.0;0.000197507231999;0.00224262118704;0.0;0.0;0.0;0.0;0.0;0.0;0.0;0.0;0.0;0.0;0.0;0.0;0.0;0.0;0.0;0.0;0.0;0.0;0.0;0.0;0.0;0.0;0.0;0.0;0.0;0.0;0.0;0.000386519885502
290333000000;109;290333000000;map;27.4623790368;-0.159879497524;0.0;0.0;0.0;-0.00504259969863;0.999987286013;0.00261246798254;0.00022031629732;0.0;0.0;0.0;0.0;0.00022031629732;0.00222386821596;0.0;0.0;0.0;0.0;0.0;0.0;0.0;0.0;0.0;0.0;0.0;0.0;0.0;0.0;0.0;0.0;0.0;0.0;0.0;0.0;0.0;0.0;0.0;0.0;0.0;0.0;0.0;0.000367863814699
290834000000;110;290834000000;map;27.7139159352;-0.161592581002;0.0;0.0;0.0;-0.00495837133054;0.999987707201;0.00268625529304;0.000239575152117;0.0;0.0;0.0;0.0;0.000239575152117;0.00219212286276;0.0;0.0;0.0;0.0;0.0;0.0;0.0;0.0;0.0;0.0;0.0;0.0;0.0;0.0;0.0;0.0;0.0;0.0;0.0;0.0;0.0;0.0;0.0;0.0;0.0;0.0;0.0;0.000371248977073
291351000000;111;291351000000;map;27.9733521739;-0.163549544603;0.0;0.0;0.0;-0.00508706474957;0.999987060802;0.00264730743288;0.000278995575744;0.0;0.0;0.0;0.0;0.000278995575744;0.00222060651288;0.0;0.0;0.0;0.0;0.0;0.0;0.0;0.0;0.0;0.0;0.0;0.0;0.0;0.0;0.0;0.0;0.0;0.0;0.0;0.0;0.0;0.0;0.0;0.0;0.0;0.0;0.0;0.000385116864051
291870000000;112;291870000000;map;28.2339715334;-0.166188270477;0.0;0.0;0.0;-0.00505587240546;0.999987218995;0.00259993393388;0.00026479753829;0.0;0.0;0.0;0.0;0.000264797538289;0.00224710149509;0.0;0.0;0.0;0.0;0.0;0.0;0.0;0.0;0.0;0.0;0.0;0.0;0.0;0.0;0.0;0.0;0.0;0.0;0.0;0.0;0.0;0.0;0.0;0.0;0.0;0.0;0.0;0.000392138660279
292376000000;113;292376000000;map;28.4883404778;-0.167656604214;0.0;0.0;0.0;-0.00508629846669;0.9999870647;0.00254729214294;0.000290007334537;0.0;0.0;0.0;0.0;0.000290007334538;0.0022300196563;0.0;0.0;0.0;0.0;0.0;0.0;0.0;0.0;0.0;0.0;0.0;0.0;0.0;0.0;0.0;0.0;0.0;0.0;0.0;0.0;0.0;0.0;0.0;0.0;0.0;0.0;0.0;0.000388782530195
292886000000;114;292886000000;map;28.7444940031;-0.168917344182;0.0;0.0;0.0;-0.00504035125639;0.999987297349;0.0025169997142;0.000356827436842;0.0;0.0;0.0;0.0;0.000356827436841;0.00218446511951;0.0;0.0;0.0;0.0;0.0;0.0;0.0;0.0;0.0;0.0;0.0;0.0;0.0;0.0;0.0;0.0;0.0;0.0;0.0;0.0;0.0;0.0;0.0;0.0;0.0;0.0;0.0;0.000398686737875
293398000000;115;293398000000;map;29.0017506799;-0.171548667002;0.0;0.0;0.0;-0.00518006850374;0.999986583355;0.00248736263291;0.000371744160082;0.0;0.0;0.0;0.0;0.000371744160082;0.00215393788653;0.0;0.0;0.0;0.0;0.0;0.0;0.0;0.0;0.0;0.0;0.0;0.0;0.0;0.0;0.0;0.0;0.0;0.0;0.0;0.0;0.0;0.0;0.0;0.0;0.0;0.0;0.0;0.000400792689982
293918000000;116;293918000000;map;29.2626973464;-0.173153598375;0.0;0.0;0.0;-0.00555762798926;0.999984556266;0.00253552852359;0.000429557423147;0.0;0.0;0.0;0.0;0.000429557423147;0.00218291506772;0.0;0.0;0.0;0.0;0.0;0.0;0.0;0.0;0.0;0.0;0.0;0.0;0.0;0.0;0.0;0.0;0.0;0.0;0.0;0.0;0.0;0.0;0.0;0.0;0.0;0.0;0.0;0.000384047322065
294420000000;117;294420000000;map;29.5143467429;-0.176419948566;0.0;0.0;0.0;-0.00565193375099;0.999984027695;0.00249839900198;0.000504994063879;0.0;0.0;0.0;0.0;0.000504994063879;0.00223670147451;0.0;0.0;0.0;0.0;0.0;0.0;0.0;0.0;0.0;0.0;0.0;0.0;0.0;0.0;0.0;0.0;0.0;0.0;0.0;0.0;0.0;0.0;0.0;0.0;0.0;0.0;0.0;0.000389511196315
294940000000;118;294940000000;map;29.7751438631;-0.179056300617;0.0;0.0;0.0;-0.0058202133437;0.999983062415;0.00253066247615;0.000509296142297;0.0;0.0;0.0;0.0;0.000509296142297;0.00220347505614;0.0;0.0;0.0;0.0;0.0;0.0;0.0;0.0;0.0;0.0;0.0;0.0;0.0;0.0;0.0;0.0;0.0;0.0;0.0;0.0;0.0;0.0;0.0;0.0;0.0;0.0;0.0;0.00039781380405
295441000000;119;295441000000;map;30.0267679139;-0.179999641075;0.0;0.0;0.0;-0.00552653287331;0.999984728601;0.00251623151235;0.000553848577345;0.0;0.0;0.0;0.0;0.000553848577345;0.00222147505103;0.0;0.0;0.0;0.0;0.0;0.0;0.0;0.0;0.0;0.0;0.0;0.0;0.0;0.0;0.0;0.0;0.0;0.0;0.0;0.0;0.0;0.0;0.0;0.0;0.0;0.0;0.0;0.000377847289645
295943000000;120;295943000000;map;30.2775941728;-0.181586253146;0.0;0.0;0.0;-0.00549593254437;0.999984897249;0.00255622153406;0.000572136062198;0.0;0.0;0.0;0.0;0.000572136062198;0.00225280541351;0.0;0.0;0.0;0.0;0.0;0.0;0.0;0.0;0.0;0.0;0.0;0.0;0.0;0.0;0.0;0.0;0.0;0.0;0.0;0.0;0.0;0.0;0.0;0.0;0.0;0.0;0.0;0.000386442007156
296452000000;121;296452000000;map;30.5327937013;-0.183387154464;0.0;0.0;0.0;-0.00531892857947;0.999985854399;0.00257118338118;0.000562380558261;0.0;0.0;0.0;0.0;0.000562380558261;0.00220495782595;0.0;0.0;0.0;0.0;0.0;0.0;0.0;0.0;0.0;0.0;0.0;0.0;0.0;0.0;0.0;0.0;0.0;0.0;0.0;0.0;0.0;0.0;0.0;0.0;0.0;0.0;0.0;0.000377928589435
296959000000;122;296959000000;map;30.7861297;-0.185850486573;0.0;0.0;0.0;-0.00564847116;0.99998404726;0.0026612993131;0.000556429983336;0.0;0.0;0.0;0.0;0.000556429983336;0.00216965721591;0.0;0.0;0.0;0.0;0.0;0.0;0.0;0.0;0.0;0.0;0.0;0.0;0.0;0.0;0.0;0.0;0.0;0.0;0.0;0.0;0.0;0.0;0.0;0.0;0.0;0.0;0.0;0.000380036357496
297461000000;123;297461000000;map;31.037993118;-0.187774140574;0.0;0.0;0.0;-0.00565598379528;0.999984004796;0.0026916377592;0.000558764829576;0.0;0.0;0.0;0.0;0.000558764829576;0.00217241459359;0.0;0.0;0.0;0.0;0.0;0.0;0.0;0.0;0.0;0.0;0.0;0.0;0.0;0.0;0.0;0.0;0.0;0.0;0.0;0.0;0.0;0.0;0.0;0.0;0.0;0.0;0.0;0.000389469382505
297964000000;124;297964000000;map;31.2917675256;-0.188683382385;0.0;0.0;0.0;-0.00531442676593;0.999985878334;0.0027217961391;0.000525798394401;0.0;0.0;0.0;0.0;0.000525798394401;0.00211606725162;0.0;0.0;0.0;0.0;0.0;0.0;0.0;0.0;0.0;0.0;0.0;0.0;0.0;0.0;0.0;0.0;0.0;0.0;0.0;0.0;0.0;0.0;0.0;0.0;0.0;0.0;0.0;0.000374945669482
298474000000;125;298474000000;map;31.5473317598;-0.189308884459;0.0;0.0;0.0;-0.00523339757475;0.999986305681;0.00272325495973;0.000511685566081;0.0;0.0;0.0;0.0;0.000511685566081;0.00214860636059;0.0;0.0;0.0;0.0;0.0;0.0;0.0;0.0;0.0;0.0;0.0;0.0;0.0;0.0;0.0;0.0;0.0;0.0;0.0;0.0;0.0;0.0;0.0;0.0;0.0;0.0;0.0;0.000382769847707
298980000000;126;298980000000;map;31.8005692012;-0.19172603091;0.0;0.0;0.0;-0.00544689673594;0.999985165548;0.00280961499914;0.000569397241513;0.0;0.0;0.0;0.0;0.000569397241513;0.00218529060523;0.0;0.0;0.0;0.0;0.0;0.0;0.0;0.0;0.0;0.0;0.0;0.0;0.0;0.0;0.0;0.0;0.0;0.0;0.0;0.0;0.0;0.0;0.0;0.0;0.0;0.0;0.0;0.00039107724749
299499000000;127;299499000000;map;32.0602027284;-0.19436433936;0.0;0.0;0.0;-0.00535787743191;0.999985646472;0.0028426589372;0.000580193510669;0.0;0.0;0.0;0.0;0.000580193510669;0.00217837393192;0.0;0.0;0.0;0.0;0.0;0.0;0.0;0.0;0.0;0.0;0.0;0.0;0.0;0.0;0.0;0.0;0.0;0.0;0.0;0.0;0.0;0.0;0.0;0.0;0.0;0.0;0.0;0.000383211060417
300000000000;128;300000000000;map;32.3110385361;-0.195675465214;0.0;0.0;0.0;-0.00496012866588;0.999987698486;0.0027757106443;0.000561865364737;0.0;0.0;0.0;0.0;0.000561865364737;0.00217813689329;0.0;0.0;0.0;0.0;0.0;0.0;0.0;0.0;0.0;0.0;0.0;0.0;0.0;0.0;0.0;0.0;0.0;0.0;0.0;0.0;0.0;0.0;0.0;0.0;0.0;0.0;0.0;0.000374738622066
300502000000;129;300502000000;map;32.5633158749;-0.198098423832;0.0;0.0;0.0;-0.00499931072913;0.999987503368;0.00279646119225;0.000536452818397;0.0;0.0;0.0;0.0;0.000536452818399;0.00223017969246;0.0;0.0;0.0;0.0;0.0;0.0;0.0;0.0;0.0;0.0;0.0;0.0;0.0;0.0;0.0;0.0;0.0;0.0;0.0;0.0;0.0;0.0;0.0;0.0;0.0;0.0;0.0;0.000375862011194
301006000000;130;301006000000;map;32.8160828392;-0.20057352142;0.0;0.0;0.0;-0.00490121240686;0.999987988986;0.00275732195291;0.000539151173089;0.0;0.0;0.0;0.0;0.000539151173089;0.00223742771118;0.0;0.0;0.0;0.0;0.0;0.0;0.0;0.0;0.0;0.0;0.0;0.0;0.0;0.0;0.0;0.0;0.0;0.0;0.0;0.0;0.0;0.0;0.0;0.0;0.0;0.0;0.0;0.000375731384033
301515000000;131;301515000000;map;33.0723092716;-0.201923742265;0.0;0.0;0.0;-0.00487019818459;0.999988140514;0.00286072383051;0.000540545460348;0.0;0.0;0.0;0.0;0.00054054546035;0.00220899615748;0.0;0.0;0.0;0.0;0.0;0.0;0.0;0.0;0.0;0.0;0.0;0.0;0.0;0.0;0.0;0.0;0.0;0.0;0.0;0.0;0.0;0.0;0.0;0.0;0.0;0.0;0.0;0.000359690894941
302018000000;132;302018000000;map;33.3256521417;-0.202501798867;0.0;0.0;0.0;-0.00473916713326;0.999988770084;0.00283800926991;0.000517610396224;0.0;0.0;0.0;0.0;0.000517610396225;0.00212768631237;0.0;0.0;0.0;0.0;0.0;0.0;0.0;0.0;0.0;0.0;0.0;0.0;0.0;0.0;0.0;0.0;0.0;0.0;0.0;0.0;0.0;0.0;0.0;0.0;0.0;0.0;0.0;0.000356322710542
302529000000;133;302529000000;map;33.5815072471;-0.203917386671;0.0;0.0;0.0;-0.0046482566296;0.999989196797;0.00284791268473;0.000505195991199;0.0;0.0;0.0;0.0;0.000505195991199;0.00208376144467;0.0;0.0;0.0;0.0;0.0;0.0;0.0;0.0;0.0;0.0;0.0;0.0;0.0;0.0;0.0;0.0;0.0;0.0;0.0;0.0;0.0;0.0;0.0;0.0;0.0;0.0;0.0;0.000368657697928
303031000000;134;303031000000;map;33.8329708473;-0.205564850343;0.0;0.0;0.0;-0.00462528852033;0.999989303296;0.0028153414903;0.000496861602803;0.0;0.0;0.0;0.0;0.000496861602803;0.00214429681635;0.0;0.0;0.0;0.0;0.0;0.0;0.0;0.0;0.0;0.0;0.0;0.0;0.0;0.0;0.0;0.0;0.0;0.0;0.0;0.0;0.0;0.0;0.0;0.0;0.0;0.0;0.0;0.000359201263769
303533000000;135;303533000000;map;34.0839093071;-0.206752712762;0.0;0.0;0.0;-0.00461533069212;0.999989349305;0.00288268164422;0.000538165201224;0.0;0.0;0.0;0.0;0.000538165201224;0.00215542585155;0.0;0.0;0.0;0.0;0.0;0.0;0.0;0.0;0.0;0.0;0.0;0.0;0.0;0.0;0.0;0.0;0.0;0.0;0.0;0.0;0.0;0.0;0.0;0.0;0.0;0.0;0.0;0.000357501306488
304033000000;136;304033000000;map;34.3348640499;-0.208090282363;0.0;0.0;0.0;-0.00442680925567;0.999990201632;0.00288777669994;0.000540160830712;0.0;0.0;0.0;0.0;0.000540160830712;0.00216285073083;0.0;0.0;0.0;0.0;0.0;0.0;0.0;0.0;0.0;0.0;0.0;0.0;0.0;0.0;0.0;0.0;0.0;0.0;0.0;0.0;0.0;0.0;0.0;0.0;0.0;0.0;0.0;0.000361713360128
304537000000;137;304537000000;map;34.5872619819;-0.209997708446;0.0;0.0;0.0;-0.0047266542758;0.999988829307;0.00293407715299;0.000559951964704;0.0;0.0;0.0;0.0;0.000559951964704;0.00212618022087;0.0;0.0;0.0;0.0;0.0;0.0;0.0;0.0;0.0;0.0;0.0;0.0;0.0;0.0;0.0;0.0;0.0;0.0;0.0;0.0;0.0;0.0;0.0;0.0;0.0;0.0;0.0;0.000371873415328
305043000000;138;305043000000;map;34.8404363778;-0.211453706727;0.0;0.0;0.0;-0.00452109409287;0.999989779802;0.00293643390251;0.000495047147023;0.0;0.0;0.0;0.0;0.000495047147023;0.00211831835584;0.0;0.0;0.0;0.0;0.0;0.0;0.0;0.0;0.0;0.0;0.0;0.0;0.0;0.0;0.0;0.0;0.0;0.0;0.0;0.0;0.0;0.0;0.0;0.0;0.0;0.0;0.0;0.00037033951844
305545000000;139;305545000000;map;35.0916954332;-0.213026035562;0.0;0.0;0.0;-0.00482093985153;0.999988379202;0.00290282842184;0.000460202593451;0.0;0.0;0.0;0.0;0.000460202593451;0.00216783061257;0.0;0.0;0.0;0.0;0.0;0.0;0.0;0.0;0.0;0.0;0.0;0.0;0.0;0.0;0.0;0.0;0.0;0.0;0.0;0.0;0.0;0.0;0.0;0.0;0.0;0.0;0.0;0.000382580026187
306048000000;140;306048000000;map;35.3452670149;-0.214934685224;0.0;0.0;0.0;-0.00479520395558;0.999988502943;0.00291129805601;0.000418502852327;0.0;0.0;0.0;0.0;0.000418502852327;0.00220022411553;0.0;0.0;0.0;0.0;0.0;0.0;0.0;0.0;0.0;0.0;0.0;0.0;0.0;0.0;0.0;0.0;0.0;0.0;0.0;0.0;0.0;0.0;0.0;0.0;0.0;0.0;0.0;0.000390164886388
306549000000;141;306549000000;map;35.5961250308;-0.216561646904;0.0;0.0;0.0;-0.00505308153231;0.999987233102;0.00302067902544;0.000486284574866;0.0;0.0;0.0;0.0;0.000486284574866;0.00224627733041;0.0;0.0;0.0;0.0;0.0;0.0;0.0;0.0;0.0;0.0;0.0;0.0;0.0;0.0;0.0;0.0;0.0;0.0;0.0;0.0;0.0;0.0;0.0;0.0;0.0;0.0;0.0;0.000400935718351
307055000000;142;307055000000;map;35.8510087326;-0.218903991822;0.0;0.0;0.0;-0.00502522532968;0.999987373475;0.00309040946377;0.000504568958389;0.0;0.0;0.0;0.0;0.000504568958389;0.00225132998193;0.0;0.0;0.0;0.0;0.0;0.0;0.0;0.0;0.0;0.0;0.0;0.0;0.0;0.0;0.0;0.0;0.0;0.0;0.0;0.0;0.0;0.0;0.0;0.0;0.0;0.0;0.0;0.000406813812291
307556000000;143;307556000000;map;36.1030125878;-0.220776713335;0.0;0.0;0.0;-0.00478841160852;0.999988535491;0.00306477474351;0.000519524883707;0.0;0.0;0.0;0.0;0.000519524883705;0.00224632977099;0.0;0.0;0.0;0.0;0.0;0.0;0.0;0.0;0.0;0.0;0.0;0.0;0.0;0.0;0.0;0.0;0.0;0.0;0.0;0.0;0.0;0.0;0.0;0.0;0.0;0.0;0.0;0.00040453090835
308056000000;144;308056000000;map;36.3543279063;-0.222267408874;0.0;0.0;0.0;-0.00458894144314;0.999989470753;0.00302073187868;0.000547567212051;0.0;0.0;0.0;0.0;0.000547567212049;0.00233247514834;0.0;0.0;0.0;0.0;0.0;0.0;0.0;0.0;0.0;0.0;0.0;0.0;0.0;0.0;0.0;0.0;0.0;0.0;0.0;0.0;0.0;0.0;0.0;0.0;0.0;0.0;0.0;0.000406406611478
308564000000;145;308564000000;map;36.6092648303;-0.224750233386;0.0;0.0;0.0;-0.00484190390081;0.999988277915;0.00305704770608;0.000598944932566;0.0;0.0;0.0;0.0;0.000598944932564;0.00234328424218;0.0;0.0;0.0;0.0;0.0;0.0;0.0;0.0;0.0;0.0;0.0;0.0;0.0;0.0;0.0;0.0;0.0;0.0;0.0;0.0;0.0;0.0;0.0;0.0;0.0;0.0;0.0;0.000411371269581
309073000000;146;309073000000;map;36.8641053031;-0.226410521857;0.0;0.0;0.0;-0.00468665374715;0.999989017578;0.00296986936178;0.000577908218522;0.0;0.0;0.0;0.0;0.000577908218522;0.00236034005277;0.0;0.0;0.0;0.0;0.0;0.0;0.0;0.0;0.0;0.0;0.0;0.0;0.0;0.0;0.0;0.0;0.0;0.0;0.0;0.0;0.0;0.0;0.0;0.0;0.0;0.0;0.0;0.000414008357366
310040000000;147;310040000000;map;36.9174699134;-0.226592469859;0.0;0.0;0.0;0.0959495665572;0.995386196749;0.00294286472013;0.000614911146956;0.0;0.0;0.0;0.0;0.000614911146956;0.00221097800334;0.0;0.0;0.0;0.0;0.0;0.0;0.0;0.0;0.0;0.0;0.0;0.0;0.0;0.0;0.0;0.0;0.0;0.0;0.0;0.0;0.0;0.0;0.0;0.0;0.0;0.0;0.0;0.000367686997855
310925000000;148;310925000000;map;36.918152182;-0.226764090532;0.0;0.0;0.0;0.197153627396;0.980372606311;0.00288549234551;0.000576780704948;0.0;0.0;0.0;0.0;0.000576780704948;0.00207223934906;0.0;0.0;0.0;0.0;0.0;0.0;0.0;0.0;0.0;0.0;0.0;0.0;0.0;0.0;0.0;0.0;0.0;0.0;0.0;0.0;0.0;0.0;0.0;0.0;0.0;0.0;0.0;0.000337208618378
311829000000;149;311829000000;map;36.9197051575;-0.226602294007;0.0;0.0;0.0;0.29578386312;0.955254890758;0.002832649634;0.0005452914797;0.0;0.0;0.0;0.0;0.0005452914797;0.00189238500432;0.0;0.0;0.0;0.0;0.0;0.0;0.0;0.0;0.0;0.0;0.0;0.0;0.0;0.0;0.0;0.0;0.0;0.0;0.0;0.0;0.0;0.0;0.0;0.0;0.0;0.0;0.0;0.000304067120268
312721000000;150;312721000000;map;36.9218193658;-0.225183857683;0.0;0.0;0.0;0.389557775105;0.921002030321;0.00285566529988;0.000558631925706;0.0;0.0;0.0;0.0;0.000558631925706;0.00182670032164;0.0;0.0;0.0;0.0;0.0;0.0;0.0;0.0;0.0;0.0;0.0;0.0;0.0;0.0;0.0;0.0;0.0;0.0;0.0;0.0;0.0;0.0;0.0;0.0;0.0;0.0;0.0;0.000270587315832
313619000000;151;313619000000;map;36.9239110577;-0.224325667594;0.0;0.0;0.0;0.480682940199;0.876894469706;0.00279293836593;0.000569529622245;0.0;0.0;0.0;0.0;0.000569529622245;0.00178008472494;0.0;0.0;0.0;0.0;0.0;0.0;0.0;0.0;0.0;0.0;0.0;0.0;0.0;0.0;0.0;0.0;0.0;0.0;0.0;0.0;0.0;0.0;0.0;0.0;0.0;0.0;0.0;0.000261739217805
314483000000;152;314483000000;map;36.9263587137;-0.223736592388;0.0;0.0;0.0;0.567286874745;0.823520249746;0.00274479869745;0.000511894649769;0.0;0.0;0.0;0.0;0.000511894649769;0.00173312009093;0.0;0.0;0.0;0.0;0.0;0.0;0.0;0.0;0.0;0.0;0.0;0.0;0.0;0.0;0.0;0.0;0.0;0.0;0.0;0.0;0.0;0.0;0.0;0.0;0.0;0.0;0.0;0.000259825754538
315346000000;153;315346000000;map;36.9282085155;-0.222137102767;0.0;0.0;0.0;0.647923474919;0.761705435617;0.00270497394581;0.000493829704906;0.0;0.0;0.0;0.0;0.000493829704904;0.0016544810207;0.0;0.0;0.0;0.0;0.0;0.0;0.0;0.0;0.0;0.0;0.0;0.0;0.0;0.0;0.0;0.0;0.0;0.0;0.0;0.0;0.0;0.0;0.0;0.0;0.0;0.0;0.0;0.000243043637009
316210000000;154;316210000000;map;36.9300956117;-0.219037610157;0.0;0.0;0.0;0.722187343153;0.691697507144;0.00272282212995;0.000512451162107;0.0;0.0;0.0;0.0;0.000512451162107;0.00165239359109;0.0;0.0;0.0;0.0;0.0;0.0;0.0;0.0;0.0;0.0;0.0;0.0;0.0;0.0;0.0;0.0;0.0;0.0;0.0;0.0;0.0;0.0;0.0;0.0;0.0;0.0;0.0;0.000242204668987
317157000000;155;317157000000;map;36.9156923717;0.0430472310966;0.0;0.0;0.0;0.730226398208;0.683205245414;0.0026529700192;0.000463577939393;0.0;0.0;0.0;0.0;0.000463577939393;0.00165968748358;0.0;0.0;0.0;0.0;0.0;0.0;0.0;0.0;0.0;0.0;0.0;0.0;0.0;0.0;0.0;0.0;0.0;0.0;0.0;0.0;0.0;0.0;0.0;0.0;0.0;0.0;0.0;0.00030188615114
317666000000;156;317666000000;map;36.901752509;0.299623927513;0.0;0.0;0.0;0.729993107803;0.683454506577;0.0025733079799;0.000383971020463;0.0;0.0;0.0;0.0;0.000383971020462;0.00165348955022;0.0;0.0;0.0;0.0;0.0;0.0;0.0;0.0;0.0;0.0;0.0;0.0;0.0;0.0;0.0;0.0;0.0;0.0;0.0;0.0;0.0;0.0;0.0;0.0;0.0;0.0;0.0;0.000339674006754
318168000000;157;318168000000;map;36.8880757879;0.552440826262;0.0;0.0;0.0;0.72955885672;0.683918032064;0.0025182381728;0.000371328904716;0.0;0.0;0.0;0.0;0.000371328904716;0.00163675641646;0.0;0.0;0.0;0.0;0.0;0.0;0.0;0.0;0.0;0.0;0.0;0.0;0.0;0.0;0.0;0.0;0.0;0.0;0.0;0.0;0.0;0.0;0.0;0.0;0.0;0.0;0.0;0.000366685918988
318674000000;158;318674000000;map;36.8744769783;0.80734125142;0.0;0.0;0.0;0.729217966877;0.684281489435;0.00245017891893;0.000342905612531;0.0;0.0;0.0;0.0;0.000342905612531;0.0016218926584;0.0;0.0;0.0;0.0;0.0;0.0;0.0;0.0;0.0;0.0;0.0;0.0;0.0;0.0;0.0;0.0;0.0;0.0;0.0;0.0;0.0;0.0;0.0;0.0;0.0;0.0;0.0;0.000390201277279
319177000000;159;319177000000;map;36.8620394054;1.06009632277;0.0;0.0;0.0;0.729004662206;0.684508730756;0.00244700707799;0.000310655894076;0.0;0.0;0.0;0.0;0.000310655894076;0.00161626180381;0.0;0.0;0.0;0.0;0.0;0.0;0.0;0.0;0.0;0.0;0.0;0.0;0.0;0.0;0.0;0.0;0.0;0.0;0.0;0.0;0.0;0.0;0.0;0.0;0.0;0.0;0.0;0.000402962780929
319680000000;160;319680000000;map;36.8494471132;1.31269877238;0.0;0.0;0.0;0.728636884909;0.684900204373;0.00249368679533;0.000271062599076;0.0;0.0;0.0;0.0;0.000271062599076;0.0016295460004;0.0;0.0;0.0;0.0;0.0;0.0;0.0;0.0;0.0;0.0;0.0;0.0;0.0;0.0;0.0;0.0;0.0;0.0;0.0;0.0;0.0;0.0;0.0;0.0;0.0;0.0;0.0;0.000425521114503
320184000000;161;320184000000;map;36.8364776531;1.56597024241;0.0;0.0;0.0;0.728400906416;0.685151165461;0.00261466713164;0.000241477984822;0.0;0.0;0.0;0.0;0.000241477984822;0.00156603206981;0.0;0.0;0.0;0.0;0.0;0.0;0.0;0.0;0.0;0.0;0.0;0.0;0.0;0.0;0.0;0.0;0.0;0.0;0.0;0.0;0.0;0.0;0.0;0.0;0.0;0.0;0.0;0.000433691288388
320687000000;162;320687000000;map;36.8225433775;1.8193909896;0.0;0.0;0.0;0.728265065418;0.685295552657;0.00267811855792;0.000202480528898;0.0;0.0;0.0;0.0;0.000202480528898;0.00153078391969;0.0;0.0;0.0;0.0;0.0;0.0;0.0;0.0;0.0;0.0;0.0;0.0;0.0;0.0;0.0;0.0;0.0;0.0;0.0;0.0;0.0;0.0;0.0;0.0;0.0;0.0;0.0;0.00044199715896
322655000000;163;322655000000;map;36.8207021816;2.07114902996;0.0;0.0;0.0;0.69592587013;0.718113628393;0.00273571288858;0.000174493821632;0.0;0.0;0.0;0.0;0.000174493821632;0.00148261759934;0.0;0.0;0.0;0.0;0.0;0.0;0.0;0.0;0.0;0.0;0.0;0.0;0.0;0.0;0.0;0.0;0.0;0.0;0.0;0.0;0.0;0.0;0.0;0.0;0.0;0.0;0.0;0.000431804780734
323163000000;164;323163000000;map;36.8308516726;2.32639147368;0.0;0.0;0.0;0.695805916873;0.718229855996;0.00284350033303;0.000197589612213;0.0;0.0;0.0;0.0;0.000197589612213;0.00150952075354;0.0;0.0;0.0;0.0;0.0;0.0;0.0;0.0;0.0;0.0;0.0;0.0;0.0;0.0;0.0;0.0;0.0;0.0;0.0;0.0;0.0;0.0;0.0;0.0;0.0;0.0;0.0;0.000436625807091
323682000000;165;323682000000;map;36.8415576578;2.58700360165;0.0;0.0;0.0;0.695867493604;0.718170196642;0.00286096879472;0.000198618872105;0.0;0.0;0.0;0.0;0.000198618872091;0.00147930476019;0.0;0.0;0.0;0.0;0.0;0.0;0.0;0.0;0.0;0.0;0.0;0.0;0.0;0.0;0.0;0.0;0.0;0.0;0.0;0.0;0.0;0.0;0.0;0.0;0.0;0.0;0.0;0.000434110201367
324185000000;166;324185000000;map;36.8513432525;2.83948506222;0.0;0.0;0.0;0.695779311233;0.718255630023;0.00286073129428;0.000134089930583;0.0;0.0;0.0;0.0;0.000134089930583;0.00146986843991;0.0;0.0;0.0;0.0;0.0;0.0;0.0;0.0;0.0;0.0;0.0;0.0;0.0;0.0;0.0;0.0;0.0;0.0;0.0;0.0;0.0;0.0;0.0;0.0;0.0;0.0;0.0;0.000423291845684
324687000000;167;324687000000;map;36.8612774033;3.09154997697;0.0;0.0;0.0;0.695711918274;0.718320907931;0.00276915157042;6.72689692465e-05;0.0;0.0;0.0;0.0;6.72689692607e-05;0.00139014589483;0.0;0.0;0.0;0.0;0.0;0.0;0.0;0.0;0.0;0.0;0.0;0.0;0.0;0.0;0.0;0.0;0.0;0.0;0.0;0.0;0.0;0.0;0.0;0.0;0.0;0.0;0.0;0.000410514300008
325208000000;168;325208000000;map;36.8716454999;3.35395390739;0.0;0.0;0.0;0.695650189756;0.718380688418;0.00282933495328;0.000101536865202;0.0;0.0;0.0;0.0;0.000101536865216;0.00135724519481;0.0;0.0;0.0;0.0;0.0;0.0;0.0;0.0;0.0;0.0;0.0;0.0;0.0;0.0;0.0;0.0;0.0;0.0;0.0;0.0;0.0;0.0;0.0;0.0;0.0;0.0;0.0;0.000425028845738
325727000000;169;325727000000;map;36.8804413455;3.61491903313;0.0;0.0;0.0;0.695783183008;0.718251879387;0.00290816622032;6.93304659762e-05;0.0;0.0;0.0;0.0;6.93304659762e-05;0.00138127976951;0.0;0.0;0.0;0.0;0.0;0.0;0.0;0.0;0.0;0.0;0.0;0.0;0.0;0.0;0.0;0.0;0.0;0.0;0.0;0.0;0.0;0.0;0.0;0.0;0.0;0.0;0.0;0.000433318232109
326229000000;170;326229000000;map;36.8898340172;3.8677446791;0.0;0.0;0.0;0.696057854811;0.717985698155;0.00285470780045;3.08001264102e-05;0.0;0.0;0.0;0.0;3.08001263818e-05;0.00135774451033;0.0;0.0;0.0;0.0;0.0;0.0;0.0;0.0;0.0;0.0;0.0;0.0;0.0;0.0;0.0;0.0;0.0;0.0;0.0;0.0;0.0;0.0;0.0;0.0;0.0;0.0;0.0;0.000406897175184
326738000000;171;326738000000;map;36.8997919006;4.12267198435;0.0;0.0;0.0;0.696015448182;0.718026807224;0.00288171614011;-9.42087748967e-06;0.0;0.0;0.0;0.0;-9.42087748967e-06;0.00137562183812;0.0;0.0;0.0;0.0;0.0;0.0;0.0;0.0;0.0;0.0;0.0;0.0;0.0;0.0;0.0;0.0;0.0;0.0;0.0;0.0;0.0;0.0;0.0;0.0;0.0;0.0;0.0;0.000422118248164
327258000000;172;327258000000;map;36.9089543442;4.3835150781;0.0;0.0;0.0;0.69635681736;0.717695745365;0.00294121742786;-5.29188176301e-05;0.0;0.0;0.0;0.0;-5.29188176301e-05;0.00138608725671;0.0;0.0;0.0;0.0;0.0;0.0;0.0;0.0;0.0;0.0;0.0;0.0;0.0;0.0;0.0;0.0;0.0;0.0;0.0;0.0;0.0;0.0;0.0;0.0;0.0;0.0;0.0;0.000445548998204
327763000000;173;327763000000;map;36.9195664543;4.6371791047;0.0;0.0;0.0;0.696391164237;0.717662418114;0.00288265403447;-2.58621365958e-05;0.0;0.0;0.0;0.0;-2.58621365958e-05;0.00133654409827;0.0;0.0;0.0;0.0;0.0;0.0;0.0;0.0;0.0;0.0;0.0;0.0;0.0;0.0;0.0;0.0;0.0;0.0;0.0;0.0;0.0;0.0;0.0;0.0;0.0;0.0;0.0;0.000456525027597
328282000000;174;328282000000;map;36.9294352963;4.89694317526;0.0;0.0;0.0;0.696409448504;0.717644675334;0.00293070015528;-2.25066547728e-05;0.0;0.0;0.0;0.0;-2.25066547443e-05;0.00133507808183;0.0;0.0;0.0;0.0;0.0;0.0;0.0;0.0;0.0;0.0;0.0;0.0;0.0;0.0;0.0;0.0;0.0;0.0;0.0;0.0;0.0;0.0;0.0;0.0;0.0;0.0;0.0;0.000473334810449
328787000000;175;328787000000;map;36.9384239322;5.14909828284;0.0;0.0;0.0;0.696503941363;0.717552966453;0.0029117947372;-6.43428026024e-05;0.0;0.0;0.0;0.0;-6.43428025739e-05;0.00134774801816;0.0;0.0;0.0;0.0;0.0;0.0;0.0;0.0;0.0;0.0;0.0;0.0;0.0;0.0;0.0;0.0;0.0;0.0;0.0;0.0;0.0;0.0;0.0;0.0;0.0;0.0;0.0;0.000472719709091
329288000000;176;329288000000;map;36.9480734008;5.40024295589;0.0;0.0;0.0;0.696540957755;0.717517034062;0.00290113294477;-8.43583546555e-05;0.0;0.0;0.0;0.0;-8.43583546839e-05;0.00136132887175;0.0;0.0;0.0;0.0;0.0;0.0;0.0;0.0;0.0;0.0;0.0;0.0;0.0;0.0;0.0;0.0;0.0;0.0;0.0;0.0;0.0;0.0;0.0;0.0;0.0;0.0;0.0;0.000474955871748
329789000000;177;329789000000;map;36.9588258849;5.65012000132;0.0;0.0;0.0;0.696526254201;0.717531307477;0.00287370028923;-7.38904000741e-05;0.0;0.0;0.0;0.0;-7.38904000741e-05;0.00133701331946;0.0;0.0;0.0;0.0;0.0;0.0;0.0;0.0;0.0;0.0;0.0;0.0;0.0;0.0;0.0;0.0;0.0;0.0;0.0;0.0;0.0;0.0;0.0;0.0;0.0;0.0;0.0;0.000492717639308
330294000000;178;330294000000;map;36.9692755455;5.90204907788;0.0;0.0;0.0;0.696592178151;0.717467307505;0.00287824512566;-9.14165987638e-05;0.0;0.0;0.0;0.0;-9.14165987638e-05;0.00133287208526;0.0;0.0;0.0;0.0;0.0;0.0;0.0;0.0;0.0;0.0;0.0;0.0;0.0;0.0;0.0;0.0;0.0;0.0;0.0;0.0;0.0;0.0;0.0;0.0;0.0;0.0;0.0;0.000496249662366
330815000000;179;330815000000;map;36.979966042;6.16361170699;0.0;0.0;0.0;0.696374634471;0.717678457574;0.00283592365986;-0.000145466068687;0.0;0.0;0.0;0.0;-0.000145466068687;0.00133279783545;0.0;0.0;0.0;0.0;0.0;0.0;0.0;0.0;0.0;0.0;0.0;0.0;0.0;0.0;0.0;0.0;0.0;0.0;0.0;0.0;0.0;0.0;0.0;0.0;0.0;0.0;0.0;0.000496262637039
331319000000;180;331319000000;map;36.9899453738;6.41525134658;0.0;0.0;0.0;0.69635983677;0.717692815718;0.00276643233701;-0.000144416876566;0.0;0.0;0.0;0.0;-0.000144416876566;0.00139615072309;0.0;0.0;0.0;0.0;0.0;0.0;0.0;0.0;0.0;0.0;0.0;0.0;0.0;0.0;0.0;0.0;0.0;0.0;0.0;0.0;0.0;0.0;0.0;0.0;0.0;0.0;0.0;0.000489982672952
331838000000;181;331838000000;map;37.0012649697;6.6751984662;0.0;0.0;0.0;0.696097910895;0.717946863248;0.00262878882518;-0.000100476580656;0.0;0.0;0.0;0.0;-0.000100476580656;0.00142206985534;0.0;0.0;0.0;0.0;0.0;0.0;0.0;0.0;0.0;0.0;0.0;0.0;0.0;0.0;0.0;0.0;0.0;0.0;0.0;0.0;0.0;0.0;0.0;0.0;0.0;0.0;0.0;0.000494310838884
332339000000;182;332339000000;map;37.0118223456;6.92512415343;0.0;0.0;0.0;0.695871569975;0.71816624684;0.00262761070485;-0.000107457202603;0.0;0.0;0.0;0.0;-0.000107457202603;0.00145868919169;0.0;0.0;0.0;0.0;0.0;0.0;0.0;0.0;0.0;0.0;0.0;0.0;0.0;0.0;0.0;0.0;0.0;0.0;0.0;0.0;0.0;0.0;0.0;0.0;0.0;0.0;0.0;0.000516314145633
332841000000;183;332841000000;map;37.0218075438;7.17555557497;0.0;0.0;0.0;0.695921063308;0.718118286666;0.00262954411369;-0.000120160168592;0.0;0.0;0.0;0.0;-0.000120160168535;0.00149064495567;0.0;0.0;0.0;0.0;0.0;0.0;0.0;0.0;0.0;0.0;0.0;0.0;0.0;0.0;0.0;0.0;0.0;0.0;0.0;0.0;0.0;0.0;0.0;0.0;0.0;0.0;0.0;0.000522977963082
333350000000;184;333350000000;map;37.0312708472;7.43054010946;0.0;0.0;0.0;0.69591662401;0.718122588718;0.00275917738259;-0.000117478846335;0.0;0.0;0.0;0.0;-0.000117478846335;0.00149669429076;0.0;0.0;0.0;0.0;0.0;0.0;0.0;0.0;0.0;0.0;0.0;0.0;0.0;0.0;0.0;0.0;0.0;0.0;0.0;0.0;0.0;0.0;0.0;0.0;0.0;0.0;0.0;0.000519584229864
333851000000;185;333851000000;map;37.0422519859;7.68132260872;0.0;0.0;0.0;0.695601213039;0.718428112213;0.00280551028573;-0.000115035427029;0.0;0.0;0.0;0.0;-0.000115035426973;0.00151992188749;0.0;0.0;0.0;0.0;0.0;0.0;0.0;0.0;0.0;0.0;0.0;0.0;0.0;0.0;0.0;0.0;0.0;0.0;0.0;0.0;0.0;0.0;0.0;0.0;0.0;0.0;0.0;0.000494695286414
334352000000;186;334352000000;map;37.0514653484;7.93096202976;0.0;0.0;0.0;0.69546987417;0.718555254745;0.0027144351991;-0.000164391662224;0.0;0.0;0.0;0.0;-0.000164391662224;0.00151004059062;0.0;0.0;0.0;0.0;0.0;0.0;0.0;0.0;0.0;0.0;0.0;0.0;0.0;0.0;0.0;0.0;0.0;0.0;0.0;0.0;0.0;0.0;0.0;0.0;0.0;0.0;0.0;0.000475338045997
334857000000;187;334857000000;map;37.0597983136;8.18412119175;0.0;0.0;0.0;0.695617339958;0.718412497351;0.0027373626117;-0.000158002224623;0.0;0.0;0.0;0.0;-0.000158002224623;0.00150697335074;0.0;0.0;0.0;0.0;0.0;0.0;0.0;0.0;0.0;0.0;0.0;0.0;0.0;0.0;0.0;0.0;0.0;0.0;0.0;0.0;0.0;0.0;0.0;0.0;0.0;0.0;0.0;0.000467378922249
335361000000;188;335361000000;map;37.0679383025;8.43696347029;0.0;0.0;0.0;0.696054287593;0.717989156411;0.00267292658691;-0.000115820092788;0.0;0.0;0.0;0.0;-0.000115820092788;0.00145655523563;0.0;0.0;0.0;0.0;0.0;0.0;0.0;0.0;0.0;0.0;0.0;0.0;0.0;0.0;0.0;0.0;0.0;0.0;0.0;0.0;0.0;0.0;0.0;0.0;0.0;0.0;0.0;0.000447081538828
335864000000;189;335864000000;map;37.0750947384;8.68863066115;0.0;0.0;0.0;0.696391167039;0.717662415395;0.00264788995219;-6.19716308847e-05;0.0;0.0;0.0;0.0;-6.19716308847e-05;0.00142601188239;0.0;0.0;0.0;0.0;0.0;0.0;0.0;0.0;0.0;0.0;0.0;0.0;0.0;0.0;0.0;0.0;0.0;0.0;0.0;0.0;0.0;0.0;0.0;0.0;0.0;0.0;0.0;0.000448402700179
336367000000;190;336367000000;map;37.0835033234;8.94052080916;0.0;0.0;0.0;0.696440630075;0.717614415115;0.00270391621234;-8.47001552415e-05;0.0;0.0;0.0;0.0;-8.47001552415e-05;0.00145298668852;0.0;0.0;0.0;0.0;0.0;0.0;0.0;0.0;0.0;0.0;0.0;0.0;0.0;0.0;0.0;0.0;0.0;0.0;0.0;0.0;0.0;0.0;0.0;0.0;0.0;0.0;0.0;0.000446918742901
336871000000;191;336871000000;map;37.0921561534;9.19226622284;0.0;0.0;0.0;0.696806756534;0.717258910052;0.00272743944038;-0.000117838564961;0.0;0.0;0.0;0.0;-0.000117838564961;0.00147950553735;0.0;0.0;0.0;0.0;0.0;0.0;0.0;0.0;0.0;0.0;0.0;0.0;0.0;0.0;0.0;0.0;0.0;0.0;0.0;0.0;0.0;0.0;0.0;0.0;0.0;0.0;0.0;0.000440846859259
337391000000;192;337391000000;map;37.0993437672;9.45281982449;0.0;0.0;0.0;0.697135279224;0.716939608657;0.00272057882262;-0.000121001763887;0.0;0.0;0.0;0.0;-0.000121001763887;0.0014517841271;0.0;0.0;0.0;0.0;0.0;0.0;0.0;0.0;0.0;0.0;0.0;0.0;0.0;0.0;0.0;0.0;0.0;0.0;0.0;0.0;0.0;0.0;0.0;0.0;0.0;0.0;0.0;0.000442992371599
337892000000;193;337892000000;map;37.1083146041;9.70368790712;0.0;0.0;0.0;0.697131751976;0.716943038454;0.0028226811587;-0.000128094179047;0.0;0.0;0.0;0.0;-0.00012809417899;0.0014879394336;0.0;0.0;0.0;0.0;0.0;0.0;0.0;0.0;0.0;0.0;0.0;0.0;0.0;0.0;0.0;0.0;0.0;0.0;0.0;0.0;0.0;0.0;0.0;0.0;0.0;0.0;0.0;0.000427279720292
338393000000;194;338393000000;map;37.114018424;9.95479815019;0.0;0.0;0.0;0.697499194108;0.716585566571;0.00286735869963;-0.000153155009912;0.0;0.0;0.0;0.0;-0.000153155009968;0.00144084735572;0.0;0.0;0.0;0.0;0.0;0.0;0.0;0.0;0.0;0.0;0.0;0.0;0.0;0.0;0.0;0.0;0.0;0.0;0.0;0.0;0.0;0.0;0.0;0.0;0.0;0.0;0.0;0.000421620790775
338895000000;195;338895000000;map;37.1208800338;10.205252669;0.0;0.0;0.0;0.697707880462;0.716382379419;0.00282985794934;-0.000237309302577;0.0;0.0;0.0;0.0;-0.000237309302577;0.00143618861908;0.0;0.0;0.0;0.0;0.0;0.0;0.0;0.0;0.0;0.0;0.0;0.0;0.0;0.0;0.0;0.0;0.0;0.0;0.0;0.0;0.0;0.0;0.0;0.0;0.0;0.0;0.0;0.000407943480326
339397000000;196;339397000000;map;37.127723873;10.4564155472;0.0;0.0;0.0;0.697911496377;0.716184014918;0.00287567868008;-0.000234224302289;0.0;0.0;0.0;0.0;-0.000234224302289;0.00145660274084;0.0;0.0;0.0;0.0;0.0;0.0;0.0;0.0;0.0;0.0;0.0;0.0;0.0;0.0;0.0;0.0;0.0;0.0;0.0;0.0;0.0;0.0;0.0;0.0;0.0;0.0;0.0;0.000405166099843
