%time;field.header.seq;field.header.stamp;field.header.frame_id;field.pose.pose.position.x;field.pose.pose.position.y;field.pose.pose.position.z;field.pose.pose.orientation.x;field.pose.pose.orientation.y;field.pose.pose.orientation.z;field.pose.pose.orientation.w;field.pose.covariance0;field.pose.covariance1;field.pose.covariance2;field.pose.covariance3;field.pose.covariance4;field.pose.covariance5;field.pose.covariance6;field.pose.covariance7;field.pose.covariance8;field.pose.covariance9;field.pose.covariance10;field.pose.covariance11;field.pose.covariance12;field.pose.covariance13;field.pose.covariance14;field.pose.covariance15;field.pose.covariance16;field.pose.covariance17;field.pose.covariance18;field.pose.covariance19;field.pose.covariance20;field.pose.covariance21;field.pose.covariance22;field.pose.covariance23;field.pose.covariance24;field.pose.covariance25;field.pose.covariance26;field.pose.covariance27;field.pose.covariance28;field.pose.covariance29;field.pose.covariance30;field.pose.covariance31;field.pose.covariance32;field.pose.covariance33;field.pose.covariance34;field.pose.covariance35
239609000000;9;239609000000;map;2.28442726621;-0.0179847760892;0.0;0.0;0.0;-0.00181097574221;0.999998360182;0.0394157062716;-6.19274963599e-05;0.0;0.0;0.0;0.0;-6.19274963599e-05;0.00375263340813;0.0;0.0;0.0;0.0;0.0;0.0;0.0;0.0;0.0;0.0;0.0;0.0;0.0;0.0;0.0;0.0;0.0;0.0;0.0;0.0;0.0;0.0;0.0;0.0;0.0;0.0;0.0;0.000436107230184
240117000000;10;240117000000;map;2.53626419161;-0.0161235066893;0.0;0.0;0.0;-0.00173234380172;0.999998499491;0.0321244243987;-0.000424851709709;0.0;0.0;0.0;0.0;-0.000424851709709;0.00307196121589;0.0;0.0;0.0;0.0;0.0;0.0;0.0;0.0;0.0;0.0;0.0;0.0;0.0;0.0;0.0;0.0;0.0;0.0;0.0;0.0;0.0;0.0;0.0;0.0;0.0;0.0;0.0;0.000321977692849
240618000000;11;240618000000;map;2.786107525;-0.0166307614253;0.0;0.0;0.0;-0.00196270035883;0.999998073902;0.0276839799646;-0.00047865258796;0.0;0.0;0.0;0.0;-0.00047865258796;0.00276679087547;0.0;0.0;0.0;0.0;0.0;0.0;0.0;0.0;0.0;0.0;0.0;0.0;0.0;0.0;0.0;0.0;0.0;0.0;0.0;0.0;0.0;0.0;0.0;0.0;0.0;0.0;0.0;0.000257553235448
241124000000;12;241124000000;map;3.03789006855;-0.0163756461127;0.0;0.0;0.0;-0.00196130889019;0.999998076632;0.020455555663;-0.000656763805396;0.0;0.0;0.0;0.0;-0.000656763805396;0.00242230332756;0.0;0.0;0.0;0.0;0.0;0.0;0.0;0.0;0.0;0.0;0.0;0.0;0.0;0.0;0.0;0.0;0.0;0.0;0.0;0.0;0.0;0.0;0.0;0.0;0.0;0.0;0.0;0.000217212264267
241630000000;13;241630000000;map;3.29163690685;-0.0166712973099;0.0;0.0;0.0;-0.00205596568153;0.9999978865;0.0179315266888;-0.000718701960304;0.0;0.0;0.0;0.0;-0.000718701960304;0.00208575057063;0.0;0.0;0.0;0.0;0.0;0.0;0.0;0.0;0.0;0.0;0.0;0.0;0.0;0.0;0.0;0.0;0.0;0.0;0.0;0.0;0.0;0.0;0.0;0.0;0.0;0.0;0.0;0.000174238016984
242132000000;14;242132000000;map;3.53860833548;-0.0163177851907;0.0;0.0;0.0;-0.00217257972948;0.999997639946;0.0142887621401;-0.000730589150729;0.0;0.0;0.0;0.0;-0.000730589150729;0.00180930055294;0.0;0.0;0.0;0.0;0.0;0.0;0.0;0.0;0.0;0.0;0.0;0.0;0.0;0.0;0.0;0.0;0.0;0.0;0.0;0.0;0.0;0.0;0.0;0.0;0.0;0.0;0.0;0.000148819794413
242635000000;15;242635000000;map;3.78815670306;-0.0167146735603;0.0;0.0;0.0;-0.00212508623079;0.999997742002;0.010776130858;-0.000717507480586;0.0;0.0;0.0;0.0;-0.000717507480586;0.00172552313548;0.0;0.0;0.0;0.0;0.0;0.0;0.0;0.0;0.0;0.0;0.0;0.0;0.0;0.0;0.0;0.0;0.0;0.0;0.0;0.0;0.0;0.0;0.0;0.0;0.0;0.0;0.0;0.00012595194121
243144000000;16;243144000000;map;4.0410822838;-0.0169093263841;0.0;0.0;0.0;-0.00205515443099;0.999997888168;0.00931180028983;-0.000676652812247;0.0;0.0;0.0;0.0;-0.000676652812247;0.00162337084006;0.0;0.0;0.0;0.0;0.0;0.0;0.0;0.0;0.0;0.0;0.0;0.0;0.0;0.0;0.0;0.0;0.0;0.0;0.0;0.0;0.0;0.0;0.0;0.0;0.0;0.0;0.0;0.000108403041786
243647000000;17;243647000000;map;4.29280257656;-0.0179370964456;0.0;0.0;0.0;-0.00201251410919;0.999997974891;0.00837110577665;-0.00073254578428;0.0;0.0;0.0;0.0;-0.00073254578428;0.00152949714256;0.0;0.0;0.0;0.0;0.0;0.0;0.0;0.0;0.0;0.0;0.0;0.0;0.0;0.0;0.0;0.0;0.0;0.0;0.0;0.0;0.0;0.0;0.0;0.0;0.0;0.0;0.0;9.69556482584e-05
244154000000;18;244154000000;map;4.54313938604;-0.0181118303501;0.0;0.0;0.0;-0.00188727271396;0.999998219099;0.00666758474105;-0.000697258493386;0.0;0.0;0.0;0.0;-0.000697258493386;0.00147115885658;0.0;0.0;0.0;0.0;0.0;0.0;0.0;0.0;0.0;0.0;0.0;0.0;0.0;0.0;0.0;0.0;0.0;0.0;0.0;0.0;0.0;0.0;0.0;0.0;0.0;0.0;0.0;8.27661239483e-05
244659000000;19;244659000000;map;4.79220093076;-0.018048121701;0.0;0.0;0.0;-0.00188535433956;0.999998222718;0.00624594369211;-0.000684432436958;0.0;0.0;0.0;0.0;-0.000684432436958;0.00139128684095;0.0;0.0;0.0;0.0;0.0;0.0;0.0;0.0;0.0;0.0;0.0;0.0;0.0;0.0;0.0;0.0;0.0;0.0;0.0;0.0;0.0;0.0;0.0;0.0;0.0;0.0;0.0;7.27666414226e-05
245180000000;20;245180000000;map;5.05013643626;-0.0183838875401;0.0;0.0;0.0;-0.0018037063957;0.99999837332;0.00598659206059;-0.000617860400441;0.0;0.0;0.0;0.0;-0.000617860400441;0.00134496776677;0.0;0.0;0.0;0.0;0.0;0.0;0.0;0.0;0.0;0.0;0.0;0.0;0.0;0.0;0.0;0.0;0.0;0.0;0.0;0.0;0.0;0.0;0.0;0.0;0.0;0.0;0.0;6.45163621208e-05
245684000000;21;245684000000;map;5.29900732263;-0.0186944842518;0.0;0.0;0.0;-0.00172563299931;0.999998511094;0.00527436940744;-0.000577598144435;0.0;0.0;0.0;0.0;-0.000577598144435;0.00129148424793;0.0;0.0;0.0;0.0;0.0;0.0;0.0;0.0;0.0;0.0;0.0;0.0;0.0;0.0;0.0;0.0;0.0;0.0;0.0;0.0;0.0;0.0;0.0;0.0;0.0;0.0;0.0;5.57093052813e-05
246187000000;22;246187000000;map;5.54776254121;-0.0182737747806;0.0;0.0;0.0;-0.00164810746991;0.99999864187;0.00508076675386;-0.000543560328112;0.0;0.0;0.0;0.0;-0.000543560328112;0.001198793446;0.0;0.0;0.0;0.0;0.0;0.0;0.0;0.0;0.0;0.0;0.0;0.0;0.0;0.0;0.0;0.0;0.0;0.0;0.0;0.0;0.0;0.0;0.0;0.0;0.0;0.0;0.0;4.90969020834e-05
246706000000;23;246706000000;map;5.80246086952;-0.0180166708944;0.0;0.0;0.0;-0.00153382397917;0.999998823691;0.0045767456788;-0.000443243899613;0.0;0.0;0.0;0.0;-0.000443243899613;0.00112666412899;0.0;0.0;0.0;0.0;0.0;0.0;0.0;0.0;0.0;0.0;0.0;0.0;0.0;0.0;0.0;0.0;0.0;0.0;0.0;0.0;0.0;0.0;0.0;0.0;0.0;0.0;0.0;4.43668221705e-05
247211000000;24;247211000000;map;6.05380604575;-0.019002391497;0.0;0.0;0.0;-0.00153946750829;0.999998815019;0.00431060735091;-0.000464750135962;0.0;0.0;0.0;0.0;-0.000464750135962;0.00106185331119;0.0;0.0;0.0;0.0;0.0;0.0;0.0;0.0;0.0;0.0;0.0;0.0;0.0;0.0;0.0;0.0;0.0;0.0;0.0;0.0;0.0;0.0;0.0;0.0;0.0;0.0;0.0;3.84168395239e-05
247712000000;25;247712000000;map;6.30255753664;-0.0195468723193;0.0;0.0;0.0;-0.00155565402026;0.99999878997;0.00418833220092;-0.000495603884661;0.0;0.0;0.0;0.0;-0.000495603884661;0.000982601741878;0.0;0.0;0.0;0.0;0.0;0.0;0.0;0.0;0.0;0.0;0.0;0.0;0.0;0.0;0.0;0.0;0.0;0.0;0.0;0.0;0.0;0.0;0.0;0.0;0.0;0.0;0.0;3.43393607941e-05
248219000000;26;248219000000;map;6.55396204448;-0.0202369968861;0.0;0.0;0.0;-0.00156418291566;0.999998776665;0.00396378993307;-0.000494943500349;0.0;0.0;0.0;0.0;-0.000494943500349;0.000913539332248;0.0;0.0;0.0;0.0;0.0;0.0;0.0;0.0;0.0;0.0;0.0;0.0;0.0;0.0;0.0;0.0;0.0;0.0;0.0;0.0;0.0;0.0;0.0;0.0;0.0;0.0;0.0;3.04114168313e-05
248722000000;27;248722000000;map;6.80220201469;-0.0206919333494;0.0;0.0;0.0;-0.00151299695686;0.999998855419;0.00357959467183;-0.000476516464662;0.0;0.0;0.0;0.0;-0.000476516464662;0.000845652173549;0.0;0.0;0.0;0.0;0.0;0.0;0.0;0.0;0.0;0.0;0.0;0.0;0.0;0.0;0.0;0.0;0.0;0.0;0.0;0.0;0.0;0.0;0.0;0.0;0.0;0.0;0.0;2.67883010423e-05
249241000000;28;249241000000;map;7.05987206809;-0.0210947021685;0.0;0.0;0.0;-0.00153012174733;0.999998829363;0.00346553468412;-0.00049406234756;0.0;0.0;0.0;0.0;-0.00049406234756;0.000793621080855;0.0;0.0;0.0;0.0;0.0;0.0;0.0;0.0;0.0;0.0;0.0;0.0;0.0;0.0;0.0;0.0;0.0;0.0;0.0;0.0;0.0;0.0;0.0;0.0;0.0;0.0;0.0;2.35669831127e-05
249750000000;29;249750000000;map;7.31280281583;-0.0212743067393;0.0;0.0;0.0;-0.00146001633904;0.999998934176;0.00328210588074;-0.000492725902348;0.0;0.0;0.0;0.0;-0.000492725902348;0.000758774920445;0.0;0.0;0.0;0.0;0.0;0.0;0.0;0.0;0.0;0.0;0.0;0.0;0.0;0.0;0.0;0.0;0.0;0.0;0.0;0.0;0.0;0.0;0.0;0.0;0.0;0.0;0.0;2.15017304204e-05
250254000000;30;250254000000;map;7.56356709078;-0.0216241152605;0.0;0.0;0.0;-0.00144241027034;0.999998959726;0.00307866949117;-0.000510421464871;0.0;0.0;0.0;0.0;-0.000510421464871;0.000728506325867;0.0;0.0;0.0;0.0;0.0;0.0;0.0;0.0;0.0;0.0;0.0;0.0;0.0;0.0;0.0;0.0;0.0;0.0;0.0;0.0;0.0;0.0;0.0;0.0;0.0;0.0;0.0;1.99111195299e-05
250771000000;31;250771000000;map;7.82117134147;-0.0219091066548;0.0;0.0;0.0;-0.00140281879812;0.999999016049;0.0029334899496;-0.000517181109203;0.0;0.0;0.0;0.0;-0.000517181109203;0.000687241853934;0.0;0.0;0.0;0.0;0.0;0.0;0.0;0.0;0.0;0.0;0.0;0.0;0.0;0.0;0.0;0.0;0.0;0.0;0.0;0.0;0.0;0.0;0.0;0.0;0.0;0.0;0.0;1.84628104257e-05
251272000000;32;251272000000;map;8.06862863404;-0.0220088603379;0.0;0.0;0.0;-0.00134574395744;0.999999094486;0.0024730343989;-0.000498389649027;0.0;0.0;0.0;0.0;-0.000498389649027;0.000630228445345;0.0;0.0;0.0;0.0;0.0;0.0;0.0;0.0;0.0;0.0;0.0;0.0;0.0;0.0;0.0;0.0;0.0;0.0;0.0;0.0;0.0;0.0;0.0;0.0;0.0;0.0;0.0;1.64796199344e-05
251772000000;33;251772000000;map;8.31729049788;-0.0217509989164;0.0;0.0;0.0;-0.00125554173651;0.999999211807;0.00234268512767;-0.000461558973006;0.0;0.0;0.0;0.0;-0.000461558973006;0.000619095832327;0.0;0.0;0.0;0.0;0.0;0.0;0.0;0.0;0.0;0.0;0.0;0.0;0.0;0.0;0.0;0.0;0.0;0.0;0.0;0.0;0.0;0.0;0.0;0.0;0.0;0.0;0.0;1.53634987677e-05
252291000000;34;252291000000;map;8.57612768702;-0.0225334384014;0.0;0.0;0.0;-0.00124857534384;0.99999922053;0.00224118706245;-0.000493111328389;0.0;0.0;0.0;0.0;-0.000493111328389;0.000573505719492;0.0;0.0;0.0;0.0;0.0;0.0;0.0;0.0;0.0;0.0;0.0;0.0;0.0;0.0;0.0;0.0;0.0;0.0;0.0;0.0;0.0;0.0;0.0;0.0;0.0;0.0;0.0;1.43918885976e-05
252796000000;35;252796000000;map;8.82755249959;-0.0228228337923;0.0;0.0;0.0;-0.00121701711585;0.999999259434;0.00205481829499;-0.000489410244318;0.0;0.0;0.0;0.0;-0.000489410244318;0.000571462473125;0.0;0.0;0.0;0.0;0.0;0.0;0.0;0.0;0.0;0.0;0.0;0.0;0.0;0.0;0.0;0.0;0.0;0.0;0.0;0.0;0.0;0.0;0.0;0.0;0.0;0.0;0.0;1.39190676482e-05
253297000000;36;253297000000;map;9.07723960001;-0.0240473622124;0.0;0.0;0.0;-0.00124391030771;0.999999226343;0.00195705491322;-0.000506927460197;0.0;0.0;0.0;0.0;-0.000506927460197;0.000584900597687;0.0;0.0;0.0;0.0;0.0;0.0;0.0;0.0;0.0;0.0;0.0;0.0;0.0;0.0;0.0;0.0;0.0;0.0;0.0;0.0;0.0;0.0;0.0;0.0;0.0;0.0;0.0;1.41270508914e-05
253800000000;37;253800000000;map;9.32693101545;-0.0237656495363;0.0;0.0;0.0;-0.00115306332301;0.999999335222;0.00169467654;-0.000434531776917;0.0;0.0;0.0;0.0;-0.000434531776917;0.00055843226047;0.0;0.0;0.0;0.0;0.0;0.0;0.0;0.0;0.0;0.0;0.0;0.0;0.0;0.0;0.0;0.0;0.0;0.0;0.0;0.0;0.0;0.0;0.0;0.0;0.0;0.0;0.0;1.3274819859e-05
254303000000;38;254303000000;map;9.57769989935;-0.0237145469919;0.0;0.0;0.0;-0.00114442466971;0.999999345146;0.00156503096687;-0.000388477091367;0.0;0.0;0.0;0.0;-0.000388477091367;0.00055775470329;0.0;0.0;0.0;0.0;0.0;0.0;0.0;0.0;0.0;0.0;0.0;0.0;0.0;0.0;0.0;0.0;0.0;0.0;0.0;0.0;0.0;0.0;0.0;0.0;0.0;0.0;0.0;1.24706383513e-05
254824000000;39;254824000000;map;9.83735139462;-0.0245442789447;0.0;0.0;0.0;-0.00114556169016;0.999999343844;0.00146542616649;-0.000396479969572;0.0;0.0;0.0;0.0;-0.000396479969572;0.000574730344846;0.0;0.0;0.0;0.0;0.0;0.0;0.0;0.0;0.0;0.0;0.0;0.0;0.0;0.0;0.0;0.0;0.0;0.0;0.0;0.0;0.0;0.0;0.0;0.0;0.0;0.0;0.0;1.255472704e-05
255330000000;40;255330000000;map;10.0891918208;-0.0248694911368;0.0;0.0;0.0;-0.00113643236036;0.999999354261;0.00130762801767;-0.000341093102072;0.0;0.0;0.0;0.0;-0.000341093102072;0.000579349048534;0.0;0.0;0.0;0.0;0.0;0.0;0.0;0.0;0.0;0.0;0.0;0.0;0.0;0.0;0.0;0.0;0.0;0.0;0.0;0.0;0.0;0.0;0.0;0.0;0.0;0.0;0.0;1.17986552327e-05
255834000000;41;255834000000;map;10.3398620462;-0.0256262245154;0.0;0.0;0.0;-0.00114588480541;0.999999343474;0.00112962758571;-0.000285819498226;0.0;0.0;0.0;0.0;-0.000285819498226;0.000570824162592;0.0;0.0;0.0;0.0;0.0;0.0;0.0;0.0;0.0;0.0;0.0;0.0;0.0;0.0;0.0;0.0;0.0;0.0;0.0;0.0;0.0;0.0;0.0;0.0;0.0;0.0;0.0;1.13064639674e-05
256343000000;42;256343000000;map;10.5928957132;-0.0259869445754;0.0;0.0;0.0;-0.00112797047503;0.999999363841;0.000904866851315;-0.000212868047655;0.0;0.0;0.0;0.0;-0.000212868047655;0.000548937321793;0.0;0.0;0.0;0.0;0.0;0.0;0.0;0.0;0.0;0.0;0.0;0.0;0.0;0.0;0.0;0.0;0.0;0.0;0.0;0.0;0.0;0.0;0.0;0.0;0.0;0.0;0.0;1.08987896182e-05
256862000000;43;256862000000;map;10.8517692994;-0.027049980319;0.0;0.0;0.0;-0.00115070570814;0.999999337938;0.000824874686145;-0.000203539971783;0.0;0.0;0.0;0.0;-0.000203539971783;0.000541657129468;0.0;0.0;0.0;0.0;0.0;0.0;0.0;0.0;0.0;0.0;0.0;0.0;0.0;0.0;0.0;0.0;0.0;0.0;0.0;0.0;0.0;0.0;0.0;0.0;0.0;0.0;0.0;1.08548934646e-05
257368000000;44;257368000000;map;11.1042367575;-0.027693923575;0.0;0.0;0.0;-0.00115206705934;0.999999336371;0.000765317529499;-0.000199705022773;0.0;0.0;0.0;0.0;-0.000199705022773;0.000521900999548;0.0;0.0;0.0;0.0;0.0;0.0;0.0;0.0;0.0;0.0;0.0;0.0;0.0;0.0;0.0;0.0;0.0;0.0;0.0;0.0;0.0;0.0;0.0;0.0;0.0;0.0;0.0;1.02463883425e-05
257876000000;45;257876000000;map;11.3573918203;-0.0281154955196;0.0;0.0;0.0;-0.00113744490324;0.999999353109;0.000662736059041;-0.000164119338892;0.0;0.0;0.0;0.0;-0.000164119338892;0.000489639802468;0.0;0.0;0.0;0.0;0.0;0.0;0.0;0.0;0.0;0.0;0.0;0.0;0.0;0.0;0.0;0.0;0.0;0.0;0.0;0.0;0.0;0.0;0.0;0.0;0.0;0.0;0.0;9.8978150619e-06
258376000000;46;258376000000;map;11.6065136829;-0.0286562388542;0.0;0.0;0.0;-0.00113024233611;0.999999361276;0.000504039867366;-0.000117978584033;0.0;0.0;0.0;0.0;-0.000117978584033;0.000493989831511;0.0;0.0;0.0;0.0;0.0;0.0;0.0;0.0;0.0;0.0;0.0;0.0;0.0;0.0;0.0;0.0;0.0;0.0;0.0;0.0;0.0;0.0;0.0;0.0;0.0;0.0;0.0;9.82058205932e-06
258880000000;47;258880000000;map;11.8580656756;-0.0297861272057;0.0;0.0;0.0;-0.00116958232811;0.999999316038;0.000428413196147;-9.99643551752e-05;0.0;0.0;0.0;0.0;-9.99643551752e-05;0.000498061580169;0.0;0.0;0.0;0.0;0.0;0.0;0.0;0.0;0.0;0.0;0.0;0.0;0.0;0.0;0.0;0.0;0.0;0.0;0.0;0.0;0.0;0.0;0.0;0.0;0.0;0.0;0.0;9.91722067367e-06
259388000000;48;259388000000;map;12.1113805876;-0.0306077097035;0.0;0.0;0.0;-0.00119170047526;0.999999289925;0.000346823539672;-8.04859511581e-05;0.0;0.0;0.0;0.0;-8.04859511581e-05;0.000478156467255;0.0;0.0;0.0;0.0;0.0;0.0;0.0;0.0;0.0;0.0;0.0;0.0;0.0;0.0;0.0;0.0;0.0;0.0;0.0;0.0;0.0;0.0;0.0;0.0;0.0;0.0;0.0;9.35882459523e-06
259890000000;49;259890000000;map;12.3623190152;-0.0316609358793;0.0;0.0;0.0;-0.00121891121882;0.999999257127;0.000326727842037;-7.17044345796e-05;0.0;0.0;0.0;0.0;-7.17044345796e-05;0.000496590985901;0.0;0.0;0.0;0.0;0.0;0.0;0.0;0.0;0.0;0.0;0.0;0.0;0.0;0.0;0.0;0.0;0.0;0.0;0.0;0.0;0.0;0.0;0.0;0.0;0.0;0.0;0.0;9.27659664095e-06
260391000000;50;260391000000;map;12.6122192887;-0.0325468978133;0.0;0.0;0.0;-0.00124985532022;0.999999218931;0.000251799805596;-5.75368815861e-05;0.0;0.0;0.0;0.0;-5.75368815862e-05;0.000501945431122;0.0;0.0;0.0;0.0;0.0;0.0;0.0;0.0;0.0;0.0;0.0;0.0;0.0;0.0;0.0;0.0;0.0;0.0;0.0;0.0;0.0;0.0;0.0;0.0;0.0;0.0;0.0;9.34931514905e-06
260897000000;51;260897000000;map;12.8651529754;-0.0335641089498;0.0;0.0;0.0;-0.00125494960465;0.99999921255;0.000257649851676;-6.04984615267e-05;0.0;0.0;0.0;0.0;-6.04984615268e-05;0.000501446174902;0.0;0.0;0.0;0.0;0.0;0.0;0.0;0.0;0.0;0.0;0.0;0.0;0.0;0.0;0.0;0.0;0.0;0.0;0.0;0.0;0.0;0.0;0.0;0.0;0.0;0.0;0.0;9.42092566687e-06
261403000000;52;261403000000;map;13.1180381549;-0.0338967111661;0.0;0.0;0.0;-0.00122919587647;0.999999244538;0.000244265174416;-5.69576059041e-05;0.0;0.0;0.0;0.0;-5.69576059041e-05;0.00053189970585;0.0;0.0;0.0;0.0;0.0;0.0;0.0;0.0;0.0;0.0;0.0;0.0;0.0;0.0;0.0;0.0;0.0;0.0;0.0;0.0;0.0;0.0;0.0;0.0;0.0;0.0;0.0;9.67341492283e-06
261904000000;53;261904000000;map;13.3685419949;-0.0347003284211;0.0;0.0;0.0;-0.0012424065503;0.999999228213;0.000260079533518;-4.42544382278e-05;0.0;0.0;0.0;0.0;-4.42544382278e-05;0.000552310392775;0.0;0.0;0.0;0.0;0.0;0.0;0.0;0.0;0.0;0.0;0.0;0.0;0.0;0.0;0.0;0.0;0.0;0.0;0.0;0.0;0.0;0.0;0.0;0.0;0.0;0.0;0.0;9.71278632683e-06
262410000000;54;262410000000;map;13.6209375525;-0.0356149581011;0.0;0.0;0.0;-0.00125765110867;0.999999209157;0.000185440508375;-2.06348478618e-05;0.0;0.0;0.0;0.0;-2.06348478617e-05;0.000537256764121;0.0;0.0;0.0;0.0;0.0;0.0;0.0;0.0;0.0;0.0;0.0;0.0;0.0;0.0;0.0;0.0;0.0;0.0;0.0;0.0;0.0;0.0;0.0;0.0;0.0;0.0;0.0;9.51435063368e-06
262911000000;55;262911000000;map;13.8712993854;-0.0363733649839;0.0;0.0;0.0;-0.0012622542369;0.999999203357;0.000175292242204;-1.94373000111e-05;0.0;0.0;0.0;0.0;-1.94373000111e-05;0.000539850797623;0.0;0.0;0.0;0.0;0.0;0.0;0.0;0.0;0.0;0.0;0.0;0.0;0.0;0.0;0.0;0.0;0.0;0.0;0.0;0.0;0.0;0.0;0.0;0.0;0.0;0.0;0.0;9.26081939959e-06
263413000000;56;263413000000;map;14.1219442821;-0.0373040202864;0.0;0.0;0.0;-0.00127861523343;0.999999182571;0.000117719387219;-8.19010932407e-08;0.0;0.0;0.0;0.0;-8.19010932407e-08;0.000545616105238;0.0;0.0;0.0;0.0;0.0;0.0;0.0;0.0;0.0;0.0;0.0;0.0;0.0;0.0;0.0;0.0;0.0;0.0;0.0;0.0;0.0;0.0;0.0;0.0;0.0;0.0;0.0;9.28902545333e-06
263915000000;57;263915000000;map;14.3728822459;-0.0373712271413;0.0;0.0;0.0;-0.00122637528949;0.999999248002;0.000114661458667;-1.00194158797e-05;0.0;0.0;0.0;0.0;-1.00194158797e-05;0.000579767220546;0.0;0.0;0.0;0.0;0.0;0.0;0.0;0.0;0.0;0.0;0.0;0.0;0.0;0.0;0.0;0.0;0.0;0.0;0.0;0.0;0.0;0.0;0.0;0.0;0.0;0.0;0.0;9.36281073754e-06
264419000000;58;264419000000;map;14.6246820975;-0.0378330663127;0.0;0.0;0.0;-0.00123014571274;0.99999924337;9.56551249942e-05;-6.21663957023e-06;0.0;0.0;0.0;0.0;-6.21663957023e-06;0.000583779809765;0.0;0.0;0.0;0.0;0.0;0.0;0.0;0.0;0.0;0.0;0.0;0.0;0.0;0.0;0.0;0.0;0.0;0.0;0.0;0.0;0.0;0.0;0.0;0.0;0.0;0.0;0.0;9.52985332046e-06
264940000000;59;264940000000;map;14.8851556998;-0.0378561551844;0.0;0.0;0.0;-0.00120576170826;0.999999273069;7.49488212648e-05;1.77780771821e-05;0.0;0.0;0.0;0.0;1.77780771821e-05;0.000614035406276;0.0;0.0;0.0;0.0;0.0;0.0;0.0;0.0;0.0;0.0;0.0;0.0;0.0;0.0;0.0;0.0;0.0;0.0;0.0;0.0;0.0;0.0;0.0;0.0;0.0;0.0;0.0;9.77201416753e-06
265455000000;60;265455000000;map;15.1425774548;-0.0388459470384;0.0;0.0;0.0;-0.00125141557129;0.999999216979;6.2076177187e-05;2.41240285231e-05;0.0;0.0;0.0;0.0;2.41240285231e-05;0.000630707577926;0.0;0.0;0.0;0.0;0.0;0.0;0.0;0.0;0.0;0.0;0.0;0.0;0.0;0.0;0.0;0.0;0.0;0.0;0.0;0.0;0.0;0.0;0.0;0.0;0.0;0.0;0.0;1.00957202981e-05
265957000000;61;265957000000;map;15.3935746402;-0.039729855428;0.0;0.0;0.0;-0.00127041600828;0.999999193021;6.54995888567e-05;1.42399337693e-05;0.0;0.0;0.0;0.0;1.42399337694e-05;0.000647980461231;0.0;0.0;0.0;0.0;0.0;0.0;0.0;0.0;0.0;0.0;0.0;0.0;0.0;0.0;0.0;0.0;0.0;0.0;0.0;0.0;0.0;0.0;0.0;0.0;0.0;0.0;0.0;1.02406030928e-05
266465000000;62;266465000000;map;15.64769003;-0.0406689876204;0.0;0.0;0.0;-0.00128246898969;0.999999177636;6.94572439954e-05;1.32138754068e-05;0.0;0.0;0.0;0.0;1.32138754068e-05;0.000651349002189;0.0;0.0;0.0;0.0;0.0;0.0;0.0;0.0;0.0;0.0;0.0;0.0;0.0;0.0;0.0;0.0;0.0;0.0;0.0;0.0;0.0;0.0;0.0;0.0;0.0;0.0;0.0;1.00161177743e-05
266966000000;63;266966000000;map;15.8984771124;-0.0419449298177;0.0;0.0;0.0;-0.00131720805793;0.999999132481;7.55021029875e-05;1.18365851657e-05;0.0;0.0;0.0;0.0;1.18365851657e-05;0.000683863277854;0.0;0.0;0.0;0.0;0.0;0.0;0.0;0.0;0.0;0.0;0.0;0.0;0.0;0.0;0.0;0.0;0.0;0.0;0.0;0.0;0.0;0.0;0.0;0.0;0.0;0.0;0.0;1.01223684761e-05
267471000000;64;267471000000;map;16.1508472261;-0.0422227428641;0.0;0.0;0.0;-0.0013007921095;0.99999915397;7.11797935082e-05;1.7798100817e-05;0.0;0.0;0.0;0.0;1.7798100817e-05;0.000693191963178;0.0;0.0;0.0;0.0;0.0;0.0;0.0;0.0;0.0;0.0;0.0;0.0;0.0;0.0;0.0;0.0;0.0;0.0;0.0;0.0;0.0;0.0;0.0;0.0;0.0;0.0;0.0;1.00817960283e-05
267972000000;65;267972000000;map;16.4012627541;-0.0429200358568;0.0;0.0;0.0;-0.00133137881726;0.999999113715;6.95410075195e-05;1.43141129636e-05;0.0;0.0;0.0;0.0;1.43141129636e-05;0.000728569652226;0.0;0.0;0.0;0.0;0.0;0.0;0.0;0.0;0.0;0.0;0.0;0.0;0.0;0.0;0.0;0.0;0.0;0.0;0.0;0.0;0.0;0.0;0.0;0.0;0.0;0.0;0.0;1.00443907644e-05
268473000000;66;268473000000;map;16.651698647;-0.0436895669356;0.0;0.0;0.0;-0.001313303002;0.999999137617;6.49608295475e-05;1.53251386954e-05;0.0;0.0;0.0;0.0;1.53251386955e-05;0.000753386422165;0.0;0.0;0.0;0.0;0.0;0.0;0.0;0.0;0.0;0.0;0.0;0.0;0.0;0.0;0.0;0.0;0.0;0.0;0.0;0.0;0.0;0.0;0.0;0.0;0.0;0.0;0.0;1.00385815419e-05
268981000000;67;268981000000;map;16.905698274;-0.0449710495459;0.0;0.0;0.0;-0.00134162439546;0.999999100022;6.81078180946e-05;1.5059250409e-05;0.0;0.0;0.0;0.0;1.50592504088e-05;0.000786773371655;0.0;0.0;0.0;0.0;0.0;0.0;0.0;0.0;0.0;0.0;0.0;0.0;0.0;0.0;0.0;0.0;0.0;0.0;0.0;0.0;0.0;0.0;0.0;0.0;0.0;0.0;0.0;1.02242374895e-05
269494000000;68;269494000000;map;17.1621432997;-0.0456862943045;0.0;0.0;0.0;-0.00134181240043;0.999999099769;6.21882853693e-05;2.23868672954e-05;0.0;0.0;0.0;0.0;2.23868672954e-05;0.000829575848099;0.0;0.0;0.0;0.0;0.0;0.0;0.0;0.0;0.0;0.0;0.0;0.0;0.0;0.0;0.0;0.0;0.0;0.0;0.0;0.0;0.0;0.0;0.0;0.0;0.0;0.0;0.0;1.03675538868e-05
269996000000;69;269996000000;map;17.4130577748;-0.047377092898;0.0;0.0;0.0;-0.00138478552806;0.999999041184;5.88242193658e-05;2.3644219986e-05;0.0;0.0;0.0;0.0;2.3644219986e-05;0.000837987946571;0.0;0.0;0.0;0.0;0.0;0.0;0.0;0.0;0.0;0.0;0.0;0.0;0.0;0.0;0.0;0.0;0.0;0.0;0.0;0.0;0.0;0.0;0.0;0.0;0.0;0.0;0.0;1.0185723354e-05
270496000000;70;270496000000;map;17.6632287792;-0.0479402257908;0.0;0.0;0.0;-0.00140440707754;0.99999901382;6.20338911403e-05;2.17137686626e-05;0.0;0.0;0.0;0.0;2.17137686626e-05;0.000878755037887;0.0;0.0;0.0;0.0;0.0;0.0;0.0;0.0;0.0;0.0;0.0;0.0;0.0;0.0;0.0;0.0;0.0;0.0;0.0;0.0;0.0;0.0;0.0;0.0;0.0;0.0;0.0;1.04732783422e-05
271011000000;71;271011000000;map;17.9208227766;-0.0491087822212;0.0;0.0;0.0;-0.00141238767528;0.99999900258;6.02682936801e-05;2.2833259267e-05;0.0;0.0;0.0;0.0;2.2833259267e-05;0.000897853224188;0.0;0.0;0.0;0.0;0.0;0.0;0.0;0.0;0.0;0.0;0.0;0.0;0.0;0.0;0.0;0.0;0.0;0.0;0.0;0.0;0.0;0.0;0.0;0.0;0.0;0.0;0.0;1.08097707955e-05
271532000000;72;271532000000;map;18.1812129816;-0.0510873550489;0.0;0.0;0.0;-0.0014732255901;0.999998914803;6.31337352388e-05;2.06942246676e-05;0.0;0.0;0.0;0.0;2.06942246676e-05;0.000917228177973;0.0;0.0;0.0;0.0;0.0;0.0;0.0;0.0;0.0;0.0;0.0;0.0;0.0;0.0;0.0;0.0;0.0;0.0;0.0;0.0;0.0;0.0;0.0;0.0;0.0;0.0;0.0;1.09424188197e-05
272037000000;73;272037000000;map;18.4337195807;-0.0526424144816;0.0;0.0;0.0;-0.00150126610998;0.999998873099;6.50802886071e-05;1.82396989467e-05;0.0;0.0;0.0;0.0;1.82396989467e-05;0.000962266218288;0.0;0.0;0.0;0.0;0.0;0.0;0.0;0.0;0.0;0.0;0.0;0.0;0.0;0.0;0.0;0.0;0.0;0.0;0.0;0.0;0.0;0.0;0.0;0.0;0.0;0.0;0.0;1.09889219998e-05
272542000000;74;272542000000;map;18.6861838012;-0.0543320776543;0.0;0.0;0.0;-0.00153796898706;0.999998817325;6.70678205097e-05;2.18693088674e-05;0.0;0.0;0.0;0.0;2.18693088674e-05;0.000971296567119;0.0;0.0;0.0;0.0;0.0;0.0;0.0;0.0;0.0;0.0;0.0;0.0;0.0;0.0;0.0;0.0;0.0;0.0;0.0;0.0;0.0;0.0;0.0;0.0;0.0;0.0;0.0;1.1136115317e-05
273048000000;75;273048000000;map;18.939372899;-0.0563547094587;0.0;0.0;0.0;-0.00161471315745;0.99999869635;7.72008613694e-05;2.87503689862e-05;0.0;0.0;0.0;0.0;2.87503689862e-05;0.000987720832128;0.0;0.0;0.0;0.0;0.0;0.0;0.0;0.0;0.0;0.0;0.0;0.0;0.0;0.0;0.0;0.0;0.0;0.0;0.0;0.0;0.0;0.0;0.0;0.0;0.0;0.0;0.0;1.09272524266e-05
273550000000;76;273550000000;map;19.1904931673;-0.0581787219569;0.0;0.0;0.0;-0.00165827495496;0.999998625061;8.27509738315e-05;3.43033394925e-05;0.0;0.0;0.0;0.0;3.43033394925e-05;0.000961925420061;0.0;0.0;0.0;0.0;0.0;0.0;0.0;0.0;0.0;0.0;0.0;0.0;0.0;0.0;0.0;0.0;0.0;0.0;0.0;0.0;0.0;0.0;0.0;0.0;0.0;0.0;0.0;1.06062165471e-05
274070000000;77;274070000000;map;19.4505521058;-0.0597992289112;0.0;0.0;0.0;-0.00167823154872;0.999998591768;9.20622602507e-05;3.12340819142e-05;0.0;0.0;0.0;0.0;3.12340819142e-05;0.00101771129993;0.0;0.0;0.0;0.0;0.0;0.0;0.0;0.0;0.0;0.0;0.0;0.0;0.0;0.0;0.0;0.0;0.0;0.0;0.0;0.0;0.0;0.0;0.0;0.0;0.0;0.0;0.0;1.0894801253e-05
274579000000;78;274579000000;map;19.7048432546;-0.0616189976743;0.0;0.0;0.0;-0.00172406289192;0.999998513802;8.27469119145e-05;3.12073691877e-05;0.0;0.0;0.0;0.0;3.12073691877e-05;0.00103329539407;0.0;0.0;0.0;0.0;0.0;0.0;0.0;0.0;0.0;0.0;0.0;0.0;0.0;0.0;0.0;0.0;0.0;0.0;0.0;0.0;0.0;0.0;0.0;0.0;0.0;0.0;0.0;1.08292041001e-05
275087000000;79;275087000000;map;19.9586278559;-0.0632680842555;0.0;0.0;0.0;-0.00175525844823;0.999998459533;6.75755848079e-05;3.87743469255e-05;0.0;0.0;0.0;0.0;3.87743469255e-05;0.00102859548523;0.0;0.0;0.0;0.0;0.0;0.0;0.0;0.0;0.0;0.0;0.0;0.0;0.0;0.0;0.0;0.0;0.0;0.0;0.0;0.0;0.0;0.0;0.0;0.0;0.0;0.0;0.0;1.06285172369e-05
275605000000;80;275605000000;map;20.2176322678;-0.0654153987688;0.0;0.0;0.0;-0.00180077579072;0.999998378602;6.46295858928e-05;4.18294403799e-05;0.0;0.0;0.0;0.0;4.18294403799e-05;0.000995478507447;0.0;0.0;0.0;0.0;0.0;0.0;0.0;0.0;0.0;0.0;0.0;0.0;0.0;0.0;0.0;0.0;0.0;0.0;0.0;0.0;0.0;0.0;0.0;0.0;0.0;0.0;0.0;1.02418295376e-05
276109000000;81;276109000000;map;20.4695538179;-0.0676992783441;0.0;0.0;0.0;-0.00186717511945;0.999998256827;6.49992402373e-05;4.19891577705e-05;0.0;0.0;0.0;0.0;4.19891577705e-05;0.000984742946955;0.0;0.0;0.0;0.0;0.0;0.0;0.0;0.0;0.0;0.0;0.0;0.0;0.0;0.0;0.0;0.0;0.0;0.0;0.0;0.0;0.0;0.0;0.0;0.0;0.0;0.0;0.0;1.02050029372e-05
276617000000;82;276617000000;map;20.7235224388;-0.0692837592533;0.0;0.0;0.0;-0.00187465332153;0.999998242836;6.37174475742e-05;4.0100859874e-05;0.0;0.0;0.0;0.0;4.0100859874e-05;0.000987694005544;0.0;0.0;0.0;0.0;0.0;0.0;0.0;0.0;0.0;0.0;0.0;0.0;0.0;0.0;0.0;0.0;0.0;0.0;0.0;0.0;0.0;0.0;0.0;0.0;0.0;0.0;0.0;1.00642451817e-05
277120000000;83;277120000000;map;20.9749598718;-0.0716246325034;0.0;0.0;0.0;-0.00190791053284;0.999998179937;6.08875718058e-05;3.72314049859e-05;0.0;0.0;0.0;0.0;3.72314049859e-05;0.00100961677465;0.0;0.0;0.0;0.0;0.0;0.0;0.0;0.0;0.0;0.0;0.0;0.0;0.0;0.0;0.0;0.0;0.0;0.0;0.0;0.0;0.0;0.0;0.0;0.0;0.0;0.0;0.0;1.00148080798e-05
277640000000;84;277640000000;map;21.2350044336;-0.0735917315914;0.0;0.0;0.0;-0.00193843999571;0.999998121223;6.19487304334e-05;3.9988111062e-05;0.0;0.0;0.0;0.0;3.9988111062e-05;0.00100694308805;0.0;0.0;0.0;0.0;0.0;0.0;0.0;0.0;0.0;0.0;0.0;0.0;0.0;0.0;0.0;0.0;0.0;0.0;0.0;0.0;0.0;0.0;0.0;0.0;0.0;0.0;0.0;1.01629333874e-05
278165000000;85;278165000000;map;21.4974504261;-0.0761655749943;0.0;0.0;0.0;-0.00201467502756;0.99999797054;6.29934189078e-05;3.91942324942e-05;0.0;0.0;0.0;0.0;3.91942324942e-05;0.0010164284905;0.0;0.0;0.0;0.0;0.0;0.0;0.0;0.0;0.0;0.0;0.0;0.0;0.0;0.0;0.0;0.0;0.0;0.0;0.0;0.0;0.0;0.0;0.0;0.0;0.0;0.0;0.0;9.91444242093e-06
278667000000;86;278667000000;map;21.7484402127;-0.079005597859;0.0;0.0;0.0;-0.00207915652119;0.999997838552;5.56810309718e-05;3.6548305095e-05;0.0;0.0;0.0;0.0;3.6548305095e-05;0.000995822925806;0.0;0.0;0.0;0.0;0.0;0.0;0.0;0.0;0.0;0.0;0.0;0.0;0.0;0.0;0.0;0.0;0.0;0.0;0.0;0.0;0.0;0.0;0.0;0.0;0.0;0.0;0.0;9.83131964871e-06
279175000000;87;279175000000;map;22.0023602128;-0.0818666408109;0.0;0.0;0.0;-0.00216602196107;0.999997654172;5.10563901344e-05;3.62809860166e-05;0.0;0.0;0.0;0.0;3.62809860166e-05;0.000962920587573;0.0;0.0;0.0;0.0;0.0;0.0;0.0;0.0;0.0;0.0;0.0;0.0;0.0;0.0;0.0;0.0;0.0;0.0;0.0;0.0;0.0;0.0;0.0;0.0;0.0;0.0;0.0;9.19852521785e-06
279679000000;88;279679000000;map;22.2543904338;-0.0842793146005;0.0;0.0;0.0;-0.00220943113664;0.999997559204;5.05503412569e-05;3.38574168692e-05;0.0;0.0;0.0;0.0;3.3857416869e-05;0.000908624477998;0.0;0.0;0.0;0.0;0.0;0.0;0.0;0.0;0.0;0.0;0.0;0.0;0.0;0.0;0.0;0.0;0.0;0.0;0.0;0.0;0.0;0.0;0.0;0.0;0.0;0.0;0.0;8.6381374588e-06
280185000000;89;280185000000;map;22.5073530649;-0.0866877457666;0.0;0.0;0.0;-0.00225082355195;0.999997466893;4.59713693886e-05;3.08155150897e-05;0.0;0.0;0.0;0.0;3.08155150897e-05;0.000886869375998;0.0;0.0;0.0;0.0;0.0;0.0;0.0;0.0;0.0;0.0;0.0;0.0;0.0;0.0;0.0;0.0;0.0;0.0;0.0;0.0;0.0;0.0;0.0;0.0;0.0;0.0;0.0;8.48146466321e-06
280690000000;90;280690000000;map;22.7597832806;-0.0886444762118;0.0;0.0;0.0;-0.00229690994714;0.999997362099;4.95204775461e-05;3.33880188963e-05;0.0;0.0;0.0;0.0;3.33880188963e-05;0.000918193871776;0.0;0.0;0.0;0.0;0.0;0.0;0.0;0.0;0.0;0.0;0.0;0.0;0.0;0.0;0.0;0.0;0.0;0.0;0.0;0.0;0.0;0.0;0.0;0.0;0.0;0.0;0.0;8.74687790644e-06
281193000000;91;281193000000;map;23.0111404742;-0.0908274599713;0.0;0.0;0.0;-0.00232720517257;0.999997292054;5.32124962547e-05;3.24953899349e-05;0.0;0.0;0.0;0.0;3.24953899353e-05;0.000887149158093;0.0;0.0;0.0;0.0;0.0;0.0;0.0;0.0;0.0;0.0;0.0;0.0;0.0;0.0;0.0;0.0;0.0;0.0;0.0;0.0;0.0;0.0;0.0;0.0;0.0;0.0;0.0;8.64311844618e-06
281700000000;92;281700000000;map;23.2646915331;-0.0935972785502;0.0;0.0;0.0;-0.00239774287871;0.99999712541;5.91904696421e-05;3.61524805914e-05;0.0;0.0;0.0;0.0;3.61524805914e-05;0.000864570410706;0.0;0.0;0.0;0.0;0.0;0.0;0.0;0.0;0.0;0.0;0.0;0.0;0.0;0.0;0.0;0.0;0.0;0.0;0.0;0.0;0.0;0.0;0.0;0.0;0.0;0.0;0.0;8.60736272814e-06
282204000000;93;282204000000;map;23.5167682111;-0.0959140549864;0.0;0.0;0.0;-0.00246765712717;0.99999695533;6.35026079863e-05;4.07517487155e-05;0.0;0.0;0.0;0.0;4.07517487155e-05;0.00086760953242;0.0;0.0;0.0;0.0;0.0;0.0;0.0;0.0;0.0;0.0;0.0;0.0;0.0;0.0;0.0;0.0;0.0;0.0;0.0;0.0;0.0;0.0;0.0;0.0;0.0;0.0;0.0;8.46934674936e-06
282708000000;94;282708000000;map;23.7687379073;-0.0974006886137;0.0;0.0;0.0;-0.00246663557628;0.99999695785;5.83379493264e-05;3.68215194571e-05;0.0;0.0;0.0;0.0;3.68215194571e-05;0.000872184072106;0.0;0.0;0.0;0.0;0.0;0.0;0.0;0.0;0.0;0.0;0.0;0.0;0.0;0.0;0.0;0.0;0.0;0.0;0.0;0.0;0.0;0.0;0.0;0.0;0.0;0.0;0.0;8.52142337198e-06
283216000000;95;283216000000;map;24.0227513936;-0.0999569101667;0.0;0.0;0.0;-0.0025335231815;0.999996790625;5.90386736121e-05;3.57987814619e-05;0.0;0.0;0.0;0.0;3.57987814619e-05;0.000871311436397;0.0;0.0;0.0;0.0;0.0;0.0;0.0;0.0;0.0;0.0;0.0;0.0;0.0;0.0;0.0;0.0;0.0;0.0;0.0;0.0;0.0;0.0;0.0;0.0;0.0;0.0;0.0;8.47484421426e-06
283718000000;96;283718000000;map;24.2738014889;-0.101785133878;0.0;0.0;0.0;-0.00254635431482;0.999996758035;5.50159519435e-05;3.28813554593e-05;0.0;0.0;0.0;0.0;3.28813554593e-05;0.000873455365191;0.0;0.0;0.0;0.0;0.0;0.0;0.0;0.0;0.0;0.0;0.0;0.0;0.0;0.0;0.0;0.0;0.0;0.0;0.0;0.0;0.0;0.0;0.0;0.0;0.0;0.0;0.0;8.69777799777e-06
284238000000;97;284238000000;map;24.5337302519;-0.104149510997;0.0;0.0;0.0;-0.00257291743193;0.999996690042;5.15240360528e-05;2.88712488521e-05;0.0;0.0;0.0;0.0;2.88712488525e-05;0.000863108967817;0.0;0.0;0.0;0.0;0.0;0.0;0.0;0.0;0.0;0.0;0.0;0.0;0.0;0.0;0.0;0.0;0.0;0.0;0.0;0.0;0.0;0.0;0.0;0.0;0.0;0.0;0.0;8.88328055551e-06
284742000000;98;284742000000;map;24.7856357525;-0.10668925493;0.0;0.0;0.0;-0.00262136798057;0.999996564209;5.05949888066e-05;3.14400961914e-05;0.0;0.0;0.0;0.0;3.14400961914e-05;0.000858845685293;0.0;0.0;0.0;0.0;0.0;0.0;0.0;0.0;0.0;0.0;0.0;0.0;0.0;0.0;0.0;0.0;0.0;0.0;0.0;0.0;0.0;0.0;0.0;0.0;0.0;0.0;0.0;9.04252237256e-06
285261000000;99;285261000000;map;25.045135935;-0.108390661408;0.0;0.0;0.0;-0.00263737745448;0.999996522114;5.13875464776e-05;3.48495020921e-05;0.0;0.0;0.0;0.0;3.48495020921e-05;0.000883145400226;0.0;0.0;0.0;0.0;0.0;0.0;0.0;0.0;0.0;0.0;0.0;0.0;0.0;0.0;0.0;0.0;0.0;0.0;0.0;0.0;0.0;0.0;0.0;0.0;0.0;0.0;0.0;9.24871059334e-06
285770000000;100;285770000000;map;25.2996498009;-0.110483438111;0.0;0.0;0.0;-0.00266358832411;0.999996452642;5.29499055801e-05;3.73098892466e-05;0.0;0.0;0.0;0.0;3.73098892466e-05;0.000894193691429;0.0;0.0;0.0;0.0;0.0;0.0;0.0;0.0;0.0;0.0;0.0;0.0;0.0;0.0;0.0;0.0;0.0;0.0;0.0;0.0;0.0;0.0;0.0;0.0;0.0;0.0;0.0;9.34852612273e-06
286274000000;101;286274000000;map;25.5515411953;-0.112371573617;0.0;0.0;0.0;-0.00271179642965;0.999996323073;5.04213785462e-05;3.07421526324e-05;0.0;0.0;0.0;0.0;3.07421526324e-05;0.00089894930387;0.0;0.0;0.0;0.0;0.0;0.0;0.0;0.0;0.0;0.0;0.0;0.0;0.0;0.0;0.0;0.0;0.0;0.0;0.0;0.0;0.0;0.0;0.0;0.0;0.0;0.0;0.0;9.59277693428e-06
286779000000;102;286779000000;map;25.8040060516;-0.114370959581;0.0;0.0;0.0;-0.0027754348527;0.999996148473;5.65282415437e-05;3.19969909097e-05;0.0;0.0;0.0;0.0;3.19969909093e-05;0.00092164320343;0.0;0.0;0.0;0.0;0.0;0.0;0.0;0.0;0.0;0.0;0.0;0.0;0.0;0.0;0.0;0.0;0.0;0.0;0.0;0.0;0.0;0.0;0.0;0.0;0.0;0.0;0.0;9.60018089861e-06
287282000000;103;287282000000;map;26.0552381994;-0.116262771697;0.0;0.0;0.0;-0.0027893331461;0.999996109803;5.31150903953e-05;3.10792061557e-05;0.0;0.0;0.0;0.0;3.10792061553e-05;0.000916947807628;0.0;0.0;0.0;0.0;0.0;0.0;0.0;0.0;0.0;0.0;0.0;0.0;0.0;0.0;0.0;0.0;0.0;0.0;0.0;0.0;0.0;0.0;0.0;0.0;0.0;0.0;0.0;9.55317572005e-06
287785000000;104;287785000000;map;26.30668896;-0.117909926848;0.0;0.0;0.0;-0.00279193222001;0.99999610255;4.83008037691e-05;3.09266800724e-05;0.0;0.0;0.0;0.0;3.09266800724e-05;0.00093285242044;0.0;0.0;0.0;0.0;0.0;0.0;0.0;0.0;0.0;0.0;0.0;0.0;0.0;0.0;0.0;0.0;0.0;0.0;0.0;0.0;0.0;0.0;0.0;0.0;0.0;0.0;0.0;9.58735382541e-06
288287000000;105;288287000000;map;26.5576902046;-0.119597622645;0.0;0.0;0.0;-0.00280923623817;0.999996054088;4.47258842087e-05;2.61881051338e-05;0.0;0.0;0.0;0.0;2.61881051333e-05;0.000936618895116;0.0;0.0;0.0;0.0;0.0;0.0;0.0;0.0;0.0;0.0;0.0;0.0;0.0;0.0;0.0;0.0;0.0;0.0;0.0;0.0;0.0;0.0;0.0;0.0;0.0;0.0;0.0;9.77286293274e-06
288808000000;106;288808000000;map;26.8181418862;-0.121601295718;0.0;0.0;0.0;-0.00279328135715;0.999996098782;4.49502445008e-05;2.54790504912e-05;0.0;0.0;0.0;0.0;2.54790504912e-05;0.000926230399302;0.0;0.0;0.0;0.0;0.0;0.0;0.0;0.0;0.0;0.0;0.0;0.0;0.0;0.0;0.0;0.0;0.0;0.0;0.0;0.0;0.0;0.0;0.0;0.0;0.0;0.0;0.0;9.60356325037e-06
289327000000;107;289327000000;map;27.0776399108;-0.122975573182;0.0;0.0;0.0;-0.00278127918664;0.999996132236;4.47357558642e-05;2.94561407324e-05;0.0;0.0;0.0;0.0;2.94561407324e-05;0.000954388965617;0.0;0.0;0.0;0.0;0.0;0.0;0.0;0.0;0.0;0.0;0.0;0.0;0.0;0.0;0.0;0.0;0.0;0.0;0.0;0.0;0.0;0.0;0.0;0.0;0.0;0.0;0.0;9.80831321446e-06
289832000000;108;289832000000;map;27.3302169264;-0.125082071237;0.0;0.0;0.0;-0.00280983587028;0.999996052403;4.73980165907e-05;2.75768692535e-05;0.0;0.0;0.0;0.0;2.75768692535e-05;0.000942742053149;0.0;0.0;0.0;0.0;0.0;0.0;0.0;0.0;0.0;0.0;0.0;0.0;0.0;0.0;0.0;0.0;0.0;0.0;0.0;0.0;0.0;0.0;0.0;0.0;0.0;0.0;0.0;9.85077304807e-06
290333000000;109;290333000000;map;27.5807047208;-0.126971805443;0.0;0.0;0.0;-0.00280480349136;0.999996066531;4.58354753619e-05;2.7683718824e-05;0.0;0.0;0.0;0.0;2.7683718824e-05;0.000938120084762;0.0;0.0;0.0;0.0;0.0;0.0;0.0;0.0;0.0;0.0;0.0;0.0;0.0;0.0;0.0;0.0;0.0;0.0;0.0;0.0;0.0;0.0;0.0;0.0;0.0;0.0;0.0;9.65863568396e-06
290834000000;110;290834000000;map;27.8313064389;-0.128868631512;0.0;0.0;0.0;-0.00283350413868;0.999995985619;4.7662633051e-05;2.72691046153e-05;0.0;0.0;0.0;0.0;2.72691046153e-05;0.00093904082604;0.0;0.0;0.0;0.0;0.0;0.0;0.0;0.0;0.0;0.0;0.0;0.0;0.0;0.0;0.0;0.0;0.0;0.0;0.0;0.0;0.0;0.0;0.0;0.0;0.0;0.0;0.0;9.73985479981e-06
291351000000;111;291351000000;map;28.0896894798;-0.13093509555;0.0;0.0;0.0;-0.0028345438608;0.999995982672;4.47184794439e-05;2.69502106311e-05;0.0;0.0;0.0;0.0;2.69502106311e-05;0.000943316953325;0.0;0.0;0.0;0.0;0.0;0.0;0.0;0.0;0.0;0.0;0.0;0.0;0.0;0.0;0.0;0.0;0.0;0.0;0.0;0.0;0.0;0.0;0.0;0.0;0.0;0.0;0.0;9.82356007157e-06
291870000000;112;291870000000;map;28.3492337959;-0.132927949945;0.0;0.0;0.0;-0.00282249270332;0.99999601676;4.2525017534e-05;2.58412457033e-05;0.0;0.0;0.0;0.0;2.58412457033e-05;0.000972895032433;0.0;0.0;0.0;0.0;0.0;0.0;0.0;0.0;0.0;0.0;0.0;0.0;0.0;0.0;0.0;0.0;0.0;0.0;0.0;0.0;0.0;0.0;0.0;0.0;0.0;0.0;0.0;1.01199894384e-05
292376000000;113;292376000000;map;28.6021931169;-0.135025993011;0.0;0.0;0.0;-0.00284061753648;0.999995965438;4.16576492626e-05;2.83568765882e-05;0.0;0.0;0.0;0.0;2.83568765882e-05;0.000985962479863;0.0;0.0;0.0;0.0;0.0;0.0;0.0;0.0;0.0;0.0;0.0;0.0;0.0;0.0;0.0;0.0;0.0;0.0;0.0;0.0;0.0;0.0;0.0;0.0;0.0;0.0;0.0;1.02599402856e-05
292886000000;114;292886000000;map;28.8570750702;-0.13759922713;0.0;0.0;0.0;-0.00287702065281;0.999995861368;4.2664626335e-05;2.67820035611e-05;0.0;0.0;0.0;0.0;2.67820035611e-05;0.000968619684486;0.0;0.0;0.0;0.0;0.0;0.0;0.0;0.0;0.0;0.0;0.0;0.0;0.0;0.0;0.0;0.0;0.0;0.0;0.0;0.0;0.0;0.0;0.0;0.0;0.0;0.0;0.0;9.83038625498e-06
293398000000;115;293398000000;map;29.1131782815;-0.139562568154;0.0;0.0;0.0;-0.00287681811164;0.99999586195;4.47720375405e-05;2.63302787307e-05;0.0;0.0;0.0;0.0;2.63302787307e-05;0.000959411434744;0.0;0.0;0.0;0.0;0.0;0.0;0.0;0.0;0.0;0.0;0.0;0.0;0.0;0.0;0.0;0.0;0.0;0.0;0.0;0.0;0.0;0.0;0.0;0.0;0.0;0.0;0.0;9.77485515731e-06
293918000000;116;293918000000;map;29.3730081532;-0.142260081331;0.0;0.0;0.0;-0.0029040330711;0.999995783287;4.16763713247e-05;2.10064776462e-05;0.0;0.0;0.0;0.0;2.10064776462e-05;0.000940856649391;0.0;0.0;0.0;0.0;0.0;0.0;0.0;0.0;0.0;0.0;0.0;0.0;0.0;0.0;0.0;0.0;0.0;0.0;0.0;0.0;0.0;0.0;0.0;0.0;0.0;0.0;0.0;9.79394611538e-06
294420000000;117;294420000000;map;29.623923983;-0.145113130545;0.0;0.0;0.0;-0.00292694901838;0.999995716476;4.15484286123e-05;1.7217519158e-05;0.0;0.0;0.0;0.0;1.7217519158e-05;0.000966965898;0.0;0.0;0.0;0.0;0.0;0.0;0.0;0.0;0.0;0.0;0.0;0.0;0.0;0.0;0.0;0.0;0.0;0.0;0.0;0.0;0.0;0.0;0.0;0.0;0.0;0.0;0.0;9.79706378611e-06
294940000000;118;294940000000;map;29.8838428564;-0.148000648018;0.0;0.0;0.0;-0.00296431982241;0.999995606394;3.95935277311e-05;2.12789654812e-05;0.0;0.0;0.0;0.0;2.12789654812e-05;0.000987890173004;0.0;0.0;0.0;0.0;0.0;0.0;0.0;0.0;0.0;0.0;0.0;0.0;0.0;0.0;0.0;0.0;0.0;0.0;0.0;0.0;0.0;0.0;0.0;0.0;0.0;0.0;0.0;1.00386760421e-05
295441000000;119;295441000000;map;30.1341930485;-0.150169265656;0.0;0.0;0.0;-0.0030185731758;0.999995444098;4.06120337857e-05;2.00080964223e-05;0.0;0.0;0.0;0.0;2.00080964223e-05;0.00097414675133;0.0;0.0;0.0;0.0;0.0;0.0;0.0;0.0;0.0;0.0;0.0;0.0;0.0;0.0;0.0;0.0;0.0;0.0;0.0;0.0;0.0;0.0;0.0;0.0;0.0;0.0;0.0;9.82082431029e-06
295943000000;120;295943000000;map;30.3850655119;-0.152519250287;0.0;0.0;0.0;-0.00305758785261;0.999995325567;4.18512742044e-05;1.96927570819e-05;0.0;0.0;0.0;0.0;1.96927570819e-05;0.000979154992647;0.0;0.0;0.0;0.0;0.0;0.0;0.0;0.0;0.0;0.0;0.0;0.0;0.0;0.0;0.0;0.0;0.0;0.0;0.0;0.0;0.0;0.0;0.0;0.0;0.0;0.0;0.0;9.79772667866e-06
296452000000;121;296452000000;map;30.6395916837;-0.155106856307;0.0;0.0;0.0;-0.00310007102891;0.999995194768;3.80440474146e-05;2.12953253236e-05;0.0;0.0;0.0;0.0;2.12953253236e-05;0.000974408378113;0.0;0.0;0.0;0.0;0.0;0.0;0.0;0.0;0.0;0.0;0.0;0.0;0.0;0.0;0.0;0.0;0.0;0.0;0.0;0.0;0.0;0.0;0.0;0.0;0.0;0.0;0.0;9.53650348483e-06
296959000000;122;296959000000;map;30.8931543793;-0.158192456045;0.0;0.0;0.0;-0.00314492314644;0.999995054717;3.81439210742e-05;1.7359232765e-05;0.0;0.0;0.0;0.0;1.7359232765e-05;0.000992459333624;0.0;0.0;0.0;0.0;0.0;0.0;0.0;0.0;0.0;0.0;0.0;0.0;0.0;0.0;0.0;0.0;0.0;0.0;0.0;0.0;0.0;0.0;0.0;0.0;0.0;0.0;0.0;9.57514534332e-06
297461000000;123;297461000000;map;31.1440431337;-0.160240732393;0.0;0.0;0.0;-0.0031544989196;0.999995024556;3.8028692984e-05;1.71256542609e-05;0.0;0.0;0.0;0.0;1.71256542609e-05;0.000960153814357;0.0;0.0;0.0;0.0;0.0;0.0;0.0;0.0;0.0;0.0;0.0;0.0;0.0;0.0;0.0;0.0;0.0;0.0;0.0;0.0;0.0;0.0;0.0;0.0;0.0;0.0;0.0;9.10481575741e-06
297964000000;124;297964000000;map;31.3956030716;-0.162495462698;0.0;0.0;0.0;-0.00316183493021;0.999995001387;3.9686645664e-05;1.71042443711e-05;0.0;0.0;0.0;0.0;1.71042443711e-05;0.000955361623938;0.0;0.0;0.0;0.0;0.0;0.0;0.0;0.0;0.0;0.0;0.0;0.0;0.0;0.0;0.0;0.0;0.0;0.0;0.0;0.0;0.0;0.0;0.0;0.0;0.0;0.0;0.0;9.15333799596e-06
298474000000;125;298474000000;map;31.6505850384;-0.164160744636;0.0;0.0;0.0;-0.00317292447099;0.999994966262;3.95897027374e-05;1.94986485704e-05;0.0;0.0;0.0;0.0;1.94986485704e-05;0.000966461823049;0.0;0.0;0.0;0.0;0.0;0.0;0.0;0.0;0.0;0.0;0.0;0.0;0.0;0.0;0.0;0.0;0.0;0.0;0.0;0.0;0.0;0.0;0.0;0.0;0.0;0.0;0.0;9.153628109e-06
298980000000;126;298980000000;map;31.9035185273;-0.166542123623;0.0;0.0;0.0;-0.00323314176146;0.999994773384;3.93641962546e-05;2.12326937712e-05;0.0;0.0;0.0;0.0;2.12326937712e-05;0.000959046546464;0.0;0.0;0.0;0.0;0.0;0.0;0.0;0.0;0.0;0.0;0.0;0.0;0.0;0.0;0.0;0.0;0.0;0.0;0.0;0.0;0.0;0.0;0.0;0.0;0.0;0.0;0.0;9.21904548745e-06
299499000000;127;299499000000;map;32.1629785768;-0.169479715636;0.0;0.0;0.0;-0.00327161619517;0.999994648249;3.9804006974e-05;2.10958407223e-05;0.0;0.0;0.0;0.0;2.10958407223e-05;0.000959516232897;0.0;0.0;0.0;0.0;0.0;0.0;0.0;0.0;0.0;0.0;0.0;0.0;0.0;0.0;0.0;0.0;0.0;0.0;0.0;0.0;0.0;0.0;0.0;0.0;0.0;0.0;0.0;9.18657334627e-06
300000000000;128;300000000000;map;32.4134761011;-0.171434387939;0.0;0.0;0.0;-0.00329776165008;0.999994562369;3.92796569031e-05;2.36137852943e-05;0.0;0.0;0.0;0.0;2.36137852934e-05;0.000956043352071;0.0;0.0;0.0;0.0;0.0;0.0;0.0;0.0;0.0;0.0;0.0;0.0;0.0;0.0;0.0;0.0;0.0;0.0;0.0;0.0;0.0;0.0;0.0;0.0;0.0;0.0;0.0;9.30549195166e-06
300502000000;129;300502000000;map;32.6644929865;-0.173085114014;0.0;0.0;0.0;-0.00332128707187;0.999994484511;3.87782831694e-05;2.79140160293e-05;0.0;0.0;0.0;0.0;2.79140160293e-05;0.000982089450453;0.0;0.0;0.0;0.0;0.0;0.0;0.0;0.0;0.0;0.0;0.0;0.0;0.0;0.0;0.0;0.0;0.0;0.0;0.0;0.0;0.0;0.0;0.0;0.0;0.0;0.0;0.0;9.21883999066e-06
301006000000;130;301006000000;map;32.9164998825;-0.175221883324;0.0;0.0;0.0;-0.00331469577917;0.999994506381;3.90713098568e-05;2.86754270951e-05;0.0;0.0;0.0;0.0;2.86754270951e-05;0.000981541770299;0.0;0.0;0.0;0.0;0.0;0.0;0.0;0.0;0.0;0.0;0.0;0.0;0.0;0.0;0.0;0.0;0.0;0.0;0.0;0.0;0.0;0.0;0.0;0.0;0.0;0.0;0.0;9.06628089802e-06
301515000000;131;301515000000;map;33.1710205751;-0.177599542395;0.0;0.0;0.0;-0.00333534160373;0.999994437733;4.03772330628e-05;2.79519756612e-05;0.0;0.0;0.0;0.0;2.79519756612e-05;0.000999169281385;0.0;0.0;0.0;0.0;0.0;0.0;0.0;0.0;0.0;0.0;0.0;0.0;0.0;0.0;0.0;0.0;0.0;0.0;0.0;0.0;0.0;0.0;0.0;0.0;0.0;0.0;0.0;9.15200144785e-06
302018000000;132;302018000000;map;33.422729826;-0.178835684255;0.0;0.0;0.0;-0.00332437108189;0.999994474263;4.03304252359e-05;2.55247804004e-05;0.0;0.0;0.0;0.0;2.55247804004e-05;0.000973496109344;0.0;0.0;0.0;0.0;0.0;0.0;0.0;0.0;0.0;0.0;0.0;0.0;0.0;0.0;0.0;0.0;0.0;0.0;0.0;0.0;0.0;0.0;0.0;0.0;0.0;0.0;0.0;9.05007560679e-06
302529000000;133;302529000000;map;33.6781095883;-0.180872464122;0.0;0.0;0.0;-0.00333992091057;0.999994422449;4.03396911679e-05;2.70348596789e-05;0.0;0.0;0.0;0.0;2.70348596789e-05;0.000948124452564;0.0;0.0;0.0;0.0;0.0;0.0;0.0;0.0;0.0;0.0;0.0;0.0;0.0;0.0;0.0;0.0;0.0;0.0;0.0;0.0;0.0;0.0;0.0;0.0;0.0;0.0;0.0;8.77098020912e-06
303031000000;134;303031000000;map;33.9290820578;-0.182136096294;0.0;0.0;0.0;-0.0033481976684;0.99999439477;3.9293622649e-05;2.5272125276e-05;0.0;0.0;0.0;0.0;2.5272125276e-05;0.000933877792017;0.0;0.0;0.0;0.0;0.0;0.0;0.0;0.0;0.0;0.0;0.0;0.0;0.0;0.0;0.0;0.0;0.0;0.0;0.0;0.0;0.0;0.0;0.0;0.0;0.0;0.0;0.0;8.64393097685e-06
303533000000;135;303533000000;map;34.1800995139;-0.184117105511;0.0;0.0;0.0;-0.00334729190245;0.999994397803;3.88208254662e-05;2.48724441514e-05;0.0;0.0;0.0;0.0;2.48724441514e-05;0.000932323140649;0.0;0.0;0.0;0.0;0.0;0.0;0.0;0.0;0.0;0.0;0.0;0.0;0.0;0.0;0.0;0.0;0.0;0.0;0.0;0.0;0.0;0.0;0.0;0.0;0.0;0.0;0.0;8.63144839304e-06
304033000000;136;304033000000;map;34.4301666345;-0.185890793111;0.0;0.0;0.0;-0.00334177654409;0.999994416249;3.87056386444e-05;2.39084487967e-05;0.0;0.0;0.0;0.0;2.39084487967e-05;0.000931286699266;0.0;0.0;0.0;0.0;0.0;0.0;0.0;0.0;0.0;0.0;0.0;0.0;0.0;0.0;0.0;0.0;0.0;0.0;0.0;0.0;0.0;0.0;0.0;0.0;0.0;0.0;0.0;8.59913214826e-06
304537000000;137;304537000000;map;34.6821444948;-0.18801247136;0.0;0.0;0.0;-0.00337515402567;0.999994304151;3.9759813717e-05;2.51251936323e-05;0.0;0.0;0.0;0.0;2.51251936323e-05;0.000947545462583;0.0;0.0;0.0;0.0;0.0;0.0;0.0;0.0;0.0;0.0;0.0;0.0;0.0;0.0;0.0;0.0;0.0;0.0;0.0;0.0;0.0;0.0;0.0;0.0;0.0;0.0;0.0;8.53025510012e-06
305043000000;138;305043000000;map;34.9350753382;-0.190024801445;0.0;0.0;0.0;-0.00339263885376;0.999994244984;4.00699227612e-05;2.55712626291e-05;0.0;0.0;0.0;0.0;2.55712626309e-05;0.000933693205204;0.0;0.0;0.0;0.0;0.0;0.0;0.0;0.0;0.0;0.0;0.0;0.0;0.0;0.0;0.0;0.0;0.0;0.0;0.0;0.0;0.0;0.0;0.0;0.0;0.0;0.0;0.0;8.54425200333e-06
305545000000;139;305545000000;map;35.1861554916;-0.191907932936;0.0;0.0;0.0;-0.00338927637168;0.999994256386;3.98088589009e-05;2.69826229475e-05;0.0;0.0;0.0;0.0;2.69826229475e-05;0.000956499915324;0.0;0.0;0.0;0.0;0.0;0.0;0.0;0.0;0.0;0.0;0.0;0.0;0.0;0.0;0.0;0.0;0.0;0.0;0.0;0.0;0.0;0.0;0.0;0.0;0.0;0.0;0.0;8.71142661413e-06
306048000000;140;306048000000;map;35.4377584126;-0.193765438767;0.0;0.0;0.0;-0.00341810243968;0.999994158271;4.03522899433e-05;2.52542328667e-05;0.0;0.0;0.0;0.0;2.52542328667e-05;0.00093437180519;0.0;0.0;0.0;0.0;0.0;0.0;0.0;0.0;0.0;0.0;0.0;0.0;0.0;0.0;0.0;0.0;0.0;0.0;0.0;0.0;0.0;0.0;0.0;0.0;0.0;0.0;0.0;8.83047152188e-06
306549000000;141;306549000000;map;35.6881804023;-0.196179344181;0.0;0.0;0.0;-0.00343551630686;0.999994098596;4.10787065448e-05;2.34511752284e-05;0.0;0.0;0.0;0.0;2.34511752284e-05;0.000949529861626;0.0;0.0;0.0;0.0;0.0;0.0;0.0;0.0;0.0;0.0;0.0;0.0;0.0;0.0;0.0;0.0;0.0;0.0;0.0;0.0;0.0;0.0;0.0;0.0;0.0;0.0;0.0;9.01933077556e-06
307055000000;142;307055000000;map;35.941182632;-0.1978794407;0.0;0.0;0.0;-0.00343906862251;0.999994086386;4.23045180469e-05;2.08248733564e-05;0.0;0.0;0.0;0.0;2.08248733564e-05;0.000967024466737;0.0;0.0;0.0;0.0;0.0;0.0;0.0;0.0;0.0;0.0;0.0;0.0;0.0;0.0;0.0;0.0;0.0;0.0;0.0;0.0;0.0;0.0;0.0;0.0;0.0;0.0;0.0;8.99640315796e-06
307556000000;143;307556000000;map;36.1917802634;-0.199925650483;0.0;0.0;0.0;-0.00344570895041;0.999994063527;4.32489155173e-05;1.7762626344e-05;0.0;0.0;0.0;0.0;1.7762626344e-05;0.00099694917238;0.0;0.0;0.0;0.0;0.0;0.0;0.0;0.0;0.0;0.0;0.0;0.0;0.0;0.0;0.0;0.0;0.0;0.0;0.0;0.0;0.0;0.0;0.0;0.0;0.0;0.0;0.0;9.24292119981e-06
308056000000;144;308056000000;map;36.4419090199;-0.202352930852;0.0;0.0;0.0;-0.00348759994617;0.999993918305;4.25180940056e-05;1.89213453989e-05;0.0;0.0;0.0;0.0;1.89213453989e-05;0.00100734451411;0.0;0.0;0.0;0.0;0.0;0.0;0.0;0.0;0.0;0.0;0.0;0.0;0.0;0.0;0.0;0.0;0.0;0.0;0.0;0.0;0.0;0.0;0.0;0.0;0.0;0.0;0.0;9.38140784239e-06
308564000000;145;308564000000;map;36.6959319295;-0.204129020342;0.0;0.0;0.0;-0.00347887305475;0.999993948703;4.27724862675e-05;2.12878418733e-05;0.0;0.0;0.0;0.0;2.12878418733e-05;0.00102445339251;0.0;0.0;0.0;0.0;0.0;0.0;0.0;0.0;0.0;0.0;0.0;0.0;0.0;0.0;0.0;0.0;0.0;0.0;0.0;0.0;0.0;0.0;0.0;0.0;0.0;0.0;0.0;9.48296206674e-06
309073000000;146;309073000000;map;36.9505004189;-0.206026787478;0.0;0.0;0.0;-0.00349721191778;0.999993884736;4.29395081483e-05;1.9317828488e-05;0.0;0.0;0.0;0.0;1.9317828488e-05;0.00104263955453;0.0;0.0;0.0;0.0;0.0;0.0;0.0;0.0;0.0;0.0;0.0;0.0;0.0;0.0;0.0;0.0;0.0;0.0;0.0;0.0;0.0;0.0;0.0;0.0;0.0;0.0;0.0;9.57348427585e-06
310040000000;147;310040000000;map;37.0021317956;-0.207230459352;0.0;0.0;0.0;0.0970413395665;0.995280351667;4.32512736097e-05;1.67836773253e-05;0.0;0.0;0.0;0.0;1.67836773253e-05;0.00101565441164;0.0;0.0;0.0;0.0;0.0;0.0;0.0;0.0;0.0;0.0;0.0;0.0;0.0;0.0;0.0;0.0;0.0;0.0;0.0;0.0;0.0;0.0;0.0;0.0;0.0;0.0;0.0;9.44962470995e-06
310925000000;148;310925000000;map;37.0022346494;-0.208425955734;0.0;0.0;0.0;0.198254286436;0.980150620012;4.24809175001e-05;2.33875531777e-05;0.0;0.0;0.0;0.0;2.33875531777e-05;0.000956897640117;0.0;0.0;0.0;0.0;0.0;0.0;0.0;0.0;0.0;0.0;0.0;0.0;0.0;0.0;0.0;0.0;0.0;0.0;0.0;0.0;0.0;0.0;0.0;0.0;0.0;0.0;0.0;9.19389550704e-06
311829000000;149;311829000000;map;37.0023974325;-0.20984276012;0.0;0.0;0.0;0.296685128357;0.954975358118;4.2513303697e-05;2.28002512701e-05;0.0;0.0;0.0;0.0;2.28002512701e-05;0.000905475262082;0.0;0.0;0.0;0.0;0.0;0.0;0.0;0.0;0.0;0.0;0.0;0.0;0.0;0.0;0.0;0.0;0.0;0.0;0.0;0.0;0.0;0.0;0.0;0.0;0.0;0.0;0.0;8.91465685857e-06
312721000000;150;312721000000;map;37.0025652252;-0.210145699772;0.0;0.0;0.0;0.390639084677;0.920543918302;4.27230909281e-05;2.38703746556e-05;0.0;0.0;0.0;0.0;2.38703746547e-05;0.00087849884916;0.0;0.0;0.0;0.0;0.0;0.0;0.0;0.0;0.0;0.0;0.0;0.0;0.0;0.0;0.0;0.0;0.0;0.0;0.0;0.0;0.0;0.0;0.0;0.0;0.0;0.0;0.0;8.70421998854e-06
313619000000;151;313619000000;map;37.0027059168;-0.210275053084;0.0;0.0;0.0;0.481823514568;0.876268281298;4.42207667675e-05;2.16349323905e-05;0.0;0.0;0.0;0.0;2.16349323905e-05;0.000870727825862;0.0;0.0;0.0;0.0;0.0;0.0;0.0;0.0;0.0;0.0;0.0;0.0;0.0;0.0;0.0;0.0;0.0;0.0;0.0;0.0;0.0;0.0;0.0;0.0;0.0;0.0;0.0;8.98445868171e-06
314483000000;152;314483000000;map;37.0028015727;-0.210270246944;0.0;0.0;0.0;0.568486928079;0.822692295213;4.57493417798e-05;2.04840344793e-05;0.0;0.0;0.0;0.0;2.04840344793e-05;0.000838400875044;0.0;0.0;0.0;0.0;0.0;0.0;0.0;0.0;0.0;0.0;0.0;0.0;0.0;0.0;0.0;0.0;0.0;0.0;0.0;0.0;0.0;0.0;0.0;0.0;0.0;0.0;0.0;8.48219996526e-06
315346000000;153;315346000000;map;37.0028847666;-0.209780247527;0.0;0.0;0.0;0.649210785178;0.760608543476;4.65513562631e-05;1.83902641808e-05;0.0;0.0;0.0;0.0;1.83902641808e-05;0.0008061698667;0.0;0.0;0.0;0.0;0.0;0.0;0.0;0.0;0.0;0.0;0.0;0.0;0.0;0.0;0.0;0.0;0.0;0.0;0.0;0.0;0.0;0.0;0.0;0.0;0.0;0.0;0.0;8.33486321163e-06
316210000000;154;316210000000;map;37.0030799749;-0.20887382392;0.0;0.0;0.0;0.723345743364;0.69048601402;4.75647791518e-05;1.4250759186e-05;0.0;0.0;0.0;0.0;1.42507591852e-05;0.000796877773804;0.0;0.0;0.0;0.0;0.0;0.0;0.0;0.0;0.0;0.0;0.0;0.0;0.0;0.0;0.0;0.0;0.0;0.0;0.0;0.0;0.0;0.0;0.0;0.0;0.0;0.0;0.0;8.18185857616e-06
317157000000;155;317157000000;map;36.9852585845;0.0517544699748;0.0;0.0;0.0;0.731501426578;0.681839910034;4.75007357181e-05;-1.26750083762e-08;0.0;0.0;0.0;0.0;-1.26750083762e-08;0.000784677323772;0.0;0.0;0.0;0.0;0.0;0.0;0.0;0.0;0.0;0.0;0.0;0.0;0.0;0.0;0.0;0.0;0.0;0.0;0.0;0.0;0.0;0.0;0.0;0.0;0.0;0.0;0.0;8.44427412351e-06
317666000000;156;317666000000;map;36.9672532257;0.306461887165;0.0;0.0;0.0;0.731511685786;0.681828903435;4.90694910695e-05;-1.20531483923e-05;0.0;0.0;0.0;0.0;-1.20531483923e-05;0.000792037227443;0.0;0.0;0.0;0.0;0.0;0.0;0.0;0.0;0.0;0.0;0.0;0.0;0.0;0.0;0.0;0.0;0.0;0.0;0.0;0.0;0.0;0.0;0.0;0.0;0.0;0.0;0.0;8.58930530955e-06
318168000000;157;318168000000;map;36.9496992168;0.556274043293;0.0;0.0;0.0;0.731485175484;0.681857344352;5.02302093537e-05;-2.25038098343e-05;0.0;0.0;0.0;0.0;-2.25038098343e-05;0.000750364610802;0.0;0.0;0.0;0.0;0.0;0.0;0.0;0.0;0.0;0.0;0.0;0.0;0.0;0.0;0.0;0.0;0.0;0.0;0.0;0.0;0.0;0.0;0.0;0.0;0.0;0.0;0.0;8.29536012469e-06
318674000000;158;318674000000;map;36.9320781364;0.809282219428;0.0;0.0;0.0;0.731480563529;0.681862291947;5.35391409358e-05;-3.67260170258e-05;0.0;0.0;0.0;0.0;-3.67260170258e-05;0.000754429268152;0.0;0.0;0.0;0.0;0.0;0.0;0.0;0.0;0.0;0.0;0.0;0.0;0.0;0.0;0.0;0.0;0.0;0.0;0.0;0.0;0.0;0.0;0.0;0.0;0.0;0.0;0.0;8.55455143892e-06
319177000000;159;319177000000;map;36.9144223469;1.06055156281;0.0;0.0;0.0;0.731483092117;0.681859579347;5.6806971088e-05;-4.69601075537e-05;0.0;0.0;0.0;0.0;-4.69601075537e-05;0.000756606707127;0.0;0.0;0.0;0.0;0.0;0.0;0.0;0.0;0.0;0.0;0.0;0.0;0.0;0.0;0.0;0.0;0.0;0.0;0.0;0.0;0.0;0.0;0.0;0.0;0.0;0.0;0.0;8.79208624212e-06
319680000000;160;319680000000;map;36.8967471309;1.31210416278;0.0;0.0;0.0;0.73148234495;0.681860380889;6.21282022166e-05;-6.1981163249e-05;0.0;0.0;0.0;0.0;-6.19811632561e-05;0.000776496009403;0.0;0.0;0.0;0.0;0.0;0.0;0.0;0.0;0.0;0.0;0.0;0.0;0.0;0.0;0.0;0.0;0.0;0.0;0.0;0.0;0.0;0.0;0.0;0.0;0.0;0.0;0.0;9.1702279606e-06
320184000000;161;320184000000;map;36.8792208478;1.56437477583;0.0;0.0;0.0;0.73147429847;0.681869012845;6.83921250584e-05;-7.06558593038e-05;0.0;0.0;0.0;0.0;-7.06558593038e-05;0.000754466283396;0.0;0.0;0.0;0.0;0.0;0.0;0.0;0.0;0.0;0.0;0.0;0.0;0.0;0.0;0.0;0.0;0.0;0.0;0.0;0.0;0.0;0.0;0.0;0.0;0.0;0.0;0.0;9.33052217226e-06
320687000000;162;320687000000;map;36.861769669;1.81543770192;0.0;0.0;0.0;0.731455361348;0.681889327058;7.66228890825e-05;-8.01544448166e-05;0.0;0.0;0.0;0.0;-8.01544448166e-05;0.000741119456477;0.0;0.0;0.0;0.0;0.0;0.0;0.0;0.0;0.0;0.0;0.0;0.0;0.0;0.0;0.0;0.0;0.0;0.0;0.0;0.0;0.0;0.0;0.0;0.0;0.0;0.0;0.0;9.50800742198e-06
322655000000;163;322655000000;map;36.8558213392;2.06716412095;0.0;0.0;0.0;0.699314653201;0.714813972876;8.39467354581e-05;-8.37385049834e-05;0.0;0.0;0.0;0.0;-8.37385049834e-05;0.000703800593705;0.0;0.0;0.0;0.0;0.0;0.0;0.0;0.0;0.0;0.0;0.0;0.0;0.0;0.0;0.0;0.0;0.0;0.0;0.0;0.0;0.0;0.0;0.0;0.0;0.0;0.0;0.0;9.74185727909e-06
323163000000;164;323163000000;map;36.8614741936;2.32129568753;0.0;0.0;0.0;0.699337795184;0.714791331947;9.35164860039e-05;-9.92550292267e-05;0.0;0.0;0.0;0.0;-9.92550292125e-05;0.000687616012724;0.0;0.0;0.0;0.0;0.0;0.0;0.0;0.0;0.0;0.0;0.0;0.0;0.0;0.0;0.0;0.0;0.0;0.0;0.0;0.0;0.0;0.0;0.0;0.0;0.0;0.0;0.0;1.00285668241e-05
323682000000;165;323682000000;map;36.8672595223;2.58083487312;0.0;0.0;0.0;0.699318464785;0.714810243918;0.000104177312323;-0.000106104447482;0.0;0.0;0.0;0.0;-0.000106104447497;0.000668048549283;0.0;0.0;0.0;0.0;0.0;0.0;0.0;0.0;0.0;0.0;0.0;0.0;0.0;0.0;0.0;0.0;0.0;0.0;0.0;0.0;0.0;0.0;0.0;0.0;0.0;0.0;0.0;1.01900426532e-05
324185000000;166;324185000000;map;36.8726809428;2.83279554815;0.0;0.0;0.0;0.699313099291;0.714815493089;0.000115887722131;-0.000113683150929;0.0;0.0;0.0;0.0;-0.000113683150943;0.000658915957885;0.0;0.0;0.0;0.0;0.0;0.0;0.0;0.0;0.0;0.0;0.0;0.0;0.0;0.0;0.0;0.0;0.0;0.0;0.0;0.0;0.0;0.0;0.0;0.0;0.0;0.0;0.0;1.02895764109e-05
324687000000;167;324687000000;map;36.8784344153;3.08423339882;0.0;0.0;0.0;0.699298838995;0.71482944384;0.000127999898268;-0.000121446425865;0.0;0.0;0.0;0.0;-0.000121446425865;0.000645336445743;0.0;0.0;0.0;0.0;0.0;0.0;0.0;0.0;0.0;0.0;0.0;0.0;0.0;0.0;0.0;0.0;0.0;0.0;0.0;0.0;0.0;0.0;0.0;0.0;0.0;0.0;0.0;1.05929454518e-05
325208000000;168;325208000000;map;36.8843584406;3.34469037052;0.0;0.0;0.0;0.699265353547;0.714862200237;0.000145761443491;-0.000130618336755;0.0;0.0;0.0;0.0;-0.000130618336755;0.000625441143221;0.0;0.0;0.0;0.0;0.0;0.0;0.0;0.0;0.0;0.0;0.0;0.0;0.0;0.0;0.0;0.0;0.0;0.0;0.0;0.0;0.0;0.0;0.0;0.0;0.0;0.0;0.0;1.08864262296e-05
325727000000;169;325727000000;map;36.890075559;3.60486302913;0.0;0.0;0.0;0.699268054982;0.714859557732;0.000164022384524;-0.000141986465223;0.0;0.0;0.0;0.0;-0.000141986465223;0.000617327131778;0.0;0.0;0.0;0.0;0.0;0.0;0.0;0.0;0.0;0.0;0.0;0.0;0.0;0.0;0.0;0.0;0.0;0.0;0.0;0.0;0.0;0.0;0.0;0.0;0.0;0.0;0.0;1.10496910351e-05
326229000000;170;326229000000;map;36.8955842168;3.85633355748;0.0;0.0;0.0;0.699267025744;0.714860564521;0.000181587643965;-0.000151471901006;0.0;0.0;0.0;0.0;-0.000151471901006;0.000609428137654;0.0;0.0;0.0;0.0;0.0;0.0;0.0;0.0;0.0;0.0;0.0;0.0;0.0;0.0;0.0;0.0;0.0;0.0;0.0;0.0;0.0;0.0;0.0;0.0;0.0;0.0;0.0;1.1252164599e-05
326738000000;171;326738000000;map;36.901204693;4.11135949076;0.0;0.0;0.0;0.699260172265;0.714867268438;0.000196502220888;-0.000156202873598;0.0;0.0;0.0;0.0;-0.000156202873598;0.000599287612985;0.0;0.0;0.0;0.0;0.0;0.0;0.0;0.0;0.0;0.0;0.0;0.0;0.0;0.0;0.0;0.0;0.0;0.0;0.0;0.0;0.0;0.0;0.0;0.0;0.0;0.0;0.0;1.10935318887e-05
327258000000;172;327258000000;map;36.9071109863;4.37156795449;0.0;0.0;0.0;0.699238250457;0.714888710988;0.00021605511597;-0.000166747719703;0.0;0.0;0.0;0.0;-0.000166747719675;0.000590599117103;0.0;0.0;0.0;0.0;0.0;0.0;0.0;0.0;0.0;0.0;0.0;0.0;0.0;0.0;0.0;0.0;0.0;0.0;0.0;0.0;0.0;0.0;0.0;0.0;0.0;0.0;0.0;1.1381979529e-05
327763000000;173;327763000000;map;36.912887548;4.62375353126;0.0;0.0;0.0;0.699212479965;0.714913916399;0.000226792454214;-0.000166165622659;0.0;0.0;0.0;0.0;-0.000166165622659;0.000570235809455;0.0;0.0;0.0;0.0;0.0;0.0;0.0;0.0;0.0;0.0;0.0;0.0;0.0;0.0;0.0;0.0;0.0;0.0;0.0;0.0;0.0;0.0;0.0;0.0;0.0;0.0;0.0;1.10296211698e-05
328282000000;174;328282000000;map;36.9190249184;4.88320625204;0.0;0.0;0.0;0.699192440917;0.714933514786;0.00024931395069;-0.000170641123361;0.0;0.0;0.0;0.0;-0.000170641123361;0.000546803612433;0.0;0.0;0.0;0.0;0.0;0.0;0.0;0.0;0.0;0.0;0.0;0.0;0.0;0.0;0.0;0.0;0.0;0.0;0.0;0.0;0.0;0.0;0.0;0.0;0.0;0.0;0.0;1.13640381627e-05
328787000000;175;328787000000;map;36.924825435;5.13576866027;0.0;0.0;0.0;0.699182383159;0.714943350958;0.000273187183666;-0.000180117173898;0.0;0.0;0.0;0.0;-0.000180117173898;0.000556880448244;0.0;0.0;0.0;0.0;0.0;0.0;0.0;0.0;0.0;0.0;0.0;0.0;0.0;0.0;0.0;0.0;0.0;0.0;0.0;0.0;0.0;0.0;0.0;0.0;0.0;0.0;0.0;1.15212225833e-05
329288000000;176;329288000000;map;36.9305453505;5.3868121933;0.0;0.0;0.0;0.699173122543;0.714952407307;0.000290068379172;-0.000183904262968;0.0;0.0;0.0;0.0;-0.000183904262968;0.000560652846048;0.0;0.0;0.0;0.0;0.0;0.0;0.0;0.0;0.0;0.0;0.0;0.0;0.0;0.0;0.0;0.0;0.0;0.0;0.0;0.0;0.0;0.0;0.0;0.0;0.0;0.0;0.0;1.15208702598e-05
329789000000;177;329789000000;map;36.9365405436;5.63714256067;0.0;0.0;0.0;0.699136415354;0.71498830251;0.000299754303796;-0.00018294989178;0.0;0.0;0.0;0.0;-0.00018294989178;0.000540213453874;0.0;0.0;0.0;0.0;0.0;0.0;0.0;0.0;0.0;0.0;0.0;0.0;0.0;0.0;0.0;0.0;0.0;0.0;0.0;0.0;0.0;0.0;0.0;0.0;0.0;0.0;0.0;1.14080743556e-05
330294000000;178;330294000000;map;36.942373618;5.88988713898;0.0;0.0;0.0;0.699125696091;0.71499878396;0.000318140843319;-0.00019017809629;0.0;0.0;0.0;0.0;-0.00019017809629;0.00051805584696;0.0;0.0;0.0;0.0;0.0;0.0;0.0;0.0;0.0;0.0;0.0;0.0;0.0;0.0;0.0;0.0;0.0;0.0;0.0;0.0;0.0;0.0;0.0;0.0;0.0;0.0;0.0;1.15491162797e-05
330815000000;179;330815000000;map;36.9486356525;6.15023553111;0.0;0.0;0.0;0.699113765414;0.71501044958;0.000330819971168;-0.000177724157993;0.0;0.0;0.0;0.0;-0.00017772415805;0.00049878263389;0.0;0.0;0.0;0.0;0.0;0.0;0.0;0.0;0.0;0.0;0.0;0.0;0.0;0.0;0.0;0.0;0.0;0.0;0.0;0.0;0.0;0.0;0.0;0.0;0.0;0.0;0.0;1.13668114834e-05
331319000000;180;331319000000;map;36.9549357283;6.40210026073;0.0;0.0;0.0;0.699066118986;0.715057033589;0.000353702578423;-0.000188825133733;0.0;0.0;0.0;0.0;-0.000188825133733;0.000493407753559;0.0;0.0;0.0;0.0;0.0;0.0;0.0;0.0;0.0;0.0;0.0;0.0;0.0;0.0;0.0;0.0;0.0;0.0;0.0;0.0;0.0;0.0;0.0;0.0;0.0;0.0;0.0;1.14850432668e-05
331838000000;181;331838000000;map;36.9609862695;6.66161639466;0.0;0.0;0.0;0.699045207198;0.715077477126;0.000371598300717;-0.000191201983085;0.0;0.0;0.0;0.0;-0.000191201983085;0.000491105249012;0.0;0.0;0.0;0.0;0.0;0.0;0.0;0.0;0.0;0.0;0.0;0.0;0.0;0.0;0.0;0.0;0.0;0.0;0.0;0.0;0.0;0.0;0.0;0.0;0.0;0.0;0.0;1.13160028704e-05
332339000000;182;332339000000;map;36.9677509997;6.91114049393;0.0;0.0;0.0;0.698986718046;0.715134650255;0.000388766219658;-0.000188744229007;0.0;0.0;0.0;0.0;-0.000188744229007;0.000472354206401;0.0;0.0;0.0;0.0;0.0;0.0;0.0;0.0;0.0;0.0;0.0;0.0;0.0;0.0;0.0;0.0;0.0;0.0;0.0;0.0;0.0;0.0;0.0;0.0;0.0;0.0;0.0;1.12790125098e-05
332841000000;183;332841000000;map;36.9745452923;7.16168273777;0.0;0.0;0.0;0.698926810073;0.715193200584;0.000413017449318;-0.000194359022885;0.0;0.0;0.0;0.0;-0.000194359022885;0.000458974423104;0.0;0.0;0.0;0.0;0.0;0.0;0.0;0.0;0.0;0.0;0.0;0.0;0.0;0.0;0.0;0.0;0.0;0.0;0.0;0.0;0.0;0.0;0.0;0.0;0.0;0.0;0.0;1.14919942093e-05
333350000000;184;333350000000;map;36.9813103474;7.41585406968;0.0;0.0;0.0;0.698870625592;0.715248102888;0.000433611424114;-0.000191668531841;0.0;0.0;0.0;0.0;-0.000191668531841;0.000447345946291;0.0;0.0;0.0;0.0;0.0;0.0;0.0;0.0;0.0;0.0;0.0;0.0;0.0;0.0;0.0;0.0;0.0;0.0;0.0;0.0;0.0;0.0;0.0;0.0;0.0;0.0;0.0;1.15445939415e-05
333851000000;185;333851000000;map;36.9882727651;7.66573598123;0.0;0.0;0.0;0.698802922416;0.71531424956;0.000445422041366;-0.000187346418215;0.0;0.0;0.0;0.0;-0.000187346418215;0.000431752382212;0.0;0.0;0.0;0.0;0.0;0.0;0.0;0.0;0.0;0.0;0.0;0.0;0.0;0.0;0.0;0.0;0.0;0.0;0.0;0.0;0.0;0.0;0.0;0.0;0.0;0.0;0.0;1.11857317897e-05
334352000000;186;334352000000;map;36.9950741233;7.916130076;0.0;0.0;0.0;0.698756209573;0.715359881167;0.000477719344644;-0.000196701103505;0.0;0.0;0.0;0.0;-0.000196701103505;0.000431525385785;0.0;0.0;0.0;0.0;0.0;0.0;0.0;0.0;0.0;0.0;0.0;0.0;0.0;0.0;0.0;0.0;0.0;0.0;0.0;0.0;0.0;0.0;0.0;0.0;0.0;0.0;0.0;1.12762711177e-05
334857000000;187;334857000000;map;37.0022508465;8.1685168765;0.0;0.0;0.0;0.698690020179;0.715424528306;0.000509101755142;-0.000196350213116;0.0;0.0;0.0;0.0;-0.000196350213116;0.000428554311725;0.0;0.0;0.0;0.0;0.0;0.0;0.0;0.0;0.0;0.0;0.0;0.0;0.0;0.0;0.0;0.0;0.0;0.0;0.0;0.0;0.0;0.0;0.0;0.0;0.0;0.0;0.0;1.12237536299e-05
335361000000;188;335361000000;map;37.0084502166;8.42069856927;0.0;0.0;0.0;0.698679792676;0.715434516435;0.000539911747637;-0.000192975695882;0.0;0.0;0.0;0.0;-0.000192975695882;0.000416190565687;0.0;0.0;0.0;0.0;0.0;0.0;0.0;0.0;0.0;0.0;0.0;0.0;0.0;0.0;0.0;0.0;0.0;0.0;0.0;0.0;0.0;0.0;0.0;0.0;0.0;0.0;0.0;1.1376018741e-05
335864000000;189;335864000000;map;37.0152040891;8.67221861702;0.0;0.0;0.0;0.698631705871;0.71548147394;0.000552771271714;-0.000186239887967;0.0;0.0;0.0;0.0;-0.000186239887967;0.000406533418968;0.0;0.0;0.0;0.0;0.0;0.0;0.0;0.0;0.0;0.0;0.0;0.0;0.0;0.0;0.0;0.0;0.0;0.0;0.0;0.0;0.0;0.0;0.0;0.0;0.0;0.0;0.0;1.12060249277e-05
336367000000;190;336367000000;map;37.0210593074;8.92370821862;0.0;0.0;0.0;0.698637055792;0.715476249973;0.000598023222437;-0.000191311382537;0.0;0.0;0.0;0.0;-0.000191311382537;0.000398364142939;0.0;0.0;0.0;0.0;0.0;0.0;0.0;0.0;0.0;0.0;0.0;0.0;0.0;0.0;0.0;0.0;0.0;0.0;0.0;0.0;0.0;0.0;0.0;0.0;0.0;0.0;0.0;1.16644736908e-05
336871000000;191;336871000000;map;37.0280414598;9.17542147332;0.0;0.0;0.0;0.69859152931;0.71552070213;0.00061230598908;-0.000191434144995;0.0;0.0;0.0;0.0;-0.000191434144881;0.000385678394238;0.0;0.0;0.0;0.0;0.0;0.0;0.0;0.0;0.0;0.0;0.0;0.0;0.0;0.0;0.0;0.0;0.0;0.0;0.0;0.0;0.0;0.0;0.0;0.0;0.0;0.0;0.0;1.1396128828e-05
