%time;field.header.seq;field.header.stamp;field.header.frame_id;field.pose.pose.position.x;field.pose.pose.position.y;field.pose.pose.position.z;field.pose.pose.orientation.x;field.pose.pose.orientation.y;field.pose.pose.orientation.z;field.pose.pose.orientation.w;field.pose.covariance0;field.pose.covariance1;field.pose.covariance2;field.pose.covariance3;field.pose.covariance4;field.pose.covariance5;field.pose.covariance6;field.pose.covariance7;field.pose.covariance8;field.pose.covariance9;field.pose.covariance10;field.pose.covariance11;field.pose.covariance12;field.pose.covariance13;field.pose.covariance14;field.pose.covariance15;field.pose.covariance16;field.pose.covariance17;field.pose.covariance18;field.pose.covariance19;field.pose.covariance20;field.pose.covariance21;field.pose.covariance22;field.pose.covariance23;field.pose.covariance24;field.pose.covariance25;field.pose.covariance26;field.pose.covariance27;field.pose.covariance28;field.pose.covariance29;field.pose.covariance30;field.pose.covariance31;field.pose.covariance32;field.pose.covariance33;field.pose.covariance34;field.pose.covariance35
237600000000;5;237600000000;map;1.27007754945;-0.0170968546836;0.0;0.0;0.0;-0.00312304781334;0.999995123274;0.09837094668;-0.001329054888;0.0;0.0;0.0;0.0;-0.001329054888;0.0171947708171;0.0;0.0;0.0;0.0;0.0;0.0;0.0;0.0;0.0;0.0;0.0;0.0;0.0;0.0;0.0;0.0;0.0;0.0;0.0;0.0;0.0;0.0;0.0;0.0;0.0;0.0;0.0;0.00514966019597
238104000000;6;238104000000;map;1.52003848353;-0.0149471745457;0.0;0.0;0.0;-0.00256338385089;0.999996714526;0.0746842147228;-0.000646861225671;0.0;0.0;0.0;0.0;-0.000646861225671;0.0112086606411;0.0;0.0;0.0;0.0;0.0;0.0;0.0;0.0;0.0;0.0;0.0;0.0;0.0;0.0;0.0;0.0;0.0;0.0;0.0;0.0;0.0;0.0;0.0;0.0;0.0;0.0;0.0;0.00267750031238
238605000000;7;238605000000;map;1.7788625621;-0.0143787723102;0.0;0.0;0.0;-0.00250609239724;0.999996859746;0.0596749623906;0.000350531730445;0.0;0.0;0.0;0.0;0.000350531730445;0.00713071564205;0.0;0.0;0.0;0.0;0.0;0.0;0.0;0.0;0.0;0.0;0.0;0.0;0.0;0.0;0.0;0.0;0.0;0.0;0.0;0.0;0.0;0.0;0.0;0.0;0.0;0.0;0.0;0.00130473679225
239106000000;8;239106000000;map;2.03535677145;-0.0146193241107;0.0;0.0;0.0;-0.00245266443625;0.999996992214;0.0469737147989;6.56905583597e-05;0.0;0.0;0.0;0.0;6.56905583597e-05;0.00505374582658;0.0;0.0;0.0;0.0;0.0;0.0;0.0;0.0;0.0;0.0;0.0;0.0;0.0;0.0;0.0;0.0;0.0;0.0;0.0;0.0;0.0;0.0;0.0;0.0;0.0;0.0;0.0;0.000770224697431
239609000000;9;239609000000;map;2.29215426552;-0.0156472291323;0.0;0.0;0.0;-0.00231379905451;0.999997323163;0.0408829450012;2.10287567824e-06;0.0;0.0;0.0;0.0;2.10287567824e-06;0.00376172130489;0.0;0.0;0.0;0.0;0.0;0.0;0.0;0.0;0.0;0.0;0.0;0.0;0.0;0.0;0.0;0.0;0.0;0.0;0.0;0.0;0.0;0.0;0.0;0.0;0.0;0.0;0.0;0.000437598779741
240117000000;10;240117000000;map;2.54399054942;-0.0160810304651;0.0;0.0;0.0;-0.0023009612295;0.999997352785;0.0343691976398;-1.2191593391e-05;0.0;0.0;0.0;0.0;-1.2191593391e-05;0.00317460791909;0.0;0.0;0.0;0.0;0.0;0.0;0.0;0.0;0.0;0.0;0.0;0.0;0.0;0.0;0.0;0.0;0.0;0.0;0.0;0.0;0.0;0.0;0.0;0.0;0.0;0.0;0.0;0.000326840412163
240618000000;11;240618000000;map;2.79594803223;-0.0165545416301;0.0;0.0;0.0;-0.00240508216362;0.999997107786;0.0285205049828;-0.000212789902238;0.0;0.0;0.0;0.0;-0.000212789902238;0.00259298324055;0.0;0.0;0.0;0.0;0.0;0.0;0.0;0.0;0.0;0.0;0.0;0.0;0.0;0.0;0.0;0.0;0.0;0.0;0.0;0.0;0.0;0.0;0.0;0.0;0.0;0.0;0.0;0.000235835786934
241124000000;12;241124000000;map;3.04760547906;-0.0163967065555;0.0;0.0;0.0;-0.00233190312935;0.99999728111;0.0220936860926;-0.000423009601334;0.0;0.0;0.0;0.0;-0.000423009601334;0.0022057684467;0.0;0.0;0.0;0.0;0.0;0.0;0.0;0.0;0.0;0.0;0.0;0.0;0.0;0.0;0.0;0.0;0.0;0.0;0.0;0.0;0.0;0.0;0.0;0.0;0.0;0.0;0.0;0.000206517138134
241630000000;13;241630000000;map;3.29713491068;-0.0175732623618;0.0;0.0;0.0;-0.00246627479344;0.99999695874;0.0185767980393;-0.000475206734145;0.0;0.0;0.0;0.0;-0.000475206734145;0.00199608449919;0.0;0.0;0.0;0.0;0.0;0.0;0.0;0.0;0.0;0.0;0.0;0.0;0.0;0.0;0.0;0.0;0.0;0.0;0.0;0.0;0.0;0.0;0.0;0.0;0.0;0.0;0.0;0.000167966774873
242132000000;14;242132000000;map;3.54584412114;-0.0176586876805;0.0;0.0;0.0;-0.00241143229233;0.999997092493;0.015703223378;-0.000549190793882;0.0;0.0;0.0;0.0;-0.000549190793882;0.0018638929037;0.0;0.0;0.0;0.0;0.0;0.0;0.0;0.0;0.0;0.0;0.0;0.0;0.0;0.0;0.0;0.0;0.0;0.0;0.0;0.0;0.0;0.0;0.0;0.0;0.0;0.0;0.0;0.000138446893081
242635000000;15;242635000000;map;3.7926088869;-0.0184820909262;0.0;0.0;0.0;-0.0023745168996;0.999997180831;0.0120964971797;-0.000485837940014;0.0;0.0;0.0;0.0;-0.000485837940014;0.00171523377156;0.0;0.0;0.0;0.0;0.0;0.0;0.0;0.0;0.0;0.0;0.0;0.0;0.0;0.0;0.0;0.0;0.0;0.0;0.0;0.0;0.0;0.0;0.0;0.0;0.0;0.0;0.0;0.000118577274542
243144000000;16;243144000000;map;4.04363021605;-0.0183709783524;0.0;0.0;0.0;-0.00231757451855;0.999997314421;0.00972949392465;-0.000483549864847;0.0;0.0;0.0;0.0;-0.000483549864847;0.00152489588626;0.0;0.0;0.0;0.0;0.0;0.0;0.0;0.0;0.0;0.0;0.0;0.0;0.0;0.0;0.0;0.0;0.0;0.0;0.0;0.0;0.0;0.0;0.0;0.0;0.0;0.0;0.0;9.83710548528e-05
243647000000;17;243647000000;map;4.29126669678;-0.0193137326673;0.0;0.0;0.0;-0.00230053707843;0.999997353761;0.00917897380013;-0.000533849446851;0.0;0.0;0.0;0.0;-0.000533849446851;0.00142920768789;0.0;0.0;0.0;0.0;0.0;0.0;0.0;0.0;0.0;0.0;0.0;0.0;0.0;0.0;0.0;0.0;0.0;0.0;0.0;0.0;0.0;0.0;0.0;0.0;0.0;0.0;0.0;8.61554396875e-05
244154000000;18;244154000000;map;4.53975506464;-0.0196372864237;0.0;0.0;0.0;-0.00233405555509;0.999997276089;0.00743788213201;-0.000574508916312;0.0;0.0;0.0;0.0;-0.000574508916312;0.00134300018156;0.0;0.0;0.0;0.0;0.0;0.0;0.0;0.0;0.0;0.0;0.0;0.0;0.0;0.0;0.0;0.0;0.0;0.0;0.0;0.0;0.0;0.0;0.0;0.0;0.0;0.0;0.0;7.17295267413e-05
244659000000;19;244659000000;map;4.78815353986;-0.0192962792247;0.0;0.0;0.0;-0.00225705101761;0.999997452857;0.00691670331368;-0.000562207772716;0.0;0.0;0.0;0.0;-0.000562207772716;0.00124819415222;0.0;0.0;0.0;0.0;0.0;0.0;0.0;0.0;0.0;0.0;0.0;0.0;0.0;0.0;0.0;0.0;0.0;0.0;0.0;0.0;0.0;0.0;0.0;0.0;0.0;0.0;0.0;6.28416018259e-05
245180000000;20;245180000000;map;5.04583183103;-0.0194539926759;0.0;0.0;0.0;-0.00218181055143;0.999997619849;0.0059657850596;-0.000584225653233;0.0;0.0;0.0;0.0;-0.000584225653233;0.00114055284687;0.0;0.0;0.0;0.0;0.0;0.0;0.0;0.0;0.0;0.0;0.0;0.0;0.0;0.0;0.0;0.0;0.0;0.0;0.0;0.0;0.0;0.0;0.0;0.0;0.0;0.0;0.0;5.16821718061e-05
245684000000;21;245684000000;map;5.2936914411;-0.0193703337041;0.0;0.0;0.0;-0.00200149782844;0.999997997001;0.00555169248808;-0.000623455582205;0.0;0.0;0.0;0.0;-0.000623455582205;0.00100036850981;0.0;0.0;0.0;0.0;0.0;0.0;0.0;0.0;0.0;0.0;0.0;0.0;0.0;0.0;0.0;0.0;0.0;0.0;0.0;0.0;0.0;0.0;0.0;0.0;0.0;0.0;0.0;4.23884819138e-05
246187000000;22;246187000000;map;5.54257036116;-0.0198776157626;0.0;0.0;0.0;-0.00196074233669;0.999998077743;0.00501017030036;-0.000633946437313;0.0;0.0;0.0;0.0;-0.000633946437313;0.00095221342189;0.0;0.0;0.0;0.0;0.0;0.0;0.0;0.0;0.0;0.0;0.0;0.0;0.0;0.0;0.0;0.0;0.0;0.0;0.0;0.0;0.0;0.0;0.0;0.0;0.0;0.0;0.0;3.71592743815e-05
246706000000;23;246706000000;map;5.79899240859;-0.0203546529872;0.0;0.0;0.0;-0.00189601020096;0.999998202571;0.00443764499121;-0.000627430212697;0.0;0.0;0.0;0.0;-0.000627430212697;0.000882303577048;0.0;0.0;0.0;0.0;0.0;0.0;0.0;0.0;0.0;0.0;0.0;0.0;0.0;0.0;0.0;0.0;0.0;0.0;0.0;0.0;0.0;0.0;0.0;0.0;0.0;0.0;0.0;3.27740059994e-05
247211000000;24;247211000000;map;6.04811997802;-0.0200820166016;0.0;0.0;0.0;-0.00180139585944;0.999998377485;0.00377208624614;-0.000587420795227;0.0;0.0;0.0;0.0;-0.000587420795227;0.000816151360931;0.0;0.0;0.0;0.0;0.0;0.0;0.0;0.0;0.0;0.0;0.0;0.0;0.0;0.0;0.0;0.0;0.0;0.0;0.0;0.0;0.0;0.0;0.0;0.0;0.0;0.0;0.0;2.81698980056e-05
247712000000;25;247712000000;map;6.29572959371;-0.0192021058477;0.0;0.0;0.0;-0.00164194692667;0.999998652004;0.00305937300962;-0.000555712592377;0.0;0.0;0.0;0.0;-0.000555712592377;0.000727245556058;0.0;0.0;0.0;0.0;0.0;0.0;0.0;0.0;0.0;0.0;0.0;0.0;0.0;0.0;0.0;0.0;0.0;0.0;0.0;0.0;0.0;0.0;0.0;0.0;0.0;0.0;0.0;2.51339326135e-05
248219000000;26;248219000000;map;6.54724974865;-0.0199022269009;0.0;0.0;0.0;-0.00163569814543;0.999998662245;0.00262474586866;-0.000569001235337;0.0;0.0;0.0;0.0;-0.000569001235337;0.000699823799594;0.0;0.0;0.0;0.0;0.0;0.0;0.0;0.0;0.0;0.0;0.0;0.0;0.0;0.0;0.0;0.0;0.0;0.0;0.0;0.0;0.0;0.0;0.0;0.0;0.0;0.0;0.0;2.34389263601e-05
248722000000;27;248722000000;map;6.79616261368;-0.0199609153175;0.0;0.0;0.0;-0.00157360917076;0.999998761876;0.00227640475389;-0.000544458221402;0.0;0.0;0.0;0.0;-0.000544458221402;0.000640287354922;0.0;0.0;0.0;0.0;0.0;0.0;0.0;0.0;0.0;0.0;0.0;0.0;0.0;0.0;0.0;0.0;0.0;0.0;0.0;0.0;0.0;0.0;0.0;0.0;0.0;0.0;0.0;2.0728506876e-05
249241000000;28;249241000000;map;7.05452005318;-0.019966777915;0.0;0.0;0.0;-0.00150352783511;0.999998869701;0.00223652911419;-0.000537647054674;0.0;0.0;0.0;0.0;-0.000537647054674;0.000599922921359;0.0;0.0;0.0;0.0;0.0;0.0;0.0;0.0;0.0;0.0;0.0;0.0;0.0;0.0;0.0;0.0;0.0;0.0;0.0;0.0;0.0;0.0;0.0;0.0;0.0;0.0;0.0;1.89457774871e-05
249750000000;29;249750000000;map;7.30794055711;-0.0197505481365;0.0;0.0;0.0;-0.00142323457547;0.999998987201;0.00218114272334;-0.000509389463808;0.0;0.0;0.0;0.0;-0.000509389463808;0.000568642315932;0.0;0.0;0.0;0.0;0.0;0.0;0.0;0.0;0.0;0.0;0.0;0.0;0.0;0.0;0.0;0.0;0.0;0.0;0.0;0.0;0.0;0.0;0.0;0.0;0.0;0.0;0.0;1.71671241796e-05
250254000000;30;250254000000;map;7.55825335784;-0.0196153648696;0.0;0.0;0.0;-0.0013448518808;0.999999095686;0.00193992376651;-0.000481930158988;0.0;0.0;0.0;0.0;-0.000481930158988;0.000549579216615;0.0;0.0;0.0;0.0;0.0;0.0;0.0;0.0;0.0;0.0;0.0;0.0;0.0;0.0;0.0;0.0;0.0;0.0;0.0;0.0;0.0;0.0;0.0;0.0;0.0;0.0;0.0;1.54417253736e-05
250771000000;31;250771000000;map;7.81573224295;-0.02017241143;0.0;0.0;0.0;-0.00132036185394;0.999999128322;0.00179943363145;-0.000506254666384;0.0;0.0;0.0;0.0;-0.000506254666384;0.000536104508404;0.0;0.0;0.0;0.0;0.0;0.0;0.0;0.0;0.0;0.0;0.0;0.0;0.0;0.0;0.0;0.0;0.0;0.0;0.0;0.0;0.0;0.0;0.0;0.0;0.0;0.0;0.0;1.44058301393e-05
251272000000;32;251272000000;map;8.06506671875;-0.0203169840456;0.0;0.0;0.0;-0.00128217282732;0.999999178016;0.00164884751601;-0.000479446892584;0.0;0.0;0.0;0.0;-0.000479446892584;0.000527908481845;0.0;0.0;0.0;0.0;0.0;0.0;0.0;0.0;0.0;0.0;0.0;0.0;0.0;0.0;0.0;0.0;0.0;0.0;0.0;0.0;0.0;0.0;0.0;0.0;0.0;0.0;0.0;1.33939790689e-05
251772000000;33;251772000000;map;8.31431362914;-0.0208168438064;0.0;0.0;0.0;-0.00124878864907;0.999999220263;0.00158176991157;-0.000496808722336;0.0;0.0;0.0;0.0;-0.000496808722336;0.000536735378406;0.0;0.0;0.0;0.0;0.0;0.0;0.0;0.0;0.0;0.0;0.0;0.0;0.0;0.0;0.0;0.0;0.0;0.0;0.0;0.0;0.0;0.0;0.0;0.0;0.0;0.0;0.0;1.25860370487e-05
252291000000;34;252291000000;map;8.57224912316;-0.0206613343536;0.0;0.0;0.0;-0.00117285892969;0.999999312201;0.0014419942881;-0.000452329862245;0.0;0.0;0.0;0.0;-0.000452329862245;0.000477746621288;0.0;0.0;0.0;0.0;0.0;0.0;0.0;0.0;0.0;0.0;0.0;0.0;0.0;0.0;0.0;0.0;0.0;0.0;0.0;0.0;0.0;0.0;0.0;0.0;0.0;0.0;0.0;1.08281216419e-05
252796000000;35;252796000000;map;8.82298980174;-0.0203988223644;0.0;0.0;0.0;-0.00109857649394;0.999999396565;0.001243497944;-0.000390713090976;0.0;0.0;0.0;0.0;-0.000390713090976;0.000422007118754;0.0;0.0;0.0;0.0;0.0;0.0;0.0;0.0;0.0;0.0;0.0;0.0;0.0;0.0;0.0;0.0;0.0;0.0;0.0;0.0;0.0;0.0;0.0;0.0;0.0;0.0;0.0;9.11196932109e-06
253297000000;36;253297000000;map;9.07285188392;-0.0205630982286;0.0;0.0;0.0;-0.00106314132122;0.999999434865;0.00118768174237;-0.000377806048476;0.0;0.0;0.0;0.0;-0.000377806048476;0.000401685702876;0.0;0.0;0.0;0.0;0.0;0.0;0.0;0.0;0.0;0.0;0.0;0.0;0.0;0.0;0.0;0.0;0.0;0.0;0.0;0.0;0.0;0.0;0.0;0.0;0.0;0.0;0.0;8.24807007063e-06
253800000000;37;253800000000;map;9.32412656132;-0.0209301182289;0.0;0.0;0.0;-0.00104931172031;0.999999449472;0.00118862488371;-0.000385089330324;0.0;0.0;0.0;0.0;-0.000385089330324;0.000390582804312;0.0;0.0;0.0;0.0;0.0;0.0;0.0;0.0;0.0;0.0;0.0;0.0;0.0;0.0;0.0;0.0;0.0;0.0;0.0;0.0;0.0;0.0;0.0;0.0;0.0;0.0;0.0;7.78652391346e-06
254303000000;38;254303000000;map;9.57429195098;-0.0211126035982;0.0;0.0;0.0;-0.00101144278445;0.999999488492;0.00102410100281;-0.000349198983442;0.0;0.0;0.0;0.0;-0.000349198983442;0.000350087604392;0.0;0.0;0.0;0.0;0.0;0.0;0.0;0.0;0.0;0.0;0.0;0.0;0.0;0.0;0.0;0.0;0.0;0.0;0.0;0.0;0.0;0.0;0.0;0.0;0.0;0.0;0.0;6.87938864191e-06
254824000000;39;254824000000;map;9.83409921395;-0.021050768534;0.0;0.0;0.0;-0.000977353155207;0.99999952239;0.000917180186988;-0.000305375745366;0.0;0.0;0.0;0.0;-0.000305375745366;0.000344747678818;0.0;0.0;0.0;0.0;0.0;0.0;0.0;0.0;0.0;0.0;0.0;0.0;0.0;0.0;0.0;0.0;0.0;0.0;0.0;0.0;0.0;0.0;0.0;0.0;0.0;0.0;0.0;6.26244842623e-06
255330000000;40;255330000000;map;10.0865067527;-0.0210183627985;0.0;0.0;0.0;-0.000939843216001;0.999999558347;0.000861045569764;-0.000275767894084;0.0;0.0;0.0;0.0;-0.000275767894084;0.000311715727673;0.0;0.0;0.0;0.0;0.0;0.0;0.0;0.0;0.0;0.0;0.0;0.0;0.0;0.0;0.0;0.0;0.0;0.0;0.0;0.0;0.0;0.0;0.0;0.0;0.0;0.0;0.0;5.36756323676e-06
255834000000;41;255834000000;map;10.3374563165;-0.0210743095005;0.0;0.0;0.0;-0.000897348614901;0.999999597383;0.000730716217959;-0.000240468128501;0.0;0.0;0.0;0.0;-0.000240468128501;0.000290134181487;0.0;0.0;0.0;0.0;0.0;0.0;0.0;0.0;0.0;0.0;0.0;0.0;0.0;0.0;0.0;0.0;0.0;0.0;0.0;0.0;0.0;0.0;0.0;0.0;0.0;0.0;0.0;4.40967500811e-06
256343000000;42;256343000000;map;10.5910073352;-0.0213397729052;0.0;0.0;0.0;-0.000872411336353;0.999999619449;0.000604942591863;-0.000213168258657;0.0;0.0;0.0;0.0;-0.000213168258657;0.000267194302131;0.0;0.0;0.0;0.0;0.0;0.0;0.0;0.0;0.0;0.0;0.0;0.0;0.0;0.0;0.0;0.0;0.0;0.0;0.0;0.0;0.0;0.0;0.0;0.0;0.0;0.0;0.0;3.80269720758e-06
256862000000;43;256862000000;map;10.849547674;-0.0213245571345;0.0;0.0;0.0;-0.000842014806678;0.999999645505;0.000456421774885;-0.000154561567409;0.0;0.0;0.0;0.0;-0.000154561567409;0.000234193459575;0.0;0.0;0.0;0.0;0.0;0.0;0.0;0.0;0.0;0.0;0.0;0.0;0.0;0.0;0.0;0.0;0.0;0.0;0.0;0.0;0.0;0.0;0.0;0.0;0.0;0.0;0.0;3.19423439847e-06
257368000000;44;257368000000;map;11.1020127572;-0.0220096777188;0.0;0.0;0.0;-0.00084203066435;0.999999645492;0.000397111701773;-0.000167736874569;0.0;0.0;0.0;0.0;-0.000167736874569;0.000221991986382;0.0;0.0;0.0;0.0;0.0;0.0;0.0;0.0;0.0;0.0;0.0;0.0;0.0;0.0;0.0;0.0;0.0;0.0;0.0;0.0;0.0;0.0;0.0;0.0;0.0;0.0;0.0;3.03575025829e-06
257876000000;45;257876000000;map;11.3555529142;-0.0222604333833;0.0;0.0;0.0;-0.000826253738959;0.999999658652;0.000339511040778;-0.00014956841159;0.0;0.0;0.0;0.0;-0.00014956841159;0.000203851004583;0.0;0.0;0.0;0.0;0.0;0.0;0.0;0.0;0.0;0.0;0.0;0.0;0.0;0.0;0.0;0.0;0.0;0.0;0.0;0.0;0.0;0.0;0.0;0.0;0.0;0.0;0.0;2.61983096653e-06
258376000000;46;258376000000;map;11.6050188289;-0.022447105445;0.0;0.0;0.0;-0.000806118627852;0.999999675086;0.000270230900441;-0.000126512156269;0.0;0.0;0.0;0.0;-0.000126512156269;0.000186549854009;0.0;0.0;0.0;0.0;0.0;0.0;0.0;0.0;0.0;0.0;0.0;0.0;0.0;0.0;0.0;0.0;0.0;0.0;0.0;0.0;0.0;0.0;0.0;0.0;0.0;0.0;0.0;2.16280747193e-06
258880000000;47;258880000000;map;11.8563671487;-0.0227562534185;0.0;0.0;0.0;-0.000790650826563;0.999999687436;0.000198615920766;-0.000106527822524;0.0;0.0;0.0;0.0;-0.000106527822524;0.000135964383305;0.0;0.0;0.0;0.0;0.0;0.0;0.0;0.0;0.0;0.0;0.0;0.0;0.0;0.0;0.0;0.0;0.0;0.0;0.0;0.0;0.0;0.0;0.0;0.0;0.0;0.0;0.0;1.61419826254e-06
259388000000;48;259388000000;map;12.1102451377;-0.0230903964849;0.0;0.0;0.0;-0.000784806520339;0.999999692039;0.000188542917044;-0.000103883684378;0.0;0.0;0.0;0.0;-0.000103883684378;0.000128424059436;0.0;0.0;0.0;0.0;0.0;0.0;0.0;0.0;0.0;0.0;0.0;0.0;0.0;0.0;0.0;0.0;0.0;0.0;0.0;0.0;0.0;0.0;0.0;0.0;0.0;0.0;0.0;1.4460458438e-06
259890000000;49;259890000000;map;12.3608749177;-0.0232845641537;0.0;0.0;0.0;-0.000771826598099;0.999999702142;0.000137612758721;-7.94258573494e-05;0.0;0.0;0.0;0.0;-7.94258573494e-05;0.000104209333212;0.0;0.0;0.0;0.0;0.0;0.0;0.0;0.0;0.0;0.0;0.0;0.0;0.0;0.0;0.0;0.0;0.0;0.0;0.0;0.0;0.0;0.0;0.0;0.0;0.0;0.0;0.0;1.12195322594e-06
260391000000;50;260391000000;map;12.6112294347;-0.0234056440086;0.0;0.0;0.0;-0.000756184435419;0.999999714093;0.000134026571004;-6.48510031069e-05;0.0;0.0;0.0;0.0;-6.48510031069e-05;7.34280391012e-05;0.0;0.0;0.0;0.0;0.0;0.0;0.0;0.0;0.0;0.0;0.0;0.0;0.0;0.0;0.0;0.0;0.0;0.0;0.0;0.0;0.0;0.0;0.0;0.0;0.0;0.0;0.0;6.96140939477e-07
260897000000;51;260897000000;map;12.8642513769;-0.0238055387783;0.0;0.0;0.0;-0.000758895522947;0.999999712039;0.000129156981643;-6.54798593772e-05;0.0;0.0;0.0;0.0;-6.54798593772e-05;8.83652360483e-05;0.0;0.0;0.0;0.0;0.0;0.0;0.0;0.0;0.0;0.0;0.0;0.0;0.0;0.0;0.0;0.0;0.0;0.0;0.0;0.0;0.0;0.0;0.0;0.0;0.0;0.0;0.0;7.9496547046e-07
261403000000;52;261403000000;map;13.1173675104;-0.0242188412817;0.0;0.0;0.0;-0.000762517977899;0.999999709283;0.000140098028027;-7.21145380775e-05;0.0;0.0;0.0;0.0;-7.21145380775e-05;0.00010535728434;0.0;0.0;0.0;0.0;0.0;0.0;0.0;0.0;0.0;0.0;0.0;0.0;0.0;0.0;0.0;0.0;0.0;0.0;0.0;0.0;0.0;0.0;0.0;0.0;0.0;0.0;0.0;9.22165583329e-07
261904000000;53;261904000000;map;13.3676107966;-0.0245828479476;0.0;0.0;0.0;-0.000757454259433;0.999999713131;0.000109886580532;-6.46846635992e-05;0.0;0.0;0.0;0.0;-6.46846635992e-05;8.58540789069e-05;0.0;0.0;0.0;0.0;0.0;0.0;0.0;0.0;0.0;0.0;0.0;0.0;0.0;0.0;0.0;0.0;0.0;0.0;0.0;0.0;0.0;0.0;0.0;0.0;0.0;0.0;0.0;7.44602399124e-07
262410000000;54;262410000000;map;13.6205498336;-0.0249363697701;0.0;0.0;0.0;-0.000755236230596;0.999999714809;0.000104090904728;-6.24793603374e-05;0.0;0.0;0.0;0.0;-6.24793603374e-05;8.18338595336e-05;0.0;0.0;0.0;0.0;0.0;0.0;0.0;0.0;0.0;0.0;0.0;0.0;0.0;0.0;0.0;0.0;0.0;0.0;0.0;0.0;0.0;0.0;0.0;0.0;0.0;0.0;0.0;6.67566536439e-07
262911000000;55;262911000000;map;13.8710285396;-0.0252786648649;0.0;0.0;0.0;-0.000754078043919;0.999999715683;0.000100534538888;-6.01006090939e-05;0.0;0.0;0.0;0.0;-6.01006090939e-05;8.06252682137e-05;0.0;0.0;0.0;0.0;0.0;0.0;0.0;0.0;0.0;0.0;0.0;0.0;0.0;0.0;0.0;0.0;0.0;0.0;0.0;0.0;0.0;0.0;0.0;0.0;0.0;0.0;0.0;6.37967258409e-07
263413000000;56;263413000000;map;14.1219227627;-0.0255305646728;0.0;0.0;0.0;-0.000747817218385;0.999999720385;8.49293717806e-05;-4.94463766235e-05;0.0;0.0;0.0;0.0;-4.94463766235e-05;7.6569207554e-05;0.0;0.0;0.0;0.0;0.0;0.0;0.0;0.0;0.0;0.0;0.0;0.0;0.0;0.0;0.0;0.0;0.0;0.0;0.0;0.0;0.0;0.0;0.0;0.0;0.0;0.0;0.0;5.22715737279e-07
263915000000;57;263915000000;map;14.3728625144;-0.0258773993193;0.0;0.0;0.0;-0.00074681702616;0.999999721132;7.39656701114e-05;-4.4231640632e-05;0.0;0.0;0.0;0.0;-4.42316406319e-05;7.58787035938e-05;0.0;0.0;0.0;0.0;0.0;0.0;0.0;0.0;0.0;0.0;0.0;0.0;0.0;0.0;0.0;0.0;0.0;0.0;0.0;0.0;0.0;0.0;0.0;0.0;0.0;0.0;0.0;4.95377382513e-07
264419000000;58;264419000000;map;14.6247964493;-0.0261126777704;0.0;0.0;0.0;-0.000741880108836;0.999999724807;6.52482787018e-05;-3.18639113547e-05;0.0;0.0;0.0;0.0;-3.18639113547e-05;6.390142512e-05;0.0;0.0;0.0;0.0;0.0;0.0;0.0;0.0;0.0;0.0;0.0;0.0;0.0;0.0;0.0;0.0;0.0;0.0;0.0;0.0;0.0;0.0;0.0;0.0;0.0;0.0;0.0;3.63727085329e-07
264940000000;59;264940000000;map;14.8853166019;-0.026467370322;0.0;0.0;0.0;-0.000741049405466;0.999999725423;7.28925889462e-05;-3.31329083017e-05;0.0;0.0;0.0;0.0;-3.31329083017e-05;5.84085212637e-05;0.0;0.0;0.0;0.0;0.0;0.0;0.0;0.0;0.0;0.0;0.0;0.0;0.0;0.0;0.0;0.0;0.0;0.0;0.0;0.0;0.0;0.0;0.0;0.0;0.0;0.0;0.0;3.0122786491e-07
265455000000;60;265455000000;map;15.1425976891;-0.0267754253764;0.0;0.0;0.0;-0.00073678912617;0.999999728571;4.09935958885e-05;-1.60004248579e-05;0.0;0.0;0.0;0.0;-1.60004248578e-05;3.56931163438e-05;0.0;0.0;0.0;0.0;0.0;0.0;0.0;0.0;0.0;0.0;0.0;0.0;0.0;0.0;0.0;0.0;0.0;0.0;0.0;0.0;0.0;0.0;0.0;0.0;0.0;0.0;0.0;1.66625912681e-07
265957000000;61;265957000000;map;15.3935249461;-0.0271534532981;0.0;0.0;0.0;-0.000736176581631;0.999999729022;3.26630667757e-05;-1.34236730262e-05;0.0;0.0;0.0;0.0;-1.34236730261e-05;2.59979021617e-05;0.0;0.0;0.0;0.0;0.0;0.0;0.0;0.0;0.0;0.0;0.0;0.0;0.0;0.0;0.0;0.0;0.0;0.0;0.0;0.0;0.0;0.0;0.0;0.0;0.0;0.0;0.0;1.17406029902e-07
266465000000;62;266465000000;map;15.6475809324;-0.0275038245038;0.0;0.0;0.0;-0.00073518125278;0.999999729754;4.31095766658e-05;-1.77477960875e-05;0.0;0.0;0.0;0.0;-1.77477960876e-05;2.83446236672e-05;0.0;0.0;0.0;0.0;0.0;0.0;0.0;0.0;0.0;0.0;0.0;0.0;0.0;0.0;0.0;0.0;0.0;0.0;0.0;0.0;0.0;0.0;0.0;0.0;0.0;0.0;0.0;1.16002109063e-07
266966000000;63;266966000000;map;15.8981108067;-0.0278872146673;0.0;0.0;0.0;-0.000735701078484;0.999999729372;4.8586529914e-05;-2.1785526818e-05;0.0;0.0;0.0;0.0;-2.1785526818e-05;3.16077776316e-05;0.0;0.0;0.0;0.0;0.0;0.0;0.0;0.0;0.0;0.0;0.0;0.0;0.0;0.0;0.0;0.0;0.0;0.0;0.0;0.0;0.0;0.0;0.0;0.0;0.0;0.0;0.0;1.28996975043e-07
267471000000;64;267471000000;map;16.1504889159;-0.0281767095442;0.0;0.0;0.0;-0.000732841553048;0.999999731472;2.66447541435e-05;-7.39009506645e-06;0.0;0.0;0.0;0.0;-7.39009506645e-06;2.25085163372e-05;0.0;0.0;0.0;0.0;0.0;0.0;0.0;0.0;0.0;0.0;0.0;0.0;0.0;0.0;0.0;0.0;0.0;0.0;0.0;0.0;0.0;0.0;0.0;0.0;0.0;0.0;0.0;7.54457224269e-08
267972000000;65;267972000000;map;16.4008963177;-0.0285519721031;0.0;0.0;0.0;-0.000732518292284;0.999999731708;1.39194170288e-05;-2.84428973024e-06;0.0;0.0;0.0;0.0;-2.8442897303e-06;1.33187606677e-05;0.0;0.0;0.0;0.0;0.0;0.0;0.0;0.0;0.0;0.0;0.0;0.0;0.0;0.0;0.0;0.0;0.0;0.0;0.0;0.0;0.0;0.0;0.0;0.0;0.0;0.0;0.0;4.25311708156e-08
268473000000;66;268473000000;map;16.6513570786;-0.0289076927135;0.0;0.0;0.0;-0.000731854869865;0.999999732194;7.83903925594e-06;-3.35366187043e-08;0.0;0.0;0.0;0.0;-3.35366187043e-08;9.40438074982e-06;0.0;0.0;0.0;0.0;0.0;0.0;0.0;0.0;0.0;0.0;0.0;0.0;0.0;0.0;0.0;0.0;0.0;0.0;0.0;0.0;0.0;0.0;0.0;0.0;0.0;0.0;0.0;2.68972157468e-08
268981000000;67;268981000000;map;16.9053264287;-0.0293299980881;0.0;0.0;0.0;-0.000733051448685;0.999999731318;6.08387301781e-06;-2.9609996629e-06;0.0;0.0;0.0;0.0;-2.9609996629e-06;4.86851796996e-06;0.0;0.0;0.0;0.0;0.0;0.0;0.0;0.0;0.0;0.0;0.0;0.0;0.0;0.0;0.0;0.0;0.0;0.0;0.0;0.0;0.0;0.0;0.0;0.0;0.0;0.0;0.0;2.06934856988e-08
269494000000;68;269494000000;map;17.1617953391;-0.029693872763;0.0;0.0;0.0;-0.000732515272001;0.999999731711;5.87561828524e-07;9.74803892939e-07;0.0;0.0;0.0;0.0;9.74803892939e-07;2.11305642821e-06;0.0;0.0;0.0;0.0;0.0;0.0;0.0;0.0;0.0;0.0;0.0;0.0;0.0;0.0;0.0;0.0;0.0;0.0;0.0;0.0;0.0;0.0;0.0;0.0;0.0;0.0;0.0;7.3278794278e-09
269996000000;69;269996000000;map;17.4127941168;-0.0300621365404;0.0;0.0;0.0;-0.000732274767815;0.999999731887;5.87624697346e-07;9.84026340634e-07;0.0;0.0;0.0;0.0;9.84026340634e-07;2.18281864831e-06;0.0;0.0;0.0;0.0;0.0;0.0;0.0;0.0;0.0;0.0;0.0;0.0;0.0;0.0;0.0;0.0;0.0;0.0;0.0;0.0;0.0;0.0;0.0;0.0;0.0;0.0;0.0;7.59909869808e-09
270496000000;70;270496000000;map;17.6627937231;-0.0304416842628;0.0;0.0;0.0;-0.000732727861666;0.999999731555;5.87636861837e-07;9.92435645664e-07;0.0;0.0;0.0;0.0;9.92435645664e-07;2.22057629199e-06;0.0;0.0;0.0;0.0;0.0;0.0;0.0;0.0;0.0;0.0;0.0;0.0;0.0;0.0;0.0;0.0;0.0;0.0;0.0;0.0;0.0;0.0;0.0;0.0;0.0;0.0;0.0;7.58854247548e-09
271011000000;71;271011000000;map;17.9202941472;-0.0308295241814;0.0;0.0;0.0;-0.000733673612197;0.999999730861;5.87655392792e-07;1.00225642874e-06;0.0;0.0;0.0;0.0;1.00225642874e-06;2.28724844595e-06;0.0;0.0;0.0;0.0;0.0;0.0;0.0;0.0;0.0;0.0;0.0;0.0;0.0;0.0;0.0;0.0;0.0;0.0;0.0;0.0;0.0;0.0;0.0;0.0;0.0;0.0;0.0;7.7568216445e-09
271532000000;72;271532000000;map;18.1807936914;-0.0311904008926;0.0;0.0;0.0;-0.000732969482861;0.999999731378;5.87758904658e-07;1.01119872253e-06;0.0;0.0;0.0;0.0;1.01119872253e-06;2.34828189754e-06;0.0;0.0;0.0;0.0;0.0;0.0;0.0;0.0;0.0;0.0;0.0;0.0;0.0;0.0;0.0;0.0;0.0;0.0;0.0;0.0;0.0;0.0;0.0;0.0;0.0;0.0;0.0;7.91457501104e-09
272037000000;73;272037000000;map;18.4332895114;-0.031558008979;0.0;0.0;0.0;-0.000732749074766;0.999999731539;4.42691032276e-07;7.6707500174e-07;0.0;0.0;0.0;0.0;7.6707500174e-07;1.96551812361e-06;0.0;0.0;0.0;0.0;0.0;0.0;0.0;0.0;0.0;0.0;0.0;0.0;0.0;0.0;0.0;0.0;0.0;0.0;0.0;0.0;0.0;0.0;0.0;0.0;0.0;0.0;0.0;7.41560458859e-09
272542000000;74;272542000000;map;18.6857914964;-0.0319159723251;0.0;0.0;0.0;-0.000732546635554;0.999999731688;5.42238694834e-07;9.47300068721e-07;0.0;0.0;0.0;0.0;9.47300068721e-07;2.31697501422e-06;0.0;0.0;0.0;0.0;0.0;0.0;0.0;0.0;0.0;0.0;0.0;0.0;0.0;0.0;0.0;0.0;0.0;0.0;0.0;0.0;0.0;0.0;0.0;0.0;0.0;0.0;0.0;7.77611043736e-09
273048000000;75;273048000000;map;18.9387814724;-0.0323142535285;0.0;0.0;0.0;-0.000733252735314;0.99999973117;2.79135292658e-09;-6.91876556047e-11;0.0;0.0;0.0;0.0;-6.91876556047e-11;6.87965595697e-07;0.0;0.0;0.0;0.0;0.0;0.0;0.0;0.0;0.0;0.0;0.0;0.0;0.0;0.0;0.0;0.0;0.0;0.0;0.0;0.0;0.0;0.0;0.0;0.0;0.0;0.0;0.0;5.95575500915e-09
273550000000;76;273550000000;map;19.1897807549;-0.0326990347979;0.0;0.0;0.0;-0.000733592777378;0.999999730921;2.84018142338e-09;-6.07675132436e-10;0.0;0.0;0.0;0.0;-6.07675132436e-10;7.23305492351e-07;0.0;0.0;0.0;0.0;0.0;0.0;0.0;0.0;0.0;0.0;0.0;0.0;0.0;0.0;0.0;0.0;0.0;0.0;0.0;0.0;0.0;0.0;0.0;0.0;0.0;0.0;0.0;6.10461460092e-09
274070000000;77;274070000000;map;19.4497798004;-0.0330647150245;0.0;0.0;0.0;-0.00073297466805;0.999999731374;2.93243829219e-09;4.18395207369e-10;0.0;0.0;0.0;0.0;4.18395207369e-10;7.50370713954e-07;0.0;0.0;0.0;0.0;0.0;0.0;0.0;0.0;0.0;0.0;0.0;0.0;0.0;0.0;0.0;0.0;0.0;0.0;0.0;0.0;0.0;0.0;0.0;0.0;0.0;0.0;0.0;6.08769080517e-09
274579000000;78;274579000000;map;19.7042789705;-0.0334485061979;0.0;0.0;0.0;-0.000733210518744;0.999999731201;2.93664470519e-09;4.58475257759e-10;0.0;0.0;0.0;0.0;4.58475257759e-10;7.94690992758e-07;0.0;0.0;0.0;0.0;0.0;0.0;0.0;0.0;0.0;0.0;0.0;0.0;0.0;0.0;0.0;0.0;0.0;0.0;0.0;0.0;0.0;0.0;0.0;0.0;0.0;0.0;0.0;6.28713793127e-09
275087000000;79;275087000000;map;19.9582780733;-0.0338343935309;0.0;0.0;0.0;-0.000733587254524;0.999999730925;2.99058910969e-09;-8.23260348781e-11;0.0;0.0;0.0;0.0;-8.23259238558e-11;8.39185426595e-07;0.0;0.0;0.0;0.0;0.0;0.0;0.0;0.0;0.0;0.0;0.0;0.0;0.0;0.0;0.0;0.0;0.0;0.0;0.0;0.0;0.0;0.0;0.0;0.0;0.0;0.0;0.0;6.48290733259e-09
275605000000;80;275605000000;map;20.2172780106;-0.0342134067752;0.0;0.0;0.0;-0.000733702371328;0.99999973084;3.02333091895e-09;6.92809365432e-10;0.0;0.0;0.0;0.0;6.92809365432e-10;8.80542500258e-07;0.0;0.0;0.0;0.0;0.0;0.0;0.0;0.0;0.0;0.0;0.0;0.0;0.0;0.0;0.0;0.0;0.0;0.0;0.0;0.0;0.0;0.0;0.0;0.0;0.0;0.0;0.0;6.51846044871e-09
276109000000;81;276109000000;map;20.4692778096;-0.0345776131382;0.0;0.0;0.0;-0.000733489379024;0.999999730997;3.00656211039e-09;1.35421995839e-09;0.0;0.0;0.0;0.0;1.35422006942e-09;9.21371766737e-07;0.0;0.0;0.0;0.0;0.0;0.0;0.0;0.0;0.0;0.0;0.0;0.0;0.0;0.0;0.0;0.0;0.0;0.0;0.0;0.0;0.0;0.0;0.0;0.0;0.0;0.0;0.0;6.67126199841e-09
276617000000;82;276617000000;map;20.7232776765;-0.0349548548173;0.0;0.0;0.0;-0.00073372958458;0.99999973082;3.1374156606e-09;7.99263211171e-10;0.0;0.0;0.0;0.0;7.99263211171e-10;9.53623667025e-07;0.0;0.0;0.0;0.0;0.0;0.0;0.0;0.0;0.0;0.0;0.0;0.0;0.0;0.0;0.0;0.0;0.0;0.0;0.0;0.0;0.0;0.0;0.0;0.0;0.0;0.0;0.0;6.78526280758e-09
277120000000;83;277120000000;map;20.9747770582;-0.0353228379051;0.0;0.0;0.0;-0.000733631321798;0.999999730893;3.18709680869e-09;5.70142710821e-10;0.0;0.0;0.0;0.0;5.70142710821e-10;9.9596951952e-07;0.0;0.0;0.0;0.0;0.0;0.0;0.0;0.0;0.0;0.0;0.0;0.0;0.0;0.0;0.0;0.0;0.0;0.0;0.0;0.0;0.0;0.0;0.0;0.0;0.0;0.0;0.0;6.92937997072e-09
277640000000;84;277640000000;map;21.2347766736;-0.0356982758951;0.0;0.0;0.0;-0.000733171437035;0.99999973123;3.26031113218e-09;3.09435255197e-10;0.0;0.0;0.0;0.0;3.09435588264e-10;1.04806114859e-06;0.0;0.0;0.0;0.0;0.0;0.0;0.0;0.0;0.0;0.0;0.0;0.0;0.0;0.0;0.0;0.0;0.0;0.0;0.0;0.0;0.0;0.0;0.0;0.0;0.0;0.0;0.0;7.11674231924e-09
278165000000;85;278165000000;map;21.4972758801;-0.0360740709128;0.0;0.0;0.0;-0.000732899466953;0.999999731429;3.37809069606e-09;3.89029031211e-10;0.0;0.0;0.0;0.0;3.89029142234e-10;1.08739498589e-06;0.0;0.0;0.0;0.0;0.0;0.0;0.0;0.0;0.0;0.0;0.0;0.0;0.0;0.0;0.0;0.0;0.0;0.0;0.0;0.0;0.0;0.0;0.0;0.0;0.0;0.0;0.0;7.21316474519e-09
278667000000;86;278667000000;map;21.7482769102;-0.0364216372849;0.0;0.0;0.0;-0.000731963033668;0.999999732115;3.46642536897e-09;1.04002539913e-09;0.0;0.0;0.0;0.0;1.04002539913e-09;1.0928465337e-06;0.0;0.0;0.0;0.0;0.0;0.0;0.0;0.0;0.0;0.0;0.0;0.0;0.0;0.0;0.0;0.0;0.0;0.0;0.0;0.0;0.0;0.0;0.0;0.0;0.0;0.0;0.0;7.25910732842e-09
279175000000;87;279175000000;map;22.0022767846;-0.0367897046899;0.0;0.0;0.0;-0.000731223042417;0.999999732656;3.4731328924e-09;1.29158306272e-09;0.0;0.0;0.0;0.0;1.29158306272e-09;1.18189425686e-06;0.0;0.0;0.0;0.0;0.0;0.0;0.0;0.0;0.0;0.0;0.0;0.0;0.0;0.0;0.0;0.0;0.0;0.0;0.0;0.0;0.0;0.0;0.0;0.0;0.0;0.0;0.0;7.57844921588e-09
279679000000;88;279679000000;map;22.254276504;-0.0371622070965;0.0;0.0;0.0;-0.000731146256384;0.999999732713;3.49405127054e-09;9.86443704498e-10;0.0;0.0;0.0;0.0;9.86443704498e-10;1.25184253765e-06;0.0;0.0;0.0;0.0;0.0;0.0;0.0;0.0;0.0;0.0;0.0;0.0;0.0;0.0;0.0;0.0;0.0;0.0;0.0;0.0;0.0;0.0;0.0;0.0;0.0;0.0;0.0;7.94656675376e-09
280185000000;89;280185000000;map;22.5072760998;-0.0375353006913;0.0;0.0;0.0;-0.000731131305301;0.999999732723;3.51133166987e-09;1.51757595379e-09;0.0;0.0;0.0;0.0;1.51757595379e-09;1.27647020925e-06;0.0;0.0;0.0;0.0;0.0;0.0;0.0;0.0;0.0;0.0;0.0;0.0;0.0;0.0;0.0;0.0;0.0;0.0;0.0;0.0;0.0;0.0;0.0;0.0;0.0;0.0;0.0;8.08976776094e-09
280690000000;90;280690000000;map;22.7597756848;-0.0379096793557;0.0;0.0;0.0;-0.000731186918765;0.999999732683;3.52986262442e-09;1.94567728595e-09;0.0;0.0;0.0;0.0;1.94567739698e-09;1.33952268546e-06;0.0;0.0;0.0;0.0;0.0;0.0;0.0;0.0;0.0;0.0;0.0;0.0;0.0;0.0;0.0;0.0;0.0;0.0;0.0;0.0;0.0;0.0;0.0;0.0;0.0;0.0;0.0;8.11860447185e-09
281193000000;91;281193000000;map;23.011275969;-0.0382821975771;0.0;0.0;0.0;-0.000731059485009;0.999999732776;3.54623352905e-09;1.80060399924e-09;0.0;0.0;0.0;0.0;1.80060399924e-09;1.35804112846e-06;0.0;0.0;0.0;0.0;0.0;0.0;0.0;0.0;0.0;0.0;0.0;0.0;0.0;0.0;0.0;0.0;0.0;0.0;0.0;0.0;0.0;0.0;0.0;0.0;0.0;0.0;0.0;7.98525980268e-09
281700000000;92;281700000000;map;23.2647752802;-0.0386681105329;0.0;0.0;0.0;-0.000731809620978;0.999999732227;3.59204932465e-09;2.35536212756e-09;0.0;0.0;0.0;0.0;2.35536212756e-09;1.42590301255e-06;0.0;0.0;0.0;0.0;0.0;0.0;0.0;0.0;0.0;0.0;0.0;0.0;0.0;0.0;0.0;0.0;0.0;0.0;0.0;0.0;0.0;0.0;0.0;0.0;0.0;0.0;0.0;8.10827184817e-09
282204000000;93;282204000000;map;23.516775052;-0.0390332350386;0.0;0.0;0.0;-0.00073183198593;0.999999732211;3.66583208233e-09;2.8973731192e-09;0.0;0.0;0.0;0.0;2.8973731192e-09;1.46967858905e-06;0.0;0.0;0.0;0.0;0.0;0.0;0.0;0.0;0.0;0.0;0.0;0.0;0.0;0.0;0.0;0.0;0.0;0.0;0.0;0.0;0.0;0.0;0.0;0.0;0.0;0.0;0.0;8.25193048929e-09
282708000000;94;282708000000;map;23.7687751064;-0.0393897020003;0.0;0.0;0.0;-0.000731177970746;0.999999732689;3.65821506421e-09;2.81683776304e-09;0.0;0.0;0.0;0.0;2.81683776304e-09;1.55323995776e-06;0.0;0.0;0.0;0.0;0.0;0.0;0.0;0.0;0.0;0.0;0.0;0.0;0.0;0.0;0.0;0.0;0.0;0.0;0.0;0.0;0.0;0.0;0.0;0.0;0.0;0.0;0.0;8.51312133712e-09
283216000000;95;283216000000;map;24.0227754191;-0.0397591409282;0.0;0.0;0.0;-0.000731012656191;0.99999973281;3.6762912714e-09;2.98324931425e-09;0.0;0.0;0.0;0.0;2.98324931425e-09;1.62076687626e-06;0.0;0.0;0.0;0.0;0.0;0.0;0.0;0.0;0.0;0.0;0.0;0.0;0.0;0.0;0.0;0.0;0.0;0.0;0.0;0.0;0.0;0.0;0.0;0.0;0.0;0.0;0.0;8.68646378937e-09
283718000000;96;283718000000;map;24.2737745814;-0.0401344622985;0.0;0.0;0.0;-0.000731305691117;0.999999732596;3.70209818357e-09;1.72605063575e-09;0.0;0.0;0.0;0.0;1.72605063575e-09;1.70361991885e-06;0.0;0.0;0.0;0.0;0.0;0.0;0.0;0.0;0.0;0.0;0.0;0.0;0.0;0.0;0.0;0.0;0.0;0.0;0.0;0.0;0.0;0.0;0.0;0.0;0.0;0.0;0.0;8.70693363749e-09
284238000000;97;284238000000;map;24.5337732776;-0.040522379953;0.0;0.0;0.0;-0.000731361809277;0.999999732555;3.73984221369e-09;2.17157047899e-09;0.0;0.0;0.0;0.0;2.17157036797e-09;1.77373818445e-06;0.0;0.0;0.0;0.0;0.0;0.0;0.0;0.0;0.0;0.0;0.0;0.0;0.0;0.0;0.0;0.0;0.0;0.0;0.0;0.0;0.0;0.0;0.0;0.0;0.0;0.0;0.0;8.92368914088e-09
284742000000;98;284742000000;map;24.7857737783;-0.0408857794864;0.0;0.0;0.0;-0.000731266518586;0.999999732625;3.66492258763e-09;2.15693307659e-09;0.0;0.0;0.0;0.0;2.15693329864e-09;1.79455938028e-06;0.0;0.0;0.0;0.0;0.0;0.0;0.0;0.0;0.0;0.0;0.0;0.0;0.0;0.0;0.0;0.0;0.0;0.0;0.0;0.0;0.0;0.0;0.0;0.0;0.0;0.0;0.0;8.70938301154e-09
285261000000;99;285261000000;map;25.045273922;-0.0412836833467;0.0;0.0;0.0;-0.000731680926531;0.999999732321;3.7341578718e-09;1.68398628375e-09;0.0;0.0;0.0;0.0;1.68398628375e-09;1.84261047682e-06;0.0;0.0;0.0;0.0;0.0;0.0;0.0;0.0;0.0;0.0;0.0;0.0;0.0;0.0;0.0;0.0;0.0;0.0;0.0;0.0;0.0;0.0;0.0;0.0;0.0;0.0;0.0;8.80258112784e-09
285770000000;100;285770000000;map;25.299772547;-0.0416467180086;0.0;0.0;0.0;-0.000731296892555;0.999999732602;3.75121089746e-09;2.05380357166e-09;0.0;0.0;0.0;0.0;2.05380357166e-09;1.88797381765e-06;0.0;0.0;0.0;0.0;0.0;0.0;0.0;0.0;0.0;0.0;0.0;0.0;0.0;0.0;0.0;0.0;0.0;0.0;0.0;0.0;0.0;0.0;0.0;0.0;0.0;0.0;0.0;8.96659948302e-09
286274000000;101;286274000000;map;25.5517718606;-0.0420193838413;0.0;0.0;0.0;-0.000731956028287;0.99999973212;3.91491994378e-09;8.51607895314e-10;0.0;0.0;0.0;0.0;8.51607673269e-10;1.92976457804e-06;0.0;0.0;0.0;0.0;0.0;0.0;0.0;0.0;0.0;0.0;0.0;0.0;0.0;0.0;0.0;0.0;0.0;0.0;0.0;0.0;0.0;0.0;0.0;0.0;0.0;0.0;0.0;8.89619846436e-09
286779000000;102;286779000000;map;25.8042717009;-0.0424153644116;0.0;0.0;0.0;-0.00073250694406;0.999999731717;3.82487996831e-09;1.66050928563e-09;0.0;0.0;0.0;0.0;1.66050928563e-09;1.9920900769e-06;0.0;0.0;0.0;0.0;0.0;0.0;0.0;0.0;0.0;0.0;0.0;0.0;0.0;0.0;0.0;0.0;0.0;0.0;0.0;0.0;0.0;0.0;0.0;0.0;0.0;0.0;0.0;8.96620557589e-09
287282000000;103;287282000000;map;26.055771303;-0.0427937597685;0.0;0.0;0.0;-0.000732885715872;0.999999731439;3.89593424188e-09;1.46238576804e-09;0.0;0.0;0.0;0.0;1.46238576804e-09;2.0666440853e-06;0.0;0.0;0.0;0.0;0.0;0.0;0.0;0.0;0.0;0.0;0.0;0.0;0.0;0.0;0.0;0.0;0.0;0.0;0.0;0.0;0.0;0.0;0.0;0.0;0.0;0.0;0.0;9.21814871006e-09
287785000000;104;287785000000;map;26.3072708978;-0.0431605472598;0.0;0.0;0.0;-0.00073292353463;0.999999731412;3.9170799937e-09;2.14793893782e-09;0.0;0.0;0.0;0.0;2.14793893782e-09;2.15116272915e-06;0.0;0.0;0.0;0.0;0.0;0.0;0.0;0.0;0.0;0.0;0.0;0.0;0.0;0.0;0.0;0.0;0.0;0.0;0.0;0.0;0.0;0.0;0.0;0.0;0.0;0.0;0.0;9.36222390695e-09
288287000000;105;288287000000;map;26.5582695621;-0.043518510459;0.0;0.0;0.0;-0.000732823957911;0.999999731484;3.87046839023e-09;3.82598264181e-09;0.0;0.0;0.0;0.0;3.82598264181e-09;2.24894867663e-06;0.0;0.0;0.0;0.0;0.0;0.0;0.0;0.0;0.0;0.0;0.0;0.0;0.0;0.0;0.0;0.0;0.0;0.0;0.0;0.0;0.0;0.0;0.0;0.0;0.0;0.0;0.0;9.46050373613e-09
288808000000;106;288808000000;map;26.818768394;-0.0439028227664;0.0;0.0;0.0;-0.000733056143048;0.999999731314;3.97801613872e-09;4.47081616173e-09;0.0;0.0;0.0;0.0;4.47081616173e-09;2.29781380865e-06;0.0;0.0;0.0;0.0;0.0;0.0;0.0;0.0;0.0;0.0;0.0;0.0;0.0;0.0;0.0;0.0;0.0;0.0;0.0;0.0;0.0;0.0;0.0;0.0;0.0;0.0;0.0;9.45261915422e-09
289327000000;107;289327000000;map;27.0782682348;-0.0442883801747;0.0;0.0;0.0;-0.00073289849285;0.99999973143;4.0698751036e-09;5.19152143497e-09;0.0;0.0;0.0;0.0;5.19152143497e-09;2.36554568185e-06;0.0;0.0;0.0;0.0;0.0;0.0;0.0;0.0;0.0;0.0;0.0;0.0;0.0;0.0;0.0;0.0;0.0;0.0;0.0;0.0;0.0;0.0;0.0;0.0;0.0;0.0;0.0;9.49158420781e-09
289832000000;108;289832000000;map;27.3307687588;-0.044661304959;0.0;0.0;0.0;-0.000732933449186;0.999999731404;4.1545717977e-09;4.23713997222e-09;0.0;0.0;0.0;0.0;4.23714041631e-09;2.4883052757e-06;0.0;0.0;0.0;0.0;0.0;0.0;0.0;0.0;0.0;0.0;0.0;0.0;0.0;0.0;0.0;0.0;0.0;0.0;0.0;0.0;0.0;0.0;0.0;0.0;0.0;0.0;0.0;9.63819493207e-09
290333000000;109;290333000000;map;27.5812683085;-0.0450392110264;0.0;0.0;0.0;-0.000733500560342;0.999999730988;4.21573531639e-09;3.88034826493e-09;0.0;0.0;0.0;0.0;3.88034826493e-09;2.55421161771e-06;0.0;0.0;0.0;0.0;0.0;0.0;0.0;0.0;0.0;0.0;0.0;0.0;0.0;0.0;0.0;0.0;0.0;0.0;0.0;0.0;0.0;0.0;0.0;0.0;0.0;0.0;0.0;9.63721305082e-09
290834000000;110;290834000000;map;27.8317684057;-0.0453907041997;0.0;0.0;0.0;-0.000733034865337;0.99999973133;4.2564352043e-09;5.51854406616e-09;0.0;0.0;0.0;0.0;5.51854406616e-09;2.60165250426e-06;0.0;0.0;0.0;0.0;0.0;0.0;0.0;0.0;0.0;0.0;0.0;0.0;0.0;0.0;0.0;0.0;0.0;0.0;0.0;0.0;0.0;0.0;0.0;0.0;0.0;0.0;0.0;9.51614322941e-09
291351000000;111;291351000000;map;28.0902680985;-0.045773153308;0.0;0.0;0.0;-0.000733271770942;0.999999731156;4.17799128627e-09;4.89174833973e-09;0.0;0.0;0.0;0.0;4.89174833973e-09;2.69493860241e-06;0.0;0.0;0.0;0.0;0.0;0.0;0.0;0.0;0.0;0.0;0.0;0.0;0.0;0.0;0.0;0.0;0.0;0.0;0.0;0.0;0.0;0.0;0.0;0.0;0.0;0.0;0.0;9.64479498594e-09
291870000000;112;291870000000;map;28.3497678174;-0.0461774975964;0.0;0.0;0.0;-0.000734375158073;0.999999730347;4.27883151133e-09;3.26048565924e-09;0.0;0.0;0.0;0.0;3.26048565924e-09;2.78578472085e-06;0.0;0.0;0.0;0.0;0.0;0.0;0.0;0.0;0.0;0.0;0.0;0.0;0.0;0.0;0.0;0.0;0.0;0.0;0.0;0.0;0.0;0.0;0.0;0.0;0.0;0.0;0.0;9.809469483e-09
292376000000;113;292376000000;map;28.6027657152;-0.0465661158091;0.0;0.0;0.0;-0.000734780688083;0.999999730049;4.27371560363e-09;4.79660666741e-09;0.0;0.0;0.0;0.0;4.79660644537e-09;2.82694622547e-06;0.0;0.0;0.0;0.0;0.0;0.0;0.0;0.0;0.0;0.0;0.0;0.0;0.0;0.0;0.0;0.0;0.0;0.0;0.0;0.0;0.0;0.0;0.0;0.0;0.0;0.0;0.0;1.00342381323e-08
292886000000;114;292886000000;map;28.8577657144;-0.0469643042359;0.0;0.0;0.0;-0.000735721354383;0.999999729357;4.30293312093e-09;4.65833394081e-09;0.0;0.0;0.0;0.0;4.65833394081e-09;2.85177924417e-06;0.0;0.0;0.0;0.0;0.0;0.0;0.0;0.0;0.0;0.0;0.0;0.0;0.0;0.0;0.0;0.0;0.0;0.0;0.0;0.0;0.0;0.0;0.0;0.0;0.0;0.0;0.0;1.00636244036e-08
293398000000;115;293398000000;map;29.113764956;-0.0473774088354;0.0;0.0;0.0;-0.000736113378623;0.999999729069;4.27667146141e-09;4.79957096289e-09;0.0;0.0;0.0;0.0;4.79957096289e-09;2.8831421097e-06;0.0;0.0;0.0;0.0;0.0;0.0;0.0;0.0;0.0;0.0;0.0;0.0;0.0;0.0;0.0;0.0;0.0;0.0;0.0;0.0;0.0;0.0;0.0;0.0;0.0;0.0;0.0;9.96594942389e-09
293918000000;116;293918000000;map;29.3737639913;-0.0478031443745;0.0;0.0;0.0;-0.000737409355791;0.999999728114;4.27485247201e-09;4.41808434282e-09;0.0;0.0;0.0;0.0;4.41808412077e-09;3.00831679866e-06;0.0;0.0;0.0;0.0;0.0;0.0;0.0;0.0;0.0;0.0;0.0;0.0;0.0;0.0;0.0;0.0;0.0;0.0;0.0;0.0;0.0;0.0;0.0;0.0;0.0;0.0;0.0;1.02856532445e-08
294420000000;117;294420000000;map;29.6247632612;-0.0481654546124;0.0;0.0;0.0;-0.000737225310054;0.999999728249;4.30190993939e-09;6.63283294955e-09;0.0;0.0;0.0;0.0;6.63283294955e-09;3.12609143769e-06;0.0;0.0;0.0;0.0;0.0;0.0;0.0;0.0;0.0;0.0;0.0;0.0;0.0;0.0;0.0;0.0;0.0;0.0;0.0;0.0;0.0;0.0;0.0;0.0;0.0;0.0;0.0;1.04539663866e-08
294940000000;118;294940000000;map;29.884762694;-0.0485458318797;0.0;0.0;0.0;-0.000736811579186;0.999999728554;4.27758095611e-09;9.18023701502e-09;0.0;0.0;0.0;0.0;9.18023701502e-09;3.24353305393e-06;0.0;0.0;0.0;0.0;0.0;0.0;0.0;0.0;0.0;0.0;0.0;0.0;0.0;0.0;0.0;0.0;0.0;0.0;0.0;0.0;0.0;0.0;0.0;0.0;0.0;0.0;0.0;1.05740272373e-08
295441000000;119;295441000000;map;30.1352624116;-0.0489236410431;0.0;0.0;0.0;-0.000736946674436;0.999999728455;4.40718395112e-09;9.76083880389e-09;0.0;0.0;0.0;0.0;9.76083880389e-09;3.357372318e-06;0.0;0.0;0.0;0.0;0.0;0.0;0.0;0.0;0.0;0.0;0.0;0.0;0.0;0.0;0.0;0.0;0.0;0.0;0.0;0.0;0.0;0.0;0.0;0.0;0.0;0.0;0.0;1.08419675754e-08
295943000000;120;295943000000;map;30.3862616009;-0.0493460450259;0.0;0.0;0.0;-0.000738148197664;0.999999727569;4.36330083176e-09;1.05198347811e-08;0.0;0.0;0.0;0.0;1.05198347811e-08;3.48344128106e-06;0.0;0.0;0.0;0.0;0.0;0.0;0.0;0.0;0.0;0.0;0.0;0.0;0.0;0.0;0.0;0.0;0.0;0.0;0.0;0.0;0.0;0.0;0.0;0.0;0.0;0.0;0.0;1.09766369628e-08
296452000000;121;296452000000;map;30.6407606257;-0.049774503598;0.0;0.0;0.0;-0.000738917112384;0.999999727001;4.38990355178e-09;1.18029106488e-08;0.0;0.0;0.0;0.0;1.18029106488e-08;3.59594752662e-06;0.0;0.0;0.0;0.0;0.0;0.0;0.0;0.0;0.0;0.0;0.0;0.0;0.0;0.0;0.0;0.0;0.0;0.0;0.0;0.0;0.0;0.0;0.0;0.0;0.0;0.0;0.0;1.1089396987e-08
296959000000;122;296959000000;map;30.8942609764;-0.0501760786013;0.0;0.0;0.0;-0.000739459749504;0.9999997266;4.42503278464e-09;1.24630950005e-08;0.0;0.0;0.0;0.0;1.24630950005e-08;3.73764421201e-06;0.0;0.0;0.0;0.0;0.0;0.0;0.0;0.0;0.0;0.0;0.0;0.0;0.0;0.0;0.0;0.0;0.0;0.0;0.0;0.0;0.0;0.0;0.0;0.0;0.0;0.0;0.0;1.14116167952e-08
297461000000;123;297461000000;map;31.1452602656;-0.0506089960517;0.0;0.0;0.0;-0.000740788026719;0.999999725617;4.45425030193e-09;1.21215866233e-08;0.0;0.0;0.0;0.0;1.21215866233e-08;3.88339072687e-06;0.0;0.0;0.0;0.0;0.0;0.0;0.0;0.0;0.0;0.0;0.0;0.0;0.0;0.0;0.0;0.0;0.0;0.0;0.0;0.0;0.0;0.0;0.0;0.0;0.0;0.0;0.0;1.14978060736e-08
297964000000;124;297964000000;map;31.3967595608;-0.0510305111874;0.0;0.0;0.0;-0.000741838566289;0.999999724838;4.58442173112e-09;1.18395075965e-08;0.0;0.0;0.0;0.0;1.18395075965e-08;3.96929762222e-06;0.0;0.0;0.0;0.0;0.0;0.0;0.0;0.0;0.0;0.0;0.0;0.0;0.0;0.0;0.0;0.0;0.0;0.0;0.0;0.0;0.0;0.0;0.0;0.0;0.0;0.0;0.0;1.14085834438e-08
298474000000;125;298474000000;map;31.6517596717;-0.051504322933;0.0;0.0;0.0;-0.000744089274927;0.999999723166;4.63182914245e-09;1.22941801184e-08;0.0;0.0;0.0;0.0;1.22941798963e-08;4.19094542896e-06;0.0;0.0;0.0;0.0;0.0;0.0;0.0;0.0;0.0;0.0;0.0;0.0;0.0;0.0;0.0;0.0;0.0;0.0;0.0;0.0;0.0;0.0;0.0;0.0;0.0;0.0;0.0;1.1733236861e-08
298980000000;126;298980000000;map;31.904758396;-0.0519911342683;0.0;0.0;0.0;-0.000746878726169;0.999999721086;4.85999862576e-09;1.14434617338e-08;0.0;0.0;0.0;0.0;1.14434617338e-08;4.30307745672e-06;0.0;0.0;0.0;0.0;0.0;0.0;0.0;0.0;0.0;0.0;0.0;0.0;0.0;0.0;0.0;0.0;0.0;0.0;0.0;0.0;0.0;0.0;0.0;0.0;0.0;0.0;0.0;1.18473395889e-08
299499000000;127;299499000000;map;32.1642586494;-0.0524805899759;0.0;0.0;0.0;-0.000748994225722;0.999999719504;4.80440576212e-09;1.14457987532e-08;0.0;0.0;0.0;0.0;1.14457987532e-08;4.47078516585e-06;0.0;0.0;0.0;0.0;0.0;0.0;0.0;0.0;0.0;0.0;0.0;0.0;0.0;0.0;0.0;0.0;0.0;0.0;0.0;0.0;0.0;0.0;0.0;0.0;0.0;0.0;0.0;1.20541206269e-08
300000000000;128;300000000000;map;32.4147590064;-0.0529883715871;0.0;0.0;0.0;-0.000751746448917;0.999999717439;4.93741936225e-09;1.23420820231e-08;0.0;0.0;0.0;0.0;1.23420820231e-08;4.64920414239e-06;0.0;0.0;0.0;0.0;0.0;0.0;0.0;0.0;0.0;0.0;0.0;0.0;0.0;0.0;0.0;0.0;0.0;0.0;0.0;0.0;0.0;0.0;0.0;0.0;0.0;0.0;0.0;1.24120163422e-08
300502000000;129;300502000000;map;32.6657578393;-0.0534327962838;0.0;0.0;0.0;-0.000753039409452;0.999999716466;4.92559593113e-09;1.29144499539e-08;0.0;0.0;0.0;0.0;1.29144499539e-08;4.80627065666e-06;0.0;0.0;0.0;0.0;0.0;0.0;0.0;0.0;0.0;0.0;0.0;0.0;0.0;0.0;0.0;0.0;0.0;0.0;0.0;0.0;0.0;0.0;0.0;0.0;0.0;0.0;0.0;1.26974080542e-08
301006000000;130;301006000000;map;32.9177564183;-0.0539129150922;0.0;0.0;0.0;-0.000755225629639;0.999999714817;5.05110619997e-09;1.16336469347e-08;0.0;0.0;0.0;0.0;1.16336469347e-08;4.91993402123e-06;0.0;0.0;0.0;0.0;0.0;0.0;0.0;0.0;0.0;0.0;0.0;0.0;0.0;0.0;0.0;0.0;0.0;0.0;0.0;0.0;0.0;0.0;0.0;0.0;0.0;0.0;0.0;1.29567810234e-08
301515000000;131;301515000000;map;33.1722549856;-0.0543785325527;0.0;0.0;0.0;-0.00075677216288;0.999999713648;5.08885023009e-09;1.15600344852e-08;0.0;0.0;0.0;0.0;1.15600344852e-08;5.0468968979e-06;0.0;0.0;0.0;0.0;0.0;0.0;0.0;0.0;0.0;0.0;0.0;0.0;0.0;0.0;0.0;0.0;0.0;0.0;0.0;0.0;0.0;0.0;0.0;0.0;0.0;0.0;0.0;1.3196398462e-08
302018000000;132;302018000000;map;33.4237539117;-0.0548329907332;0.0;0.0;0.0;-0.000758070556838;0.999999712664;5.13023223903e-09;1.37273747924e-08;0.0;0.0;0.0;0.0;1.37273747924e-08;5.14195138273e-06;0.0;0.0;0.0;0.0;0.0;0.0;0.0;0.0;0.0;0.0;0.0;0.0;0.0;0.0;0.0;0.0;0.0;0.0;0.0;0.0;0.0;0.0;0.0;0.0;0.0;0.0;0.0;1.33294524751e-08
302529000000;133;302529000000;map;33.6792527265;-0.0552506892471;0.0;0.0;0.0;-0.000759102422601;0.999999711882;4.99812813359e-09;1.19495273676e-08;0.0;0.0;0.0;0.0;1.19495273676e-08;5.17457846902e-06;0.0;0.0;0.0;0.0;0.0;0.0;0.0;0.0;0.0;0.0;0.0;0.0;0.0;0.0;0.0;0.0;0.0;0.0;0.0;0.0;0.0;0.0;0.0;0.0;0.0;0.0;0.0;1.3440597347e-08
303031000000;134;303031000000;map;33.9302512254;-0.0556948021961;0.0;0.0;0.0;-0.000759951626745;0.999999711237;4.97129803989e-09;1.30296029521e-08;0.0;0.0;0.0;0.0;1.30296029521e-08;5.22666443915e-06;0.0;0.0;0.0;0.0;0.0;0.0;0.0;0.0;0.0;0.0;0.0;0.0;0.0;0.0;0.0;0.0;0.0;0.0;0.0;0.0;0.0;0.0;0.0;0.0;0.0;0.0;0.0;1.35005629354e-08
303533000000;135;303533000000;map;34.1812519652;-0.0561405316644;0.0;0.0;0.0;-0.000761383771282;0.999999710147;4.96629581903e-09;1.31337949405e-08;0.0;0.0;0.0;0.0;1.31337947185e-08;5.31064015113e-06;0.0;0.0;0.0;0.0;0.0;0.0;0.0;0.0;0.0;0.0;0.0;0.0;0.0;0.0;0.0;0.0;0.0;0.0;0.0;0.0;0.0;0.0;0.0;0.0;0.0;0.0;0.0;1.33498690326e-08
304033000000;136;304033000000;map;34.431251099;-0.0565843641035;0.0;0.0;0.0;-0.000762771893282;0.999999709089;4.94560481457e-09;1.15487290842e-08;0.0;0.0;0.0;0.0;1.15487288621e-08;5.39481021117e-06;0.0;0.0;0.0;0.0;0.0;0.0;0.0;0.0;0.0;0.0;0.0;0.0;0.0;0.0;0.0;0.0;0.0;0.0;0.0;0.0;0.0;0.0;0.0;0.0;0.0;0.0;0.0;1.34210603082e-08
304537000000;137;304537000000;map;34.6832514758;-0.0570090117549;0.0;0.0;0.0;-0.000763789720742;0.999999708313;5.02973307448e-09;1.06389703713e-08;0.0;0.0;0.0;0.0;1.06389701493e-08;5.53800537168e-06;0.0;0.0;0.0;0.0;0.0;0.0;0.0;0.0;0.0;0.0;0.0;0.0;0.0;0.0;0.0;0.0;0.0;0.0;0.0;0.0;0.0;0.0;0.0;0.0;0.0;0.0;0.0;1.33008258183e-08
305043000000;138;305043000000;map;34.9362516882;-0.057447474408;0.0;0.0;0.0;-0.000764572661231;0.999999707714;5.06861397298e-09;1.0656092897e-08;0.0;0.0;0.0;0.0;1.0656092897e-08;5.50954194353e-06;0.0;0.0;0.0;0.0;0.0;0.0;0.0;0.0;0.0;0.0;0.0;0.0;0.0;0.0;0.0;0.0;0.0;0.0;0.0;0.0;0.0;0.0;0.0;0.0;0.0;0.0;0.0;1.31765248036e-08
305545000000;139;305545000000;map;35.1872500362;-0.0578914383372;0.0;0.0;0.0;-0.000765592445734;0.999999706934;5.3082658269e-09;9.89214399283e-09;0.0;0.0;0.0;0.0;9.89214399283e-09;5.52464577566e-06;0.0;0.0;0.0;0.0;0.0;0.0;0.0;0.0;0.0;0.0;0.0;0.0;0.0;0.0;0.0;0.0;0.0;0.0;0.0;0.0;0.0;0.0;0.0;0.0;0.0;0.0;0.0;1.29472408769e-08
306048000000;140;306048000000;map;35.4387505909;-0.0583058080929;0.0;0.0;0.0;-0.000766266456591;0.999999706418;5.2314135246e-09;9.0985206036e-09;0.0;0.0;0.0;0.0;9.09852015951e-09;5.61045989735e-06;0.0;0.0;0.0;0.0;0.0;0.0;0.0;0.0;0.0;0.0;0.0;0.0;0.0;0.0;0.0;0.0;0.0;0.0;0.0;0.0;0.0;0.0;0.0;0.0;0.0;0.0;0.0;1.29889164291e-08
306549000000;141;306549000000;map;35.6892515815;-0.0587121317049;0.0;0.0;0.0;-0.000766767688881;0.999999706034;5.40262590221e-09;8.92400597863e-09;0.0;0.0;0.0;0.0;8.92400597863e-09;5.72423540044e-06;0.0;0.0;0.0;0.0;0.0;0.0;0.0;0.0;0.0;0.0;0.0;0.0;0.0;0.0;0.0;0.0;0.0;0.0;0.0;0.0;0.0;0.0;0.0;0.0;0.0;0.0;0.0;1.29072466465e-08
307055000000;142;307055000000;map;35.9422515832;-0.0591123951354;0.0;0.0;0.0;-0.000767073882759;0.999999705799;5.45287548448e-09;8.65924620896e-09;0.0;0.0;0.0;0.0;8.65924620896e-09;5.76431845481e-06;0.0;0.0;0.0;0.0;0.0;0.0;0.0;0.0;0.0;0.0;0.0;0.0;0.0;0.0;0.0;0.0;0.0;0.0;0.0;0.0;0.0;0.0;0.0;0.0;0.0;0.0;0.0;1.2727941408e-08
307556000000;143;307556000000;map;36.1927522175;-0.0594522611113;0.0;0.0;0.0;-0.000766125183891;0.999999706526;5.69457370148e-09;1.346024181e-08;0.0;0.0;0.0;0.0;1.346024181e-08;5.90915982236e-06;0.0;0.0;0.0;0.0;0.0;0.0;0.0;0.0;0.0;0.0;0.0;0.0;0.0;0.0;0.0;0.0;0.0;0.0;0.0;0.0;0.0;0.0;0.0;0.0;0.0;0.0;0.0;1.29383786326e-08
308056000000;144;308056000000;map;36.4427513021;-0.0598359607394;0.0;0.0;0.0;-0.00076576705219;0.9999997068;5.7193574321e-09;1.32506281503e-08;0.0;0.0;0.0;0.0;1.32506281503e-08;6.12251021686e-06;0.0;0.0;0.0;0.0;0.0;0.0;0.0;0.0;0.0;0.0;0.0;0.0;0.0;0.0;0.0;0.0;0.0;0.0;0.0;0.0;0.0;0.0;0.0;0.0;0.0;0.0;0.0;1.30777897828e-08
308564000000;145;308564000000;map;36.696751771;-0.0602316365938;0.0;0.0;0.0;-0.000765949670624;0.999999706661;5.76710590394e-09;1.36259514782e-08;0.0;0.0;0.0;0.0;1.36259514782e-08;6.12798605951e-06;0.0;0.0;0.0;0.0;0.0;0.0;0.0;0.0;0.0;0.0;0.0;0.0;0.0;0.0;0.0;0.0;0.0;0.0;0.0;0.0;0.0;0.0;0.0;0.0;0.0;0.0;0.0;1.31193347727e-08
309073000000;146;309073000000;map;36.9512505502;-0.0605924866528;0.0;0.0;0.0;-0.000765333536509;0.999999707132;5.72254066356e-09;1.45915697303e-08;0.0;0.0;0.0;0.0;1.45915697303e-08;6.17147616667e-06;0.0;0.0;0.0;0.0;0.0;0.0;0.0;0.0;0.0;0.0;0.0;0.0;0.0;0.0;0.0;0.0;0.0;0.0;0.0;0.0;0.0;0.0;0.0;0.0;0.0;0.0;0.0;1.30343520846e-08
310040000000;147;310040000000;map;37.0028494608;-0.0608187161317;0.0;0.0;0.0;0.0997806169616;0.995009461502;5.78870640311e-09;1.41959715094e-08;0.0;0.0;0.0;0.0;1.41959719535e-08;6.13777885596e-06;0.0;0.0;0.0;0.0;0.0;0.0;0.0;0.0;0.0;0.0;0.0;0.0;0.0;0.0;0.0;0.0;0.0;0.0;0.0;0.0;0.0;0.0;0.0;0.0;0.0;0.0;0.0;1.30791726766e-08
310925000000;148;310925000000;map;37.0030321278;-0.0608049588254;0.0;0.0;0.0;0.200971983405;0.979596989525;5.5933924159e-09;1.33686666182e-08;0.0;0.0;0.0;0.0;1.33686666182e-08;6.11902443212e-06;0.0;0.0;0.0;0.0;0.0;0.0;0.0;0.0;0.0;0.0;0.0;0.0;0.0;0.0;0.0;0.0;0.0;0.0;0.0;0.0;0.0;0.0;0.0;0.0;0.0;0.0;0.0;1.32154208014e-08
311829000000;149;311829000000;map;37.0031417536;-0.0607922317976;0.0;0.0;0.0;0.299371322356;0.954136683788;5.63727553526e-09;1.55034416416e-08;0.0;0.0;0.0;0.0;1.55034416416e-08;6.15665878523e-06;0.0;0.0;0.0;0.0;0.0;0.0;0.0;0.0;0.0;0.0;0.0;0.0;0.0;0.0;0.0;0.0;0.0;0.0;0.0;0.0;0.0;0.0;0.0;0.0;0.0;0.0;0.0;1.32862543631e-08
312721000000;150;312721000000;map;37.0033039824;-0.0606817263289;0.0;0.0;0.0;0.393221832067;0.919443631108;5.54859980184e-09;1.22550387616e-08;0.0;0.0;0.0;0.0;1.22550392057e-08;6.24406640368e-06;0.0;0.0;0.0;0.0;0.0;0.0;0.0;0.0;0.0;0.0;0.0;0.0;0.0;0.0;0.0;0.0;0.0;0.0;0.0;0.0;0.0;0.0;0.0;0.0;0.0;0.0;0.0;1.34449642982e-08
313619000000;151;313619000000;map;37.0033456724;-0.0606532351248;0.0;0.0;0.0;0.48429401138;0.874905315187;5.50653567188e-09;1.29001831439e-08;0.0;0.0;0.0;0.0;1.29001826998e-08;6.31867873958e-06;0.0;0.0;0.0;0.0;0.0;0.0;0.0;0.0;0.0;0.0;0.0;0.0;0.0;0.0;0.0;0.0;0.0;0.0;0.0;0.0;0.0;0.0;0.0;0.0;0.0;0.0;0.0;1.37220399958e-08
314483000000;152;314483000000;map;37.003412343;-0.060580854192;0.0;0.0;0.0;0.570799900914;0.821089199245;5.50198819838e-09;1.07373461233e-08;0.0;0.0;0.0;0.0;1.07373461233e-08;6.22009631407e-06;0.0;0.0;0.0;0.0;0.0;0.0;0.0;0.0;0.0;0.0;0.0;0.0;0.0;0.0;0.0;0.0;0.0;0.0;0.0;0.0;0.0;0.0;0.0;0.0;0.0;0.0;0.0;1.34903195736e-08
315346000000;153;315346000000;map;37.0034280419;-0.0605235123271;0.0;0.0;0.0;0.651336249948;0.758789226007;5.49471224076e-09;1.32936230912e-08;0.0;0.0;0.0;0.0;1.32936230912e-08;6.27773463897e-06;0.0;0.0;0.0;0.0;0.0;0.0;0.0;0.0;0.0;0.0;0.0;0.0;0.0;0.0;0.0;0.0;0.0;0.0;0.0;0.0;0.0;0.0;0.0;0.0;0.0;0.0;0.0;1.35419074191e-08
316210000000;154;316210000000;map;37.0034468912;-0.0604453029764;0.0;0.0;0.0;0.725252175876;0.688483319614;5.3748863138e-09;1.01400918773e-08;0.0;0.0;0.0;0.0;1.01400923214e-08;6.20804067267e-06;0.0;0.0;0.0;0.0;0.0;0.0;0.0;0.0;0.0;0.0;0.0;0.0;0.0;0.0;0.0;0.0;0.0;0.0;0.0;0.0;0.0;0.0;0.0;0.0;0.0;0.0;0.0;1.33078906116e-08
317157000000;155;317157000000;map;36.9842814697;0.198550388371;0.0;0.0;0.0;0.733351730309;0.679849424249;5.8073510445e-09;-5.4655705739e-08;0.0;0.0;0.0;0.0;-5.46557048509e-08;6.16030059174e-06;0.0;0.0;0.0;0.0;0.0;0.0;0.0;0.0;0.0;0.0;0.0;0.0;0.0;0.0;0.0;0.0;0.0;0.0;0.0;0.0;0.0;0.0;0.0;0.0;0.0;0.0;0.0;1.33554172612e-08
317666000000;156;317666000000;map;36.9649624526;0.452338497692;0.0;0.0;0.0;0.733351376563;0.679849805835;7.9758137872e-09;-1.13677376845e-07;0.0;0.0;0.0;0.0;-1.13677376845e-07;6.05666649942e-06;0.0;0.0;0.0;0.0;0.0;0.0;0.0;0.0;0.0;0.0;0.0;0.0;0.0;0.0;0.0;0.0;0.0;0.0;0.0;0.0;0.0;0.0;0.0;0.0;0.0;0.0;0.0;1.31978872711e-08
318168000000;157;318168000000;map;36.9459452627;0.702607060883;0.0;0.0;0.0;0.733350516867;0.679850733184;1.15517195809e-08;-1.7323122492e-07;0.0;0.0;0.0;0.0;-1.73231235578e-07;6.11074709284e-06;0.0;0.0;0.0;0.0;0.0;0.0;0.0;0.0;0.0;0.0;0.0;0.0;0.0;0.0;0.0;0.0;0.0;0.0;0.0;0.0;0.0;0.0;0.0;0.0;0.0;0.0;0.0;1.30063766847e-08
318674000000;158;318674000000;map;36.9267965837;0.954868348463;0.0;0.0;0.0;0.733350213118;0.679851060836;1.68365659192e-08;-2.27818894416e-07;0.0;0.0;0.0;0.0;-2.27818894416e-07;5.94357790051e-06;0.0;0.0;0.0;0.0;0.0;0.0;0.0;0.0;0.0;0.0;0.0;0.0;0.0;0.0;0.0;0.0;0.0;0.0;0.0;0.0;0.0;0.0;0.0;0.0;0.0;0.0;0.0;1.29974644803e-08
319177000000;159;319177000000;map;36.9077682522;1.20566034356;0.0;0.0;0.0;0.733350510981;0.679850739533;2.37600943365e-08;-2.84198897305e-07;0.0;0.0;0.0;0.0;-2.84198897305e-07;5.88117317091e-06;0.0;0.0;0.0;0.0;0.0;0.0;0.0;0.0;0.0;0.0;0.0;0.0;0.0;0.0;0.0;0.0;0.0;0.0;0.0;0.0;0.0;0.0;0.0;0.0;0.0;0.0;0.0;1.31509685796e-08
319680000000;160;319680000000;map;36.8887474698;1.45644960872;0.0;0.0;0.0;0.733350313557;0.679850952493;3.22472715197e-08;-3.44420847398e-07;0.0;0.0;0.0;0.0;-3.44420854503e-07;5.94205159477e-06;0.0;0.0;0.0;0.0;0.0;0.0;0.0;0.0;0.0;0.0;0.0;0.0;0.0;0.0;0.0;0.0;0.0;0.0;0.0;0.0;0.0;0.0;0.0;0.0;0.0;0.0;0.0;1.32143194601e-08
320184000000;161;320184000000;map;36.8696917248;1.70773787306;0.0;0.0;0.0;0.733350369487;0.679850892162;4.31925855082e-08;-4.069393853e-07;0.0;0.0;0.0;0.0;-4.069393853e-07;5.97163058558e-06;0.0;0.0;0.0;0.0;0.0;0.0;0.0;0.0;0.0;0.0;0.0;0.0;0.0;0.0;0.0;0.0;0.0;0.0;0.0;0.0;0.0;0.0;0.0;0.0;0.0;0.0;0.0;1.34959848197e-08
320687000000;162;320687000000;map;36.8506751384;1.95850059531;0.0;0.0;0.0;0.733350497148;0.679850754455;5.46258434042e-08;-4.59693865196e-07;0.0;0.0;0.0;0.0;-4.59693865196e-07;5.89627328207e-06;0.0;0.0;0.0;0.0;0.0;0.0;0.0;0.0;0.0;0.0;0.0;0.0;0.0;0.0;0.0;0.0;0.0;0.0;0.0;0.0;0.0;0.0;0.0;0.0;0.0;0.0;0.0;1.33898574899e-08
322655000000;163;322655000000;map;36.8431544809;2.20957397073;0.0;0.0;0.0;0.701304969674;0.71286137468;6.70140707371e-08;-5.10228815642e-07;0.0;0.0;0.0;0.0;-5.10228815642e-07;5.86171077099e-06;0.0;0.0;0.0;0.0;0.0;0.0;0.0;0.0;0.0;0.0;0.0;0.0;0.0;0.0;0.0;0.0;0.0;0.0;0.0;0.0;0.0;0.0;0.0;0.0;0.0;0.0;0.0;1.31684958927e-08
323163000000;164;323163000000;map;36.8472898093;2.46355057304;0.0;0.0;0.0;0.701332248456;0.712834537095;8.08784079709e-08;-5.59866222716e-07;0.0;0.0;0.0;0.0;-5.59866208505e-07;5.80511418136e-06;0.0;0.0;0.0;0.0;0.0;0.0;0.0;0.0;0.0;0.0;0.0;0.0;0.0;0.0;0.0;0.0;0.0;0.0;0.0;0.0;0.0;0.0;0.0;0.0;0.0;0.0;0.0;1.29930702175e-08
323682000000;165;323682000000;map;36.8515093934;2.72301600335;0.0;0.0;0.0;0.701332478113;0.712834311143;9.83886820904e-08;-6.19566492333e-07;0.0;0.0;0.0;0.0;-6.19566492333e-07;5.80581773235e-06;0.0;0.0;0.0;0.0;0.0;0.0;0.0;0.0;0.0;0.0;0.0;0.0;0.0;0.0;0.0;0.0;0.0;0.0;0.0;0.0;0.0;0.0;0.0;0.0;0.0;0.0;0.0;1.31299676007e-08
324185000000;166;324185000000;map;36.8556018838;2.97446140074;0.0;0.0;0.0;0.70133245546;0.712834333431;1.16803448691e-07;-6.82687172571e-07;0.0;0.0;0.0;0.0;-6.82687172571e-07;5.84501339773e-06;0.0;0.0;0.0;0.0;0.0;0.0;0.0;0.0;0.0;0.0;0.0;0.0;0.0;0.0;0.0;0.0;0.0;0.0;0.0;0.0;0.0;0.0;0.0;0.0;0.0;0.0;0.0;1.31467324126e-08
324687000000;167;324687000000;map;36.8596951074;3.22538160722;0.0;0.0;0.0;0.701331249956;0.712835519482;1.34554056785e-07;-7.31954798994e-07;0.0;0.0;0.0;0.0;-7.31954798994e-07;5.83137678944e-06;0.0;0.0;0.0;0.0;0.0;0.0;0.0;0.0;0.0;0.0;0.0;0.0;0.0;0.0;0.0;0.0;0.0;0.0;0.0;0.0;0.0;0.0;0.0;0.0;0.0;0.0;0.0;1.30503703825e-08
325208000000;168;325208000000;map;36.8639388399;3.48583043602;0.0;0.0;0.0;0.701330753443;0.712836007981;1.59670435096e-07;-8.03412149253e-07;0.0;0.0;0.0;0.0;-8.03412149253e-07;5.92849837666e-06;0.0;0.0;0.0;0.0;0.0;0.0;0.0;0.0;0.0;0.0;0.0;0.0;0.0;0.0;0.0;0.0;0.0;0.0;0.0;0.0;0.0;0.0;0.0;0.0;0.0;0.0;0.0;1.34974774036e-08
325727000000;169;325727000000;map;36.8681587154;3.74531303316;0.0;0.0;0.0;0.701330945451;0.712835819073;1.82780468094e-07;-8.55046806691e-07;0.0;0.0;0.0;0.0;-8.5504677827e-07;5.84496398126e-06;0.0;0.0;0.0;0.0;0.0;0.0;0.0;0.0;0.0;0.0;0.0;0.0;0.0;0.0;0.0;0.0;0.0;0.0;0.0;0.0;0.0;0.0;0.0;0.0;0.0;0.0;0.0;1.35111962075e-08
326229000000;170;326229000000;map;36.8722497732;3.99625270268;0.0;0.0;0.0;0.701330331012;0.712836423594;2.08161736737e-07;-9.06014975044e-07;0.0;0.0;0.0;0.0;-9.06014975044e-07;5.85017446397e-06;0.0;0.0;0.0;0.0;0.0;0.0;0.0;0.0;0.0;0.0;0.0;0.0;0.0;0.0;0.0;0.0;0.0;0.0;0.0;0.0;0.0;0.0;0.0;0.0;0.0;0.0;0.0;1.35741771617e-08
326738000000;171;326738000000;map;36.8763845374;4.25073843084;0.0;0.0;0.0;0.70133067556;0.712836084607;2.3019197215e-07;-9.40172753872e-07;0.0;0.0;0.0;0.0;-9.40172782293e-07;5.72313268066e-06;0.0;0.0;0.0;0.0;0.0;0.0;0.0;0.0;0.0;0.0;0.0;0.0;0.0;0.0;0.0;0.0;0.0;0.0;0.0;0.0;0.0;0.0;0.0;0.0;0.0;0.0;0.0;1.3499819308e-08
327258000000;172;327258000000;map;36.8806177083;4.51067274867;0.0;0.0;0.0;0.70133064677;0.712836112933;2.61357172349e-07;-1.00660835756e-06;0.0;0.0;0.0;0.0;-1.00660835756e-06;5.74976654732e-06;0.0;0.0;0.0;0.0;0.0;0.0;0.0;0.0;0.0;0.0;0.0;0.0;0.0;0.0;0.0;0.0;0.0;0.0;0.0;0.0;0.0;0.0;0.0;0.0;0.0;0.0;0.0;1.3693627168e-08
327763000000;173;327763000000;map;36.8847333758;4.76312241266;0.0;0.0;0.0;0.701330355614;0.71283639939;2.92499180432e-07;-1.06760649032e-06;0.0;0.0;0.0;0.0;-1.06760651875e-06;5.74316781154e-06;0.0;0.0;0.0;0.0;0.0;0.0;0.0;0.0;0.0;0.0;0.0;0.0;0.0;0.0;0.0;0.0;0.0;0.0;0.0;0.0;0.0;0.0;0.0;0.0;0.0;0.0;0.0;1.3799018198e-08
328282000000;174;328282000000;map;36.888958825;5.02258424017;0.0;0.0;0.0;0.701330128676;0.712836622664;3.22589130519e-07;-1.13119378398e-06;0.0;0.0;0.0;0.0;-1.13119378398e-06;5.78138739726e-06;0.0;0.0;0.0;0.0;0.0;0.0;0.0;0.0;0.0;0.0;0.0;0.0;0.0;0.0;0.0;0.0;0.0;0.0;0.0;0.0;0.0;0.0;0.0;0.0;0.0;0.0;0.0;1.37782270512e-08
328787000000;175;328787000000;map;36.8930707051;5.27507139767;0.0;0.0;0.0;0.701329790452;0.712836955428;3.46924480255e-07;-1.17287999046e-06;0.0;0.0;0.0;0.0;-1.17287999046e-06;5.788355665e-06;0.0;0.0;0.0;0.0;0.0;0.0;0.0;0.0;0.0;0.0;0.0;0.0;0.0;0.0;0.0;0.0;0.0;0.0;0.0;0.0;0.0;0.0;0.0;0.0;0.0;0.0;0.0;1.33888347524e-08
329288000000;176;329288000000;map;36.8971508558;5.52551611868;0.0;0.0;0.0;0.701329854585;0.712836892331;3.70573843611e-07;-1.19226277207e-06;0.0;0.0;0.0;0.0;-1.19226277207e-06;5.67807816765e-06;0.0;0.0;0.0;0.0;0.0;0.0;0.0;0.0;0.0;0.0;0.0;0.0;0.0;0.0;0.0;0.0;0.0;0.0;0.0;0.0;0.0;0.0;0.0;0.0;0.0;0.0;0.0;1.31265050372e-08
329789000000;177;329789000000;map;36.9012310146;5.77597499575;0.0;0.0;0.0;0.701329608803;0.712837134145;4.08023879572e-07;-1.25779965288e-06;0.0;0.0;0.0;0.0;-1.25779965288e-06;5.71490804191e-06;0.0;0.0;0.0;0.0;0.0;0.0;0.0;0.0;0.0;0.0;0.0;0.0;0.0;0.0;0.0;0.0;0.0;0.0;0.0;0.0;0.0;0.0;0.0;0.0;0.0;0.0;0.0;1.33486238064e-08
330294000000;178;330294000000;map;36.9053465662;6.02842486007;0.0;0.0;0.0;0.701329233061;0.712837503821;4.45428668172e-07;-1.32718960799e-06;0.0;0.0;0.0;0.0;-1.32718960799e-06;5.78194190126e-06;0.0;0.0;0.0;0.0;0.0;0.0;0.0;0.0;0.0;0.0;0.0;0.0;0.0;0.0;0.0;0.0;0.0;0.0;0.0;0.0;0.0;0.0;0.0;0.0;0.0;0.0;0.0;1.33871991718e-08
330815000000;179;330815000000;map;36.9095911195;6.28884427148;0.0;0.0;0.0;0.701329092124;0.712837642482;4.8767037697e-07;-1.38170511832e-06;0.0;0.0;0.0;0.0;-1.38170511832e-06;5.78315738409e-06;0.0;0.0;0.0;0.0;0.0;0.0;0.0;0.0;0.0;0.0;0.0;0.0;0.0;0.0;0.0;0.0;0.0;0.0;0.0;0.0;0.0;0.0;0.0;0.0;0.0;0.0;0.0;1.35345404231e-08
331319000000;180;331319000000;map;36.9136978517;6.54079849007;0.0;0.0;0.0;0.701328787408;0.712837942279;5.15331294082e-07;-1.39999585258e-06;0.0;0.0;0.0;0.0;-1.39999585258e-06;5.69438426368e-06;0.0;0.0;0.0;0.0;0.0;0.0;0.0;0.0;0.0;0.0;0.0;0.0;0.0;0.0;0.0;0.0;0.0;0.0;0.0;0.0;0.0;0.0;0.0;0.0;0.0;0.0;0.0;1.34302567296e-08
331838000000;181;331838000000;map;36.9179357912;6.80022202553;0.0;0.0;0.0;0.701327859579;0.712838855127;5.45649982087e-07;-1.43622511928e-06;0.0;0.0;0.0;0.0;-1.43622511928e-06;5.69788390692e-06;0.0;0.0;0.0;0.0;0.0;0.0;0.0;0.0;0.0;0.0;0.0;0.0;0.0;0.0;0.0;0.0;0.0;0.0;0.0;0.0;0.0;0.0;0.0;0.0;0.0;0.0;0.0;1.31515807566e-08
332339000000;182;332339000000;map;36.9220147182;7.0507051306;0.0;0.0;0.0;0.701327624035;0.712839086867;5.89110641158e-07;-1.50344430949e-06;0.0;0.0;0.0;0.0;-1.50344430949e-06;5.76685832954e-06;0.0;0.0;0.0;0.0;0.0;0.0;0.0;0.0;0.0;0.0;0.0;0.0;0.0;0.0;0.0;0.0;0.0;0.0;0.0;0.0;0.0;0.0;0.0;0.0;0.0;0.0;0.0;1.31834379404e-08
332841000000;183;332841000000;map;36.926099298;7.30164562701;0.0;0.0;0.0;0.701327806404;0.712838907443;6.33784566162e-07;-1.57652743837e-06;0.0;0.0;0.0;0.0;-1.57652743837e-06;5.82524792492e-06;0.0;0.0;0.0;0.0;0.0;0.0;0.0;0.0;0.0;0.0;0.0;0.0;0.0;0.0;0.0;0.0;0.0;0.0;0.0;0.0;0.0;0.0;0.0;0.0;0.0;0.0;0.0;1.33536111504e-08
333350000000;184;333350000000;map;36.9302557603;7.55607921122;0.0;0.0;0.0;0.701327224954;0.712839479503;6.84596443534e-07;-1.62921452329e-06;0.0;0.0;0.0;0.0;-1.62921446645e-06;5.81318088422e-06;0.0;0.0;0.0;0.0;0.0;0.0;0.0;0.0;0.0;0.0;0.0;0.0;0.0;0.0;0.0;0.0;0.0;0.0;0.0;0.0;0.0;0.0;0.0;0.0;0.0;0.0;0.0;1.35590006349e-08
333851000000;185;333851000000;map;36.9343269005;7.80655582534;0.0;0.0;0.0;0.701327522474;0.712839186788;7.27472524886e-07;-1.66321694905e-06;0.0;0.0;0.0;0.0;-1.6632170059e-06;5.73282926553e-06;0.0;0.0;0.0;0.0;0.0;0.0;0.0;0.0;0.0;0.0;0.0;0.0;0.0;0.0;0.0;0.0;0.0;0.0;0.0;0.0;0.0;0.0;0.0;0.0;0.0;0.0;0.0;1.3527804922e-08
334352000000;186;334352000000;map;36.9383858941;8.05706621439;0.0;0.0;0.0;0.701328375256;0.712838347777;7.77866716817e-07;-1.7070216245e-06;0.0;0.0;0.0;0.0;-1.7070216245e-06;5.68152428571e-06;0.0;0.0;0.0;0.0;0.0;0.0;0.0;0.0;0.0;0.0;0.0;0.0;0.0;0.0;0.0;0.0;0.0;0.0;0.0;0.0;0.0;0.0;0.0;0.0;0.0;0.0;0.0;1.37508744864e-08
