%time;field.header.seq;field.header.stamp;field.header.frame_id;field.pose.pose.position.x;field.pose.pose.position.y;field.pose.pose.position.z;field.pose.pose.orientation.x;field.pose.pose.orientation.y;field.pose.pose.orientation.z;field.pose.pose.orientation.w;field.pose.covariance0;field.pose.covariance1;field.pose.covariance2;field.pose.covariance3;field.pose.covariance4;field.pose.covariance5;field.pose.covariance6;field.pose.covariance7;field.pose.covariance8;field.pose.covariance9;field.pose.covariance10;field.pose.covariance11;field.pose.covariance12;field.pose.covariance13;field.pose.covariance14;field.pose.covariance15;field.pose.covariance16;field.pose.covariance17;field.pose.covariance18;field.pose.covariance19;field.pose.covariance20;field.pose.covariance21;field.pose.covariance22;field.pose.covariance23;field.pose.covariance24;field.pose.covariance25;field.pose.covariance26;field.pose.covariance27;field.pose.covariance28;field.pose.covariance29;field.pose.covariance30;field.pose.covariance31;field.pose.covariance32;field.pose.covariance33;field.pose.covariance34;field.pose.covariance35
237600000000;5;237600000000;map;1.26097002284;-0.0113357008673;0.0;0.0;0.0;-0.00300716944413;0.999995478456;0.113563882598;0.000206351953507;0.0;0.0;0.0;0.0;0.000206351953507;0.0182057494069;0.0;0.0;0.0;0.0;0.0;0.0;0.0;0.0;0.0;0.0;0.0;0.0;0.0;0.0;0.0;0.0;0.0;0.0;0.0;0.0;0.0;0.0;0.0;0.0;0.0;0.0;0.0;0.00497875070664
238104000000;6;238104000000;map;1.51741570397;-0.0114346224111;0.0;0.0;0.0;-0.00320193249285;0.999994873801;0.093947039486;0.000836781461071;0.0;0.0;0.0;0.0;0.000836781461071;0.0126127547493;0.0;0.0;0.0;0.0;0.0;0.0;0.0;0.0;0.0;0.0;0.0;0.0;0.0;0.0;0.0;0.0;0.0;0.0;0.0;0.0;0.0;0.0;0.0;0.0;0.0;0.0;0.0;0.00276765355419
238605000000;7;238605000000;map;1.771975335;-0.0113933077462;0.0;0.0;0.0;-0.00261287407115;0.999996586439;0.0790637109356;0.00050914509904;0.0;0.0;0.0;0.0;0.00050914509904;0.00814398601294;0.0;0.0;0.0;0.0;0.0;0.0;0.0;0.0;0.0;0.0;0.0;0.0;0.0;0.0;0.0;0.0;0.0;0.0;0.0;0.0;0.0;0.0;0.0;0.0;0.0;0.0;0.0;0.00140984616363
239106000000;8;239106000000;map;2.02350334519;-0.0110184957373;0.0;0.0;0.0;-0.0022453203557;0.999997479265;0.0638152446034;8.49802490542e-05;0.0;0.0;0.0;0.0;8.49802490542e-05;0.00575299118878;0.0;0.0;0.0;0.0;0.0;0.0;0.0;0.0;0.0;0.0;0.0;0.0;0.0;0.0;0.0;0.0;0.0;0.0;0.0;0.0;0.0;0.0;0.0;0.0;0.0;0.0;0.0;0.000834980108811
239609000000;9;239609000000;map;2.271699653;-0.0111586393525;0.0;0.0;0.0;-0.00196536770071;0.999998068663;0.0517502854058;-8.01355605939e-05;0.0;0.0;0.0;0.0;-8.01355605939e-05;0.00417767685795;0.0;0.0;0.0;0.0;0.0;0.0;0.0;0.0;0.0;0.0;0.0;0.0;0.0;0.0;0.0;0.0;0.0;0.0;0.0;0.0;0.0;0.0;0.0;0.0;0.0;0.0;0.0;0.000498383526134
240117000000;10;240117000000;map;2.52585401957;-0.0123002190668;0.0;0.0;0.0;-0.00188947437649;0.999998214942;0.0448659307863;-7.36600456387e-05;0.0;0.0;0.0;0.0;-7.36600456388e-05;0.00341079196549;0.0;0.0;0.0;0.0;0.0;0.0;0.0;0.0;0.0;0.0;0.0;0.0;0.0;0.0;0.0;0.0;0.0;0.0;0.0;0.0;0.0;0.0;0.0;0.0;0.0;0.0;0.0;0.000338503167781
240618000000;11;240618000000;map;2.77166035598;-0.0118059846209;0.0;0.0;0.0;-0.00178074706011;0.999998414469;0.0313777792883;-0.000347491875317;0.0;0.0;0.0;0.0;-0.000347491875317;0.00272827668;0.0;0.0;0.0;0.0;0.0;0.0;0.0;0.0;0.0;0.0;0.0;0.0;0.0;0.0;0.0;0.0;0.0;0.0;0.0;0.0;0.0;0.0;0.0;0.0;0.0;0.0;0.0;0.000247646559788
241124000000;12;241124000000;map;3.02374685817;-0.0118649774481;0.0;0.0;0.0;-0.00184627601307;0.999998295631;0.0229018905497;-0.000363176630402;0.0;0.0;0.0;0.0;-0.000363176630402;0.00233694975242;0.0;0.0;0.0;0.0;0.0;0.0;0.0;0.0;0.0;0.0;0.0;0.0;0.0;0.0;0.0;0.0;0.0;0.0;0.0;0.0;0.0;0.0;0.0;0.0;0.0;0.0;0.0;0.000195099745636
241630000000;13;241630000000;map;3.27515840884;-0.0106844724597;0.0;0.0;0.0;-0.00189378220038;0.999998206793;0.018219054511;-0.000247534067097;0.0;0.0;0.0;0.0;-0.000247534067097;0.00197157790241;0.0;0.0;0.0;0.0;0.0;0.0;0.0;0.0;0.0;0.0;0.0;0.0;0.0;0.0;0.0;0.0;0.0;0.0;0.0;0.0;0.0;0.0;0.0;0.0;0.0;0.0;0.0;0.000154343809767
242132000000;14;242132000000;map;3.52341890147;-0.0109697395527;0.0;0.0;0.0;-0.00186536125978;0.999998260212;0.0152950377176;-0.000284094017256;0.0;0.0;0.0;0.0;-0.000284094017256;0.00180488840578;0.0;0.0;0.0;0.0;0.0;0.0;0.0;0.0;0.0;0.0;0.0;0.0;0.0;0.0;0.0;0.0;0.0;0.0;0.0;0.0;0.0;0.0;0.0;0.0;0.0;0.0;0.0;0.000126784080669
242635000000;15;242635000000;map;3.77395201384;-0.0102844120767;0.0;0.0;0.0;-0.00188906885368;0.999998215708;0.0126105709026;-0.000340187918333;0.0;0.0;0.0;0.0;-0.000340187918333;0.00154638050508;0.0;0.0;0.0;0.0;0.0;0.0;0.0;0.0;0.0;0.0;0.0;0.0;0.0;0.0;0.0;0.0;0.0;0.0;0.0;0.0;0.0;0.0;0.0;0.0;0.0;0.0;0.0;0.000101490023317
243144000000;16;243144000000;map;4.02629184036;-0.0102958165704;0.0;0.0;0.0;-0.00174932530017;0.999998469929;0.00907707226841;-0.000307574386821;0.0;0.0;0.0;0.0;-0.000307574386821;0.00133399768475;0.0;0.0;0.0;0.0;0.0;0.0;0.0;0.0;0.0;0.0;0.0;0.0;0.0;0.0;0.0;0.0;0.0;0.0;0.0;0.0;0.0;0.0;0.0;0.0;0.0;0.0;0.0;8.63246232153e-05
243647000000;17;243647000000;map;4.27642522893;-0.0102404235066;0.0;0.0;0.0;-0.00172371955369;0.999998514394;0.00751391520842;-0.000163152680296;0.0;0.0;0.0;0.0;-0.000163152680296;0.0012804986094;0.0;0.0;0.0;0.0;0.0;0.0;0.0;0.0;0.0;0.0;0.0;0.0;0.0;0.0;0.0;0.0;0.0;0.0;0.0;0.0;0.0;0.0;0.0;0.0;0.0;0.0;0.0;6.96929623076e-05
244154000000;18;244154000000;map;4.52581955056;-0.0105873320914;0.0;0.0;0.0;-0.00172414079514;0.999998513668;0.00661235890875;-0.000136380420536;0.0;0.0;0.0;0.0;-0.000136380420536;0.00115758417315;0.0;0.0;0.0;0.0;0.0;0.0;0.0;0.0;0.0;0.0;0.0;0.0;0.0;0.0;0.0;0.0;0.0;0.0;0.0;0.0;0.0;0.0;0.0;0.0;0.0;0.0;0.0;5.83760215756e-05
244659000000;19;244659000000;map;4.77774447912;-0.0108020573812;0.0;0.0;0.0;-0.00165227217357;0.999998634997;0.00569085827428;-0.000127062419402;0.0;0.0;0.0;0.0;-0.000127062419402;0.0010649008529;0.0;0.0;0.0;0.0;0.0;0.0;0.0;0.0;0.0;0.0;0.0;0.0;0.0;0.0;0.0;0.0;0.0;0.0;0.0;0.0;0.0;0.0;0.0;0.0;0.0;0.0;0.0;4.83608666017e-05
245180000000;20;245180000000;map;5.03481532668;-0.0113065830653;0.0;0.0;0.0;-0.00154242597793;0.99999881046;0.00496264342322;-0.000134179929543;0.0;0.0;0.0;0.0;-0.000134179929543;0.000947456069703;0.0;0.0;0.0;0.0;0.0;0.0;0.0;0.0;0.0;0.0;0.0;0.0;0.0;0.0;0.0;0.0;0.0;0.0;0.0;0.0;0.0;0.0;0.0;0.0;0.0;0.0;0.0;3.89694468216e-05
245684000000;21;245684000000;map;5.28515451626;-0.0115174431501;0.0;0.0;0.0;-0.00146388192122;0.999998928524;0.00404788463384;-0.000158528473531;0.0;0.0;0.0;0.0;-0.000158528473531;0.00084294063797;0.0;0.0;0.0;0.0;0.0;0.0;0.0;0.0;0.0;0.0;0.0;0.0;0.0;0.0;0.0;0.0;0.0;0.0;0.0;0.0;0.0;0.0;0.0;0.0;0.0;0.0;0.0;3.30208898702e-05
246187000000;22;246187000000;map;5.5355386069;-0.0120194158516;0.0;0.0;0.0;-0.00144591768973;0.99999895466;0.00358128077822;-0.000175664953017;0.0;0.0;0.0;0.0;-0.000175664953017;0.000816326224626;0.0;0.0;0.0;0.0;0.0;0.0;0.0;0.0;0.0;0.0;0.0;0.0;0.0;0.0;0.0;0.0;0.0;0.0;0.0;0.0;0.0;0.0;0.0;0.0;0.0;0.0;0.0;2.86825222495e-05
246706000000;23;246706000000;map;5.79345008343;-0.0125383382843;0.0;0.0;0.0;-0.00137714341415;0.999999051738;0.00304252127395;-0.000223075480962;0.0;0.0;0.0;0.0;-0.000223075480962;0.000796598644071;0.0;0.0;0.0;0.0;0.0;0.0;0.0;0.0;0.0;0.0;0.0;0.0;0.0;0.0;0.0;0.0;0.0;0.0;0.0;0.0;0.0;0.0;0.0;0.0;0.0;0.0;0.0;2.586466426e-05
247211000000;24;247211000000;map;6.04399566748;-0.0133333956657;0.0;0.0;0.0;-0.00130181307137;0.999999152641;0.00286240745326;-0.000269728241617;0.0;0.0;0.0;0.0;-0.000269728241617;0.000737269429925;0.0;0.0;0.0;0.0;0.0;0.0;0.0;0.0;0.0;0.0;0.0;0.0;0.0;0.0;0.0;0.0;0.0;0.0;0.0;0.0;0.0;0.0;0.0;0.0;0.0;0.0;0.0;2.40187007436e-05
247712000000;25;247712000000;map;6.29227628483;-0.0135820546799;0.0;0.0;0.0;-0.0012658036042;0.99999919887;0.00241924806872;-0.00022503590829;0.0;0.0;0.0;0.0;-0.00022503590829;0.000635982764384;0.0;0.0;0.0;0.0;0.0;0.0;0.0;0.0;0.0;0.0;0.0;0.0;0.0;0.0;0.0;0.0;0.0;0.0;0.0;0.0;0.0;0.0;0.0;0.0;0.0;0.0;0.0;1.99963877074e-05
248219000000;26;248219000000;map;6.54393584656;-0.0135680386135;0.0;0.0;0.0;-0.00120886418454;0.999999269323;0.00216774204826;-0.000181332086677;0.0;0.0;0.0;0.0;-0.000181332086677;0.000630164270681;0.0;0.0;0.0;0.0;0.0;0.0;0.0;0.0;0.0;0.0;0.0;0.0;0.0;0.0;0.0;0.0;0.0;0.0;0.0;0.0;0.0;0.0;0.0;0.0;0.0;0.0;0.0;1.7347627684e-05
248722000000;27;248722000000;map;6.7933517582;-0.0140284000966;0.0;0.0;0.0;-0.00116546655108;0.999999320844;0.00188521648678;-0.000171718448768;0.0;0.0;0.0;0.0;-0.000171718448768;0.000606237706299;0.0;0.0;0.0;0.0;0.0;0.0;0.0;0.0;0.0;0.0;0.0;0.0;0.0;0.0;0.0;0.0;0.0;0.0;0.0;0.0;0.0;0.0;0.0;0.0;0.0;0.0;0.0;1.52058943506e-05
249241000000;28;249241000000;map;7.05246932705;-0.0140372696316;0.0;0.0;0.0;-0.00112680140296;0.999999365159;0.00183785300724;-0.000167752015107;0.0;0.0;0.0;0.0;-0.000167752015107;0.000572894701148;0.0;0.0;0.0;0.0;0.0;0.0;0.0;0.0;0.0;0.0;0.0;0.0;0.0;0.0;0.0;0.0;0.0;0.0;0.0;0.0;0.0;0.0;0.0;0.0;0.0;0.0;0.0;1.35852790931e-05
249750000000;29;249750000000;map;7.30602745599;-0.014710330416;0.0;0.0;0.0;-0.00109764973422;0.999999397582;0.00180282975998;-0.000191350540227;0.0;0.0;0.0;0.0;-0.000191350540227;0.000545996785569;0.0;0.0;0.0;0.0;0.0;0.0;0.0;0.0;0.0;0.0;0.0;0.0;0.0;0.0;0.0;0.0;0.0;0.0;0.0;0.0;0.0;0.0;0.0;0.0;0.0;0.0;0.0;1.23260377494e-05
250254000000;30;250254000000;map;7.55697316766;-0.0152168309835;0.0;0.0;0.0;-0.00107324774754;0.999999424069;0.00168012056552;-0.000194091605261;0.0;0.0;0.0;0.0;-0.000194091605261;0.000520454899958;0.0;0.0;0.0;0.0;0.0;0.0;0.0;0.0;0.0;0.0;0.0;0.0;0.0;0.0;0.0;0.0;0.0;0.0;0.0;0.0;0.0;0.0;0.0;0.0;0.0;0.0;0.0;1.12498743761e-05
250771000000;31;250771000000;map;7.81338734847;-0.0154487107164;0.0;0.0;0.0;-0.00101490552522;0.999999484983;0.00144884683538;-0.000163187721271;0.0;0.0;0.0;0.0;-0.000163187721271;0.000460059354838;0.0;0.0;0.0;0.0;0.0;0.0;0.0;0.0;0.0;0.0;0.0;0.0;0.0;0.0;0.0;0.0;0.0;0.0;0.0;0.0;0.0;0.0;0.0;0.0;0.0;0.0;0.0;9.68136552085e-06
251272000000;32;251272000000;map;8.06230180663;-0.0154656660338;0.0;0.0;0.0;-0.000960359017071;0.999999538855;0.0012559443589;-0.000116323213028;0.0;0.0;0.0;0.0;-0.000116323213028;0.000406376004466;0.0;0.0;0.0;0.0;0.0;0.0;0.0;0.0;0.0;0.0;0.0;0.0;0.0;0.0;0.0;0.0;0.0;0.0;0.0;0.0;0.0;0.0;0.0;0.0;0.0;0.0;0.0;8.52329544446e-06
251772000000;33;251772000000;map;8.3118915769;-0.0163407751942;0.0;0.0;0.0;-0.000969643012087;0.999999529896;0.00127071254761;-0.000160969780727;0.0;0.0;0.0;0.0;-0.000160969780727;0.000380785076284;0.0;0.0;0.0;0.0;0.0;0.0;0.0;0.0;0.0;0.0;0.0;0.0;0.0;0.0;0.0;0.0;0.0;0.0;0.0;0.0;0.0;0.0;0.0;0.0;0.0;0.0;0.0;7.9934182462e-06
252291000000;34;252291000000;map;8.5704160091;-0.0168867823188;0.0;0.0;0.0;-0.000944903568196;0.999999553579;0.00119359259489;-0.0001664308139;0.0;0.0;0.0;0.0;-0.0001664308139;0.000356075444936;0.0;0.0;0.0;0.0;0.0;0.0;0.0;0.0;0.0;0.0;0.0;0.0;0.0;0.0;0.0;0.0;0.0;0.0;0.0;0.0;0.0;0.0;0.0;0.0;0.0;0.0;0.0;7.17519999753e-06
252796000000;35;252796000000;map;8.82207243601;-0.0171915694474;0.0;0.0;0.0;-0.000919812878407;0.999999576972;0.00111453344927;-0.000152562872169;0.0;0.0;0.0;0.0;-0.000152562872169;0.000333741608298;0.0;0.0;0.0;0.0;0.0;0.0;0.0;0.0;0.0;0.0;0.0;0.0;0.0;0.0;0.0;0.0;0.0;0.0;0.0;0.0;0.0;0.0;0.0;0.0;0.0;0.0;0.0;6.30962956763e-06
253297000000;36;253297000000;map;9.07147686105;-0.0177680439692;0.0;0.0;0.0;-0.000892624005636;0.999999601611;0.000994922175636;-0.000159203639368;0.0;0.0;0.0;0.0;-0.000159203639368;0.000319901980172;0.0;0.0;0.0;0.0;0.0;0.0;0.0;0.0;0.0;0.0;0.0;0.0;0.0;0.0;0.0;0.0;0.0;0.0;0.0;0.0;0.0;0.0;0.0;0.0;0.0;0.0;0.0;5.68156971143e-06
253800000000;37;253800000000;map;9.32200032526;-0.0183651109776;0.0;0.0;0.0;-0.000866535145237;0.999999624558;0.00090548856555;-0.000168455366307;0.0;0.0;0.0;0.0;-0.000168455366307;0.000279562878557;0.0;0.0;0.0;0.0;0.0;0.0;0.0;0.0;0.0;0.0;0.0;0.0;0.0;0.0;0.0;0.0;0.0;0.0;0.0;0.0;0.0;0.0;0.0;0.0;0.0;0.0;0.0;4.92455756118e-06
254303000000;38;254303000000;map;9.57317883585;-0.0192096184978;0.0;0.0;0.0;-0.000871587822747;0.999999620167;0.000884175983003;-0.00020865856744;0.0;0.0;0.0;0.0;-0.00020865856744;0.000285955772201;0.0;0.0;0.0;0.0;0.0;0.0;0.0;0.0;0.0;0.0;0.0;0.0;0.0;0.0;0.0;0.0;0.0;0.0;0.0;0.0;0.0;0.0;0.0;0.0;0.0;0.0;0.0;5.03668320473e-06
254824000000;39;254824000000;map;9.83255048487;-0.019278780474;0.0;0.0;0.0;-0.000846689056935;0.999999641559;0.000724241079141;-0.000157790139102;0.0;0.0;0.0;0.0;-0.000157790139102;0.000258833874585;0.0;0.0;0.0;0.0;0.0;0.0;0.0;0.0;0.0;0.0;0.0;0.0;0.0;0.0;0.0;0.0;0.0;0.0;0.0;0.0;0.0;0.0;0.0;0.0;0.0;0.0;0.0;4.13277927107e-06
255330000000;40;255330000000;map;10.0846324708;-0.0197038053427;0.0;0.0;0.0;-0.000827976453624;0.999999657227;0.000611834785786;-0.000145930156551;0.0;0.0;0.0;0.0;-0.000145930156551;0.000230201596145;0.0;0.0;0.0;0.0;0.0;0.0;0.0;0.0;0.0;0.0;0.0;0.0;0.0;0.0;0.0;0.0;0.0;0.0;0.0;0.0;0.0;0.0;0.0;0.0;0.0;0.0;0.0;3.49619039569e-06
255834000000;41;255834000000;map;10.3362551886;-0.0202253021196;0.0;0.0;0.0;-0.000831481940761;0.999999654319;0.000581083515769;-0.000155478371899;0.0;0.0;0.0;0.0;-0.000155478371899;0.000218390567928;0.0;0.0;0.0;0.0;0.0;0.0;0.0;0.0;0.0;0.0;0.0;0.0;0.0;0.0;0.0;0.0;0.0;0.0;0.0;0.0;0.0;0.0;0.0;0.0;0.0;0.0;0.0;3.21504149988e-06
256343000000;42;256343000000;map;10.5895173856;-0.0205993388287;0.0;0.0;0.0;-0.0008103995835;0.999999671626;0.000411382093645;-0.000121401040647;0.0;0.0;0.0;0.0;-0.000121401040647;0.000173329232136;0.0;0.0;0.0;0.0;0.0;0.0;0.0;0.0;0.0;0.0;0.0;0.0;0.0;0.0;0.0;0.0;0.0;0.0;0.0;0.0;0.0;0.0;0.0;0.0;0.0;0.0;0.0;2.49975274135e-06
256862000000;43;256862000000;map;10.8487031051;-0.0207146891853;0.0;0.0;0.0;-0.000794393716844;0.999999684469;0.000374197535479;-0.000101093479675;0.0;0.0;0.0;0.0;-0.000101093479675;0.000166686968171;0.0;0.0;0.0;0.0;0.0;0.0;0.0;0.0;0.0;0.0;0.0;0.0;0.0;0.0;0.0;0.0;0.0;0.0;0.0;0.0;0.0;0.0;0.0;0.0;0.0;0.0;0.0;1.97077212281e-06
257368000000;44;257368000000;map;11.1009598379;-0.021044739173;0.0;0.0;0.0;-0.000779139418065;0.999999696471;0.000266330876755;-7.43846126023e-05;0.0;0.0;0.0;0.0;-7.43846126022e-05;0.000137513656894;0.0;0.0;0.0;0.0;0.0;0.0;0.0;0.0;0.0;0.0;0.0;0.0;0.0;0.0;0.0;0.0;0.0;0.0;0.0;0.0;0.0;0.0;0.0;0.0;0.0;0.0;0.0;1.52864780899e-06
257876000000;45;257876000000;map;11.3549068336;-0.0215736731225;0.0;0.0;0.0;-0.000779927932174;0.999999695856;0.00027578006933;-9.13468314891e-05;0.0;0.0;0.0;0.0;-9.13468314891e-05;0.000133367519089;0.0;0.0;0.0;0.0;0.0;0.0;0.0;0.0;0.0;0.0;0.0;0.0;0.0;0.0;0.0;0.0;0.0;0.0;0.0;0.0;0.0;0.0;0.0;0.0;0.0;0.0;0.0;1.43747228686e-06
258376000000;46;258376000000;map;11.6045040565;-0.0220395722033;0.0;0.0;0.0;-0.000777717914506;0.999999697577;0.000220782361538;-8.54240332798e-05;0.0;0.0;0.0;0.0;-8.54240332798e-05;0.00011927544019;0.0;0.0;0.0;0.0;0.0;0.0;0.0;0.0;0.0;0.0;0.0;0.0;0.0;0.0;0.0;0.0;0.0;0.0;0.0;0.0;0.0;0.0;0.0;0.0;0.0;0.0;0.0;1.30412845609e-06
258880000000;47;258880000000;map;11.8564885771;-0.0224590887763;0.0;0.0;0.0;-0.000774386450553;0.999999700163;0.000243118567141;-9.79769703007e-05;0.0;0.0;0.0;0.0;-9.79769703007e-05;0.000102248235258;0.0;0.0;0.0;0.0;0.0;0.0;0.0;0.0;0.0;0.0;0.0;0.0;0.0;0.0;0.0;0.0;0.0;0.0;0.0;0.0;0.0;0.0;0.0;0.0;0.0;0.0;0.0;1.08158392933e-06
259388000000;48;259388000000;map;12.1105377026;-0.0230016709966;0.0;0.0;0.0;-0.000777824854962;0.999999697494;0.000264840170672;-0.000119821138567;0.0;0.0;0.0;0.0;-0.000119821138567;0.000106669483737;0.0;0.0;0.0;0.0;0.0;0.0;0.0;0.0;0.0;0.0;0.0;0.0;0.0;0.0;0.0;0.0;0.0;0.0;0.0;0.0;0.0;0.0;0.0;0.0;0.0;0.0;0.0;1.0715605598e-06
259890000000;49;259890000000;map;12.3611842278;-0.023199292425;0.0;0.0;0.0;-0.000768873122071;0.999999704417;0.000193627154601;-8.85750766729e-05;0.0;0.0;0.0;0.0;-8.85750766729e-05;0.000106088042694;0.0;0.0;0.0;0.0;0.0;0.0;0.0;0.0;0.0;0.0;0.0;0.0;0.0;0.0;0.0;0.0;0.0;0.0;0.0;0.0;0.0;0.0;0.0;0.0;0.0;0.0;0.0;9.65452516255e-07
260391000000;50;260391000000;map;12.6114673148;-0.0235307293552;0.0;0.0;0.0;-0.000762992927632;0.999999708921;0.000173624607413;-8.10947037777e-05;0.0;0.0;0.0;0.0;-8.10947037777e-05;8.11673805925e-05;0.0;0.0;0.0;0.0;0.0;0.0;0.0;0.0;0.0;0.0;0.0;0.0;0.0;0.0;0.0;0.0;0.0;0.0;0.0;0.0;0.0;0.0;0.0;0.0;0.0;0.0;0.0;7.27130782315e-07
260897000000;51;260897000000;map;12.8643218285;-0.0238289558695;0.0;0.0;0.0;-0.000759252146658;0.999999711768;0.000147810955497;-6.69544391816e-05;0.0;0.0;0.0;0.0;-6.69544391816e-05;6.53856997805e-05;0.0;0.0;0.0;0.0;0.0;0.0;0.0;0.0;0.0;0.0;0.0;0.0;0.0;0.0;0.0;0.0;0.0;0.0;0.0;0.0;0.0;0.0;0.0;0.0;0.0;0.0;0.0;6.11716957379e-07
261403000000;52;261403000000;map;13.1174435447;-0.0242859283883;0.0;0.0;0.0;-0.000762594576776;0.999999709225;0.00017094376966;-8.0368837671e-05;0.0;0.0;0.0;0.0;-8.03688376709e-05;7.06646439241e-05;0.0;0.0;0.0;0.0;0.0;0.0;0.0;0.0;0.0;0.0;0.0;0.0;0.0;0.0;0.0;0.0;0.0;0.0;0.0;0.0;0.0;0.0;0.0;0.0;0.0;0.0;0.0;6.46911545484e-07
261904000000;53;261904000000;map;13.3678310422;-0.0246579178954;0.0;0.0;0.0;-0.000762527821738;0.999999709276;0.000146777458127;-7.31895214214e-05;0.0;0.0;0.0;0.0;-7.31895214214e-05;7.49992021324e-05;0.0;0.0;0.0;0.0;0.0;0.0;0.0;0.0;0.0;0.0;0.0;0.0;0.0;0.0;0.0;0.0;0.0;0.0;0.0;0.0;0.0;0.0;0.0;0.0;0.0;0.0;0.0;6.70124348146e-07
262410000000;54;262410000000;map;13.6207049958;-0.025129530831;0.0;0.0;0.0;-0.000764472383432;0.999999707791;0.000127764305716;-7.49279636616e-05;0.0;0.0;0.0;0.0;-7.49279636617e-05;7.65262917152e-05;0.0;0.0;0.0;0.0;0.0;0.0;0.0;0.0;0.0;0.0;0.0;0.0;0.0;0.0;0.0;0.0;0.0;0.0;0.0;0.0;0.0;0.0;0.0;0.0;0.0;0.0;0.0;6.94833406051e-07
262911000000;55;262911000000;map;13.8712587035;-0.0254609210606;0.0;0.0;0.0;-0.000761595303931;0.999999709986;0.000141407453356;-7.96908983144e-05;0.0;0.0;0.0;0.0;-7.96908983144e-05;7.87560581459e-05;0.0;0.0;0.0;0.0;0.0;0.0;0.0;0.0;0.0;0.0;0.0;0.0;0.0;0.0;0.0;0.0;0.0;0.0;0.0;0.0;0.0;0.0;0.0;0.0;0.0;0.0;0.0;6.3225776727e-07
263413000000;56;263413000000;map;14.1218769346;-0.025574341008;0.0;0.0;0.0;-0.000750627930912;0.999999718279;7.44707851368e-05;-3.91263241655e-05;0.0;0.0;0.0;0.0;-3.91263241655e-05;5.46849494158e-05;0.0;0.0;0.0;0.0;0.0;0.0;0.0;0.0;0.0;0.0;0.0;0.0;0.0;0.0;0.0;0.0;0.0;0.0;0.0;0.0;0.0;0.0;0.0;0.0;0.0;0.0;0.0;4.15588775051e-07
263915000000;57;263915000000;map;14.3728926551;-0.0259173464071;0.0;0.0;0.0;-0.000751328364256;0.999999717753;7.05267186731e-05;-3.42610559128e-05;0.0;0.0;0.0;0.0;-3.42610559128e-05;5.43574394293e-05;0.0;0.0;0.0;0.0;0.0;0.0;0.0;0.0;0.0;0.0;0.0;0.0;0.0;0.0;0.0;0.0;0.0;0.0;0.0;0.0;0.0;0.0;0.0;0.0;0.0;0.0;0.0;4.38689467125e-07
264419000000;58;264419000000;map;14.62476625;-0.026217532156;0.0;0.0;0.0;-0.000746500551259;0.999999721368;5.62595513998e-05;-2.62885377673e-05;0.0;0.0;0.0;0.0;-2.62885377673e-05;4.45880972502e-05;0.0;0.0;0.0;0.0;0.0;0.0;0.0;0.0;0.0;0.0;0.0;0.0;0.0;0.0;0.0;0.0;0.0;0.0;0.0;0.0;0.0;0.0;0.0;0.0;0.0;0.0;0.0;3.32830100085e-07
264940000000;59;264940000000;map;14.8851372741;-0.0264345176761;0.0;0.0;0.0;-0.000738778151956;0.999999727103;3.96911832468e-05;-1.18551664031e-05;0.0;0.0;0.0;0.0;-1.18551664031e-05;3.33165518754e-05;0.0;0.0;0.0;0.0;0.0;0.0;0.0;0.0;0.0;0.0;0.0;0.0;0.0;0.0;0.0;0.0;0.0;0.0;0.0;0.0;0.0;0.0;0.0;0.0;0.0;0.0;0.0;1.87332949933e-07
265455000000;60;265455000000;map;15.1426053204;-0.0268563751863;0.0;0.0;0.0;-0.00074071316217;0.999999725672;3.74837781294e-05;-1.22905924244e-05;0.0;0.0;0.0;0.0;-1.22905924244e-05;2.28883511912e-05;0.0;0.0;0.0;0.0;0.0;0.0;0.0;0.0;0.0;0.0;0.0;0.0;0.0;0.0;0.0;0.0;0.0;0.0;0.0;0.0;0.0;0.0;0.0;0.0;0.0;0.0;0.0;1.84054984174e-07
265957000000;61;265957000000;map;15.3936056043;-0.0272439908141;0.0;0.0;0.0;-0.000740668950188;0.999999725705;4.0691117448e-05;-1.59107631856e-05;0.0;0.0;0.0;0.0;-1.59107631856e-05;1.88052489895e-05;0.0;0.0;0.0;0.0;0.0;0.0;0.0;0.0;0.0;0.0;0.0;0.0;0.0;0.0;0.0;0.0;0.0;0.0;0.0;0.0;0.0;0.0;0.0;0.0;0.0;0.0;0.0;1.63213050184e-07
266465000000;62;266465000000;map;15.6475606501;-0.0276237221073;0.0;0.0;0.0;-0.000740866815902;0.999999725558;3.46794008692e-05;-1.38058090896e-05;0.0;0.0;0.0;0.0;-1.38058090896e-05;1.58221632013e-05;0.0;0.0;0.0;0.0;0.0;0.0;0.0;0.0;0.0;0.0;0.0;0.0;0.0;0.0;0.0;0.0;0.0;0.0;0.0;0.0;0.0;0.0;0.0;0.0;0.0;0.0;0.0;1.47715550806e-07
266966000000;63;266966000000;map;15.8980143706;-0.0279557224425;0.0;0.0;0.0;-0.000738217542018;0.999999727517;2.61891171647e-05;-8.79342303173e-06;0.0;0.0;0.0;0.0;-8.79342303173e-06;1.56575735157e-05;0.0;0.0;0.0;0.0;0.0;0.0;0.0;0.0;0.0;0.0;0.0;0.0;0.0;0.0;0.0;0.0;0.0;0.0;0.0;0.0;0.0;0.0;0.0;0.0;0.0;0.0;0.0;1.03488950755e-07
267471000000;64;267471000000;map;16.1505328099;-0.0283149679077;0.0;0.0;0.0;-0.000737839871066;0.999999727796;2.67846026532e-05;-8.18925751633e-06;0.0;0.0;0.0;0.0;-8.18925751628e-06;1.77188184867e-05;0.0;0.0;0.0;0.0;0.0;0.0;0.0;0.0;0.0;0.0;0.0;0.0;0.0;0.0;0.0;0.0;0.0;0.0;0.0;0.0;0.0;0.0;0.0;0.0;0.0;0.0;0.0;1.05755948797e-07
267972000000;65;267972000000;map;16.4010041072;-0.0286882273799;0.0;0.0;0.0;-0.000736593639628;0.999999728715;2.56399041518e-05;-9.9231099705e-06;0.0;0.0;0.0;0.0;-9.9231099705e-06;1.76209231277e-05;0.0;0.0;0.0;0.0;0.0;0.0;0.0;0.0;0.0;0.0;0.0;0.0;0.0;0.0;0.0;0.0;0.0;0.0;0.0;0.0;0.0;0.0;0.0;0.0;0.0;0.0;0.0;8.60352341223e-08
268473000000;66;268473000000;map;16.6515486113;-0.0290864191449;0.0;0.0;0.0;-0.000738436322821;0.999999727356;3.16879117577e-05;-1.40727328741e-05;0.0;0.0;0.0;0.0;-1.40727328741e-05;1.77211010728e-05;0.0;0.0;0.0;0.0;0.0;0.0;0.0;0.0;0.0;0.0;0.0;0.0;0.0;0.0;0.0;0.0;0.0;0.0;0.0;0.0;0.0;0.0;0.0;0.0;0.0;0.0;0.0;1.32823159552e-07
268981000000;67;268981000000;map;16.9054923578;-0.0294178559762;0.0;0.0;0.0;-0.000736569363442;0.999999728733;2.31918725717e-05;-8.85158118819e-06;0.0;0.0;0.0;0.0;-8.85158118819e-06;1.46360696799e-05;0.0;0.0;0.0;0.0;0.0;0.0;0.0;0.0;0.0;0.0;0.0;0.0;0.0;0.0;0.0;0.0;0.0;0.0;0.0;0.0;0.0;0.0;0.0;0.0;0.0;0.0;0.0;1.04376930935e-07
269494000000;68;269494000000;map;17.1619368445;-0.0298241437033;0.0;0.0;0.0;-0.000736807331211;0.999999728557;1.59954838637e-05;-8.06672115194e-06;0.0;0.0;0.0;0.0;-8.06672115194e-06;7.47230089006e-06;0.0;0.0;0.0;0.0;0.0;0.0;0.0;0.0;0.0;0.0;0.0;0.0;0.0;0.0;0.0;0.0;0.0;0.0;0.0;0.0;0.0;0.0;0.0;0.0;0.0;0.0;0.0;8.48111783244e-08
269996000000;69;269996000000;map;17.4129299479;-0.0301358516718;0.0;0.0;0.0;-0.000735063175967;0.999999729841;1.16654932754e-05;-1.71353127654e-06;0.0;0.0;0.0;0.0;-1.71353127654e-06;1.04679748524e-05;0.0;0.0;0.0;0.0;0.0;0.0;0.0;0.0;0.0;0.0;0.0;0.0;0.0;0.0;0.0;0.0;0.0;0.0;0.0;0.0;0.0;0.0;0.0;0.0;0.0;0.0;0.0;6.02119678743e-08
270496000000;70;270496000000;map;17.6629450995;-0.0304268706771;0.0;0.0;0.0;-0.000732984046951;0.999999731367;1.09343963004e-05;3.96581582163e-06;0.0;0.0;0.0;0.0;3.96581582174e-06;1.62619168645e-05;0.0;0.0;0.0;0.0;0.0;0.0;0.0;0.0;0.0;0.0;0.0;0.0;0.0;0.0;0.0;0.0;0.0;0.0;0.0;0.0;0.0;0.0;0.0;0.0;0.0;0.0;0.0;5.33342186421e-08
271011000000;71;271011000000;map;17.9204310821;-0.0307589359683;0.0;0.0;0.0;-0.000731243924749;0.999999732641;8.4981588202e-06;6.87668967547e-06;0.0;0.0;0.0;0.0;6.87668967547e-06;1.70963523406e-05;0.0;0.0;0.0;0.0;0.0;0.0;0.0;0.0;0.0;0.0;0.0;0.0;0.0;0.0;0.0;0.0;0.0;0.0;0.0;0.0;0.0;0.0;0.0;0.0;0.0;0.0;0.0;4.00990975558e-08
271532000000;72;271532000000;map;18.1808878184;-0.0311972217733;0.0;0.0;0.0;-0.000731867714218;0.999999732185;6.21500544185e-06;2.92465725937e-06;0.0;0.0;0.0;0.0;2.92465725937e-06;1.05666788285e-05;0.0;0.0;0.0;0.0;0.0;0.0;0.0;0.0;0.0;0.0;0.0;0.0;0.0;0.0;0.0;0.0;0.0;0.0;0.0;0.0;0.0;0.0;0.0;0.0;0.0;0.0;0.0;3.15988062658e-08
272037000000;73;272037000000;map;18.4333901779;-0.0315526259706;0.0;0.0;0.0;-0.000732040007889;0.999999732059;6.79450215557e-06;3.9204341572e-06;0.0;0.0;0.0;0.0;3.9204341572e-06;1.25723929628e-05;0.0;0.0;0.0;0.0;0.0;0.0;0.0;0.0;0.0;0.0;0.0;0.0;0.0;0.0;0.0;0.0;0.0;0.0;0.0;0.0;0.0;0.0;0.0;0.0;0.0;0.0;0.0;3.38175224019e-08
272542000000;74;272542000000;map;18.6859075152;-0.0318965667599;0.0;0.0;0.0;-0.000731478484828;0.99999973247;7.36341974061e-06;4.93122633149e-06;0.0;0.0;0.0;0.0;4.93122633149e-06;1.46587581144e-05;0.0;0.0;0.0;0.0;0.0;0.0;0.0;0.0;0.0;0.0;0.0;0.0;0.0;0.0;0.0;0.0;0.0;0.0;0.0;0.0;0.0;0.0;0.0;0.0;0.0;0.0;0.0;3.60797188716e-08
273048000000;75;273048000000;map;18.9388831484;-0.0323674125619;0.0;0.0;0.0;-0.000733661239994;0.999999730871;7.51091334905e-06;-2.33658558124e-06;0.0;0.0;0.0;0.0;-2.33658558124e-06;7.46375455734e-06;0.0;0.0;0.0;0.0;0.0;0.0;0.0;0.0;0.0;0.0;0.0;0.0;0.0;0.0;0.0;0.0;0.0;0.0;0.0;0.0;0.0;0.0;0.0;0.0;0.0;0.0;0.0;4.11908877918e-08
273550000000;76;273550000000;map;19.1898697849;-0.0327594374956;0.0;0.0;0.0;-0.000734204955319;0.999999730472;6.3696536472e-06;-4.48606052106e-06;0.0;0.0;0.0;0.0;-4.48606052106e-06;4.00612980379e-06;0.0;0.0;0.0;0.0;0.0;0.0;0.0;0.0;0.0;0.0;0.0;0.0;0.0;0.0;0.0;0.0;0.0;0.0;0.0;0.0;0.0;0.0;0.0;0.0;0.0;0.0;0.0;3.70298910521e-08
274070000000;77;274070000000;map;19.4498763451;-0.0331457159738;0.0;0.0;0.0;-0.000734292817213;0.999999730407;6.37273490156e-06;-4.59419868926e-06;0.0;0.0;0.0;0.0;-4.59419868926e-06;4.20127222241e-06;0.0;0.0;0.0;0.0;0.0;0.0;0.0;0.0;0.0;0.0;0.0;0.0;0.0;0.0;0.0;0.0;0.0;0.0;0.0;0.0;0.0;0.0;0.0;0.0;0.0;0.0;0.0;3.70156648761e-08
274579000000;78;274579000000;map;19.7043473745;-0.0334934243433;0.0;0.0;0.0;-0.00073285202425;0.999999731464;2.36067853621e-06;-1.57244032228e-06;0.0;0.0;0.0;0.0;-1.57244032228e-06;1.97145172828e-06;0.0;0.0;0.0;0.0;0.0;0.0;0.0;0.0;0.0;0.0;0.0;0.0;0.0;0.0;0.0;0.0;0.0;0.0;0.0;0.0;0.0;0.0;0.0;0.0;0.0;0.0;0.0;1.65233731825e-08
275087000000;79;275087000000;map;19.9583324889;-0.0338472638701;0.0;0.0;0.0;-0.000732234465882;0.999999731916;3.55731970103e-07;-5.67032976129e-09;0.0;0.0;0.0;0.0;-5.67032976129e-09;7.77460269228e-07;0.0;0.0;0.0;0.0;0.0;0.0;0.0;0.0;0.0;0.0;0.0;0.0;0.0;0.0;0.0;0.0;0.0;0.0;0.0;0.0;0.0;0.0;0.0;0.0;0.0;0.0;0.0;6.23542884965e-09
275605000000;80;275605000000;map;20.217335863;-0.0342342160967;0.0;0.0;0.0;-0.000732313365335;0.999999731859;3.65856806184e-07;8.46725689563e-10;0.0;0.0;0.0;0.0;8.46725689563e-10;8.14251217111e-07;0.0;0.0;0.0;0.0;0.0;0.0;0.0;0.0;0.0;0.0;0.0;0.0;0.0;0.0;0.0;0.0;0.0;0.0;0.0;0.0;0.0;0.0;0.0;0.0;0.0;0.0;0.0;6.40570753023e-09
276109000000;81;276109000000;map;20.4693249135;-0.0345807625666;0.0;0.0;0.0;-0.000731471192741;0.999999732475;3.75386491669e-07;6.05311678559e-09;0.0;0.0;0.0;0.0;6.05311678559e-09;8.31935613075e-07;0.0;0.0;0.0;0.0;0.0;0.0;0.0;0.0;0.0;0.0;0.0;0.0;0.0;0.0;0.0;0.0;0.0;0.0;0.0;0.0;0.0;0.0;0.0;0.0;0.0;0.0;0.0;6.4357821398e-09
276617000000;82;276617000000;map;20.7233262938;-0.0349427995662;0.0;0.0;0.0;-0.000730887462104;0.999999732902;3.87256591239e-07;7.80727393845e-09;0.0;0.0;0.0;0.0;7.80727393845e-09;8.74217760202e-07;0.0;0.0;0.0;0.0;0.0;0.0;0.0;0.0;0.0;0.0;0.0;0.0;0.0;0.0;0.0;0.0;0.0;0.0;0.0;0.0;0.0;0.0;0.0;0.0;0.0;0.0;0.0;6.53866895031e-09
277120000000;83;277120000000;map;20.9748425933;-0.0353173660212;0.0;0.0;0.0;-0.000731525360447;0.999999732435;3.95348706661e-07;2.95819047036e-09;0.0;0.0;0.0;0.0;2.95819047036e-09;9.24812195983e-07;0.0;0.0;0.0;0.0;0.0;0.0;0.0;0.0;0.0;0.0;0.0;0.0;0.0;0.0;0.0;0.0;0.0;0.0;0.0;0.0;0.0;0.0;0.0;0.0;0.0;0.0;0.0;6.71365941746e-09
277640000000;84;277640000000;map;21.2348526501;-0.0357163866268;0.0;0.0;0.0;-0.000732445577473;0.999999731762;4.11171299675e-07;8.90465368109e-10;0.0;0.0;0.0;0.0;8.90465368109e-10;9.83547289222e-07;0.0;0.0;0.0;0.0;0.0;0.0;0.0;0.0;0.0;0.0;0.0;0.0;0.0;0.0;0.0;0.0;0.0;0.0;0.0;0.0;0.0;0.0;0.0;0.0;0.0;0.0;0.0;6.87992930477e-09
278165000000;85;278165000000;map;21.4973520262;-0.0361045401842;0.0;0.0;0.0;-0.000733037990243;0.999999731328;4.15899023665e-07;2.02165395535e-10;0.0;0.0;0.0;0.0;2.02165395535e-10;1.02519842464e-06;0.0;0.0;0.0;0.0;0.0;0.0;0.0;0.0;0.0;0.0;0.0;0.0;0.0;0.0;0.0;0.0;0.0;0.0;0.0;0.0;0.0;0.0;0.0;0.0;0.0;0.0;0.0;6.85734137317e-09
278667000000;86;278667000000;map;21.7483537821;-0.0364691041618;0.0;0.0;0.0;-0.000732544925125;0.999999731689;4.13006887356e-07;-2.38990116586e-09;0.0;0.0;0.0;0.0;-2.38990127688e-09;1.0693250384e-06;0.0;0.0;0.0;0.0;0.0;0.0;0.0;0.0;0.0;0.0;0.0;0.0;0.0;0.0;0.0;0.0;0.0;0.0;0.0;0.0;0.0;0.0;0.0;0.0;0.0;0.0;0.0;7.00556480721e-09
279175000000;87;279175000000;map;22.0023493692;-0.0368460096051;0.0;0.0;0.0;-0.000732472736721;0.999999731742;4.16808120463e-07;1.945368866e-09;0.0;0.0;0.0;0.0;1.945368866e-09;1.09508625332e-06;0.0;0.0;0.0;0.0;0.0;0.0;0.0;0.0;0.0;0.0;0.0;0.0;0.0;0.0;0.0;0.0;0.0;0.0;0.0;0.0;0.0;0.0;0.0;0.0;0.0;0.0;0.0;6.95299463658e-09
279679000000;88;279679000000;map;22.2543509076;-0.0372072918948;0.0;0.0;0.0;-0.000732237345578;0.999999731914;4.28966700383e-07;2.26622809407e-09;0.0;0.0;0.0;0.0;2.26622809407e-09;1.15414391335e-06;0.0;0.0;0.0;0.0;0.0;0.0;0.0;0.0;0.0;0.0;0.0;0.0;0.0;0.0;0.0;0.0;0.0;0.0;0.0;0.0;0.0;0.0;0.0;0.0;0.0;0.0;0.0;7.03030546126e-09
280185000000;89;280185000000;map;22.507353432;-0.0375717656928;0.0;0.0;0.0;-0.000732034360178;0.999999732063;4.35469132753e-07;3.14085324415e-09;0.0;0.0;0.0;0.0;3.14085324415e-09;1.19809636175e-06;0.0;0.0;0.0;0.0;0.0;0.0;0.0;0.0;0.0;0.0;0.0;0.0;0.0;0.0;0.0;0.0;0.0;0.0;0.0;0.0;0.0;0.0;0.0;0.0;0.0;0.0;0.0;7.21889904713e-09
280690000000;90;280690000000;map;22.759860884;-0.0379357962878;0.0;0.0;0.0;-0.000731757143426;0.999999732266;4.4038267788e-07;2.00807207529e-08;0.0;0.0;0.0;0.0;2.00807207529e-08;1.24043386499e-06;0.0;0.0;0.0;0.0;0.0;0.0;0.0;0.0;0.0;0.0;0.0;0.0;0.0;0.0;0.0;0.0;0.0;0.0;0.0;0.0;0.0;0.0;0.0;0.0;0.0;0.0;0.0;7.26077554955e-09
281193000000;91;281193000000;map;23.0113680539;-0.0383034131193;0.0;0.0;0.0;-0.000731307883823;0.999999732594;4.460632681e-07;2.27423154753e-08;0.0;0.0;0.0;0.0;2.27423153643e-08;1.25901267341e-06;0.0;0.0;0.0;0.0;0.0;0.0;0.0;0.0;0.0;0.0;0.0;0.0;0.0;0.0;0.0;0.0;0.0;0.0;0.0;0.0;0.0;0.0;0.0;0.0;0.0;0.0;0.0;7.32353645736e-09
281700000000;92;281700000000;map;23.2648640511;-0.0386789764454;0.0;0.0;0.0;-0.000731905615062;0.999999732157;4.56462771581e-07;2.74917387744e-08;0.0;0.0;0.0;0.0;2.74917387744e-08;1.30787978118e-06;0.0;0.0;0.0;0.0;0.0;0.0;0.0;0.0;0.0;0.0;0.0;0.0;0.0;0.0;0.0;0.0;0.0;0.0;0.0;0.0;0.0;0.0;0.0;0.0;0.0;0.0;0.0;7.46467111739e-09
282204000000;93;282204000000;map;23.516862806;-0.039041173052;0.0;0.0;0.0;-0.000732435605536;0.999999731769;4.61935883322e-07;2.54280959622e-08;0.0;0.0;0.0;0.0;2.54280958512e-08;1.32858283378e-06;0.0;0.0;0.0;0.0;0.0;0.0;0.0;0.0;0.0;0.0;0.0;0.0;0.0;0.0;0.0;0.0;0.0;0.0;0.0;0.0;0.0;0.0;0.0;0.0;0.0;0.0;0.0;7.44175633612e-09
282708000000;94;282708000000;map;23.7688540295;-0.039397747085;0.0;0.0;0.0;-0.000731997209515;0.99999973209;4.75804426969e-07;4.21025662112e-08;0.0;0.0;0.0;0.0;4.21025663222e-08;1.33853648996e-06;0.0;0.0;0.0;0.0;0.0;0.0;0.0;0.0;0.0;0.0;0.0;0.0;0.0;0.0;0.0;0.0;0.0;0.0;0.0;0.0;0.0;0.0;0.0;0.0;0.0;0.0;0.0;7.4480448614e-09
283216000000;95;283216000000;map;24.0228528547;-0.039786868066;0.0;0.0;0.0;-0.00073266801207;0.999999731599;4.83002395413e-07;5.41154387967e-08;0.0;0.0;0.0;0.0;5.41154387967e-08;1.37059830129e-06;0.0;0.0;0.0;0.0;0.0;0.0;0.0;0.0;0.0;0.0;0.0;0.0;0.0;0.0;0.0;0.0;0.0;0.0;0.0;0.0;0.0;0.0;0.0;0.0;0.0;0.0;0.0;7.41838813977e-09
283718000000;96;283718000000;map;24.2738374301;-0.0401513732859;0.0;0.0;0.0;-0.000732179142181;0.999999731957;4.87740976496e-07;4.92560572329e-08;0.0;0.0;0.0;0.0;4.92560571219e-08;1.3751046725e-06;0.0;0.0;0.0;0.0;0.0;0.0;0.0;0.0;0.0;0.0;0.0;0.0;0.0;0.0;0.0;0.0;0.0;0.0;0.0;0.0;0.0;0.0;0.0;0.0;0.0;0.0;0.0;7.3121182576e-09
284238000000;97;284238000000;map;24.5338262424;-0.0405326656396;0.0;0.0;0.0;-0.000732361582899;0.999999731823;4.83997837364e-07;5.48181204874e-08;0.0;0.0;0.0;0.0;5.48181204874e-08;1.42137540314e-06;0.0;0.0;0.0;0.0;0.0;0.0;0.0;0.0;0.0;0.0;0.0;0.0;0.0;0.0;0.0;0.0;0.0;0.0;0.0;0.0;0.0;0.0;0.0;0.0;0.0;0.0;0.0;7.46031970925e-09
284742000000;98;284742000000;map;24.7858280787;-0.0409197864457;0.0;0.0;0.0;-0.000733255797518;0.999999731168;4.87585111841e-07;5.12814812836e-08;0.0;0.0;0.0;0.0;5.12814812836e-08;1.47749959645e-06;0.0;0.0;0.0;0.0;0.0;0.0;0.0;0.0;0.0;0.0;0.0;0.0;0.0;0.0;0.0;0.0;0.0;0.0;0.0;0.0;0.0;0.0;0.0;0.0;0.0;0.0;0.0;7.48915553198e-09
285261000000;99;285261000000;map;25.0453274651;-0.0413232757573;0.0;0.0;0.0;-0.000734017893174;0.999999730609;4.89493686473e-07;6.68314108498e-08;0.0;0.0;0.0;0.0;6.68314108498e-08;1.52065729305e-06;0.0;0.0;0.0;0.0;0.0;0.0;0.0;0.0;0.0;0.0;0.0;0.0;0.0;0.0;0.0;0.0;0.0;0.0;0.0;0.0;0.0;0.0;0.0;0.0;0.0;0.0;0.0;7.73877208258e-09
285770000000;100;285770000000;map;25.2998091193;-0.0417131734262;0.0;0.0;0.0;-0.00073462452635;0.999999730163;4.85996224597e-07;7.22446780177e-08;0.0;0.0;0.0;0.0;7.22446780177e-08;1.57670438764e-06;0.0;0.0;0.0;0.0;0.0;0.0;0.0;0.0;0.0;0.0;0.0;0.0;0.0;0.0;0.0;0.0;0.0;0.0;0.0;0.0;0.0;0.0;0.0;0.0;0.0;0.0;0.0;7.85935296167e-09
286274000000;101;286274000000;map;25.5517980122;-0.042085302157;0.0;0.0;0.0;-0.000734225335346;0.999999730457;5.02718876305e-07;8.01852400034e-08;0.0;0.0;0.0;0.0;8.01852400034e-08;1.67602655081e-06;0.0;0.0;0.0;0.0;0.0;0.0;0.0;0.0;0.0;0.0;0.0;0.0;0.0;0.0;0.0;0.0;0.0;0.0;0.0;0.0;0.0;0.0;0.0;0.0;0.0;0.0;0.0;8.14080515768e-09
286779000000;102;286779000000;map;25.8042986587;-0.0424750609467;0.0;0.0;0.0;-0.000734872365631;0.999999729981;5.03603473589e-07;9.12361710625e-08;0.0;0.0;0.0;0.0;9.12361710625e-08;1.69690881245e-06;0.0;0.0;0.0;0.0;0.0;0.0;0.0;0.0;0.0;0.0;0.0;0.0;0.0;0.0;0.0;0.0;0.0;0.0;0.0;0.0;0.0;0.0;0.0;0.0;0.0;0.0;0.0;8.06503399025e-09
287282000000;103;287282000000;map;26.0557980587;-0.0428338354519;0.0;0.0;0.0;-0.000734923653142;0.999999729944;5.09755523126e-07;1.05500226999e-07;0.0;0.0;0.0;0.0;1.05500226999e-07;1.75654458858e-06;0.0;0.0;0.0;0.0;0.0;0.0;0.0;0.0;0.0;0.0;0.0;0.0;0.0;0.0;0.0;0.0;0.0;0.0;0.0;0.0;0.0;0.0;0.0;0.0;0.0;0.0;0.0;8.126963119e-09
287785000000;104;287785000000;map;26.3073112491;-0.0432065864332;0.0;0.0;0.0;-0.00073528187989;0.99999972968;5.18655724591e-07;1.05923742888e-07;0.0;0.0;0.0;0.0;1.05923742888e-07;1.8081409228e-06;0.0;0.0;0.0;0.0;0.0;0.0;0.0;0.0;0.0;0.0;0.0;0.0;0.0;0.0;0.0;0.0;0.0;0.0;0.0;0.0;0.0;0.0;0.0;0.0;0.0;0.0;0.0;8.29141623746e-09
288287000000;105;288287000000;map;26.5583098057;-0.0435632756894;0.0;0.0;0.0;-0.000734905123809;0.999999729957;5.25325845047e-07;1.02485613995e-07;0.0;0.0;0.0;0.0;1.02485613773e-07;1.84007510228e-06;0.0;0.0;0.0;0.0;0.0;0.0;0.0;0.0;0.0;0.0;0.0;0.0;0.0;0.0;0.0;0.0;0.0;0.0;0.0;0.0;0.0;0.0;0.0;0.0;0.0;0.0;0.0;8.17978730868e-09
288808000000;106;288808000000;map;26.8188030674;-0.0439450135583;0.0;0.0;0.0;-0.000734981675689;0.999999729901;5.37040932613e-07;9.8310968033e-08;0.0;0.0;0.0;0.0;9.8310968033e-08;1.89209523633e-06;0.0;0.0;0.0;0.0;0.0;0.0;0.0;0.0;0.0;0.0;0.0;0.0;0.0;0.0;0.0;0.0;0.0;0.0;0.0;0.0;0.0;0.0;0.0;0.0;0.0;0.0;0.0;8.35289217317e-09
289327000000;107;289327000000;map;27.0783088059;-0.0443227396984;0.0;0.0;0.0;-0.000735065413764;0.999999729839;5.43932401342e-07;9.56168599853e-08;0.0;0.0;0.0;0.0;9.56168602073e-08;1.97590887294e-06;0.0;0.0;0.0;0.0;0.0;0.0;0.0;0.0;0.0;0.0;0.0;0.0;0.0;0.0;0.0;0.0;0.0;0.0;0.0;0.0;0.0;0.0;0.0;0.0;0.0;0.0;0.0;8.54850725369e-09
289832000000;108;289832000000;map;27.3307984713;-0.0447111743443;0.0;0.0;0.0;-0.000735289345212;0.999999729675;5.43242435924e-07;1.01843097511e-07;0.0;0.0;0.0;0.0;1.01843097511e-07;2.02711175969e-06;0.0;0.0;0.0;0.0;0.0;0.0;0.0;0.0;0.0;0.0;0.0;0.0;0.0;0.0;0.0;0.0;0.0;0.0;0.0;0.0;0.0;0.0;0.0;0.0;0.0;0.0;0.0;8.60760664599e-09
290333000000;109;290333000000;map;27.5813056827;-0.0450614850064;0.0;0.0;0.0;-0.000734587502628;0.999999730191;5.48243178855e-07;9.97634466149e-08;0.0;0.0;0.0;0.0;9.97634466149e-08;2.08858472907e-06;0.0;0.0;0.0;0.0;0.0;0.0;0.0;0.0;0.0;0.0;0.0;0.0;0.0;0.0;0.0;0.0;0.0;0.0;0.0;0.0;0.0;0.0;0.0;0.0;0.0;0.0;0.0;8.76812713248e-09
290834000000;110;290834000000;map;27.8318026782;-0.0454355694382;0.0;0.0;0.0;-0.000734954263613;0.999999729921;5.53914560442e-07;1.12960847565e-07;0.0;0.0;0.0;0.0;1.12960847565e-07;2.10658132871e-06;0.0;0.0;0.0;0.0;0.0;0.0;0.0;0.0;0.0;0.0;0.0;0.0;0.0;0.0;0.0;0.0;0.0;0.0;0.0;0.0;0.0;0.0;0.0;0.0;0.0;0.0;0.0;8.85070751981e-09
291351000000;111;291351000000;map;28.0902842815;-0.0458335877419;0.0;0.0;0.0;-0.000735575683383;0.999999729464;5.68022073821e-07;1.24833831938e-07;0.0;0.0;0.0;0.0;1.24833831716e-07;2.1903641171e-06;0.0;0.0;0.0;0.0;0.0;0.0;0.0;0.0;0.0;0.0;0.0;0.0;0.0;0.0;0.0;0.0;0.0;0.0;0.0;0.0;0.0;0.0;0.0;0.0;0.0;0.0;0.0;9.01524035235e-09
291870000000;112;291870000000;map;28.3497839774;-0.0462251016072;0.0;0.0;0.0;-0.000736063009186;0.999999729106;5.85209932069e-07;1.43082952597e-07;0.0;0.0;0.0;0.0;1.43082952597e-07;2.22300356857e-06;0.0;0.0;0.0;0.0;0.0;0.0;0.0;0.0;0.0;0.0;0.0;0.0;0.0;0.0;0.0;0.0;0.0;0.0;0.0;0.0;0.0;0.0;0.0;0.0;0.0;0.0;0.0;9.04567378604e-09
292376000000;113;292376000000;map;28.6027816561;-0.0465938550244;0.0;0.0;0.0;-0.000735752506492;0.999999729334;5.87608155911e-07;1.45381043204e-07;0.0;0.0;0.0;0.0;1.45381043204e-07;2.26343868518e-06;0.0;0.0;0.0;0.0;0.0;0.0;0.0;0.0;0.0;0.0;0.0;0.0;0.0;0.0;0.0;0.0;0.0;0.0;0.0;0.0;0.0;0.0;0.0;0.0;0.0;0.0;0.0;9.00075371817e-09
292886000000;114;292886000000;map;28.8577799964;-0.0469592967283;0.0;0.0;0.0;-0.000736102222061;0.999999729077;5.85173438594e-07;1.57948528479e-07;0.0;0.0;0.0;0.0;1.57948528479e-07;2.38372274829e-06;0.0;0.0;0.0;0.0;0.0;0.0;0.0;0.0;0.0;0.0;0.0;0.0;0.0;0.0;0.0;0.0;0.0;0.0;0.0;0.0;0.0;0.0;0.0;0.0;0.0;0.0;0.0;9.25837630928e-09
293398000000;115;293398000000;map;29.1137706856;-0.0473396052978;0.0;0.0;0.0;-0.000736200048187;0.999999729005;5.85734369452e-07;1.60213650346e-07;0.0;0.0;0.0;0.0;1.60213650346e-07;2.50021171142e-06;0.0;0.0;0.0;0.0;0.0;0.0;0.0;0.0;0.0;0.0;0.0;0.0;0.0;0.0;0.0;0.0;0.0;0.0;0.0;0.0;0.0;0.0;0.0;0.0;0.0;0.0;0.0;9.63902382458e-09
293918000000;116;293918000000;map;29.3737769956;-0.0477386383818;0.0;0.0;0.0;-0.000736593348862;0.999999728715;5.90225113228e-07;1.75772720379e-07;0.0;0.0;0.0;0.0;1.75772720379e-07;2.51379574711e-06;0.0;0.0;0.0;0.0;0.0;0.0;0.0;0.0;0.0;0.0;0.0;0.0;0.0;0.0;0.0;0.0;0.0;0.0;0.0;0.0;0.0;0.0;0.0;0.0;0.0;0.0;0.0;9.46469371784e-09
294420000000;117;294420000000;map;29.6247785571;-0.0481172200296;0.0;0.0;0.0;-0.000736742857845;0.999999728605;6.06343974141e-07;1.82209319854e-07;0.0;0.0;0.0;0.0;1.82209319854e-07;2.55248541856e-06;0.0;0.0;0.0;0.0;0.0;0.0;0.0;0.0;0.0;0.0;0.0;0.0;0.0;0.0;0.0;0.0;0.0;0.0;0.0;0.0;0.0;0.0;0.0;0.0;0.0;0.0;0.0;9.47088099079e-09
294940000000;118;294940000000;map;29.8847763472;-0.0485148303545;0.0;0.0;0.0;-0.000737380804106;0.999999728135;6.14186774328e-07;2.13732647136e-07;0.0;0.0;0.0;0.0;2.13732647136e-07;2.62494918814e-06;0.0;0.0;0.0;0.0;0.0;0.0;0.0;0.0;0.0;0.0;0.0;0.0;0.0;0.0;0.0;0.0;0.0;0.0;0.0;0.0;0.0;0.0;0.0;0.0;0.0;0.0;0.0;9.59388615299e-09
295441000000;119;295441000000;map;30.1352757706;-0.04891306591;0.0;0.0;0.0;-0.000737990091817;0.999999727685;6.11943505646e-07;2.16336665471e-07;0.0;0.0;0.0;0.0;2.16336665471e-07;2.69904852056e-06;0.0;0.0;0.0;0.0;0.0;0.0;0.0;0.0;0.0;0.0;0.0;0.0;0.0;0.0;0.0;0.0;0.0;0.0;0.0;0.0;0.0;0.0;0.0;0.0;0.0;0.0;0.0;9.67768378889e-09
295943000000;120;295943000000;map;30.3862777673;-0.0493016140988;0.0;0.0;0.0;-0.000738521954617;0.999999727293;6.22755010227e-07;2.1097472036e-07;0.0;0.0;0.0;0.0;2.1097472036e-07;2.83078812987e-06;0.0;0.0;0.0;0.0;0.0;0.0;0.0;0.0;0.0;0.0;0.0;0.0;0.0;0.0;0.0;0.0;0.0;0.0;0.0;0.0;0.0;0.0;0.0;0.0;0.0;0.0;0.0;9.88787765223e-09
296452000000;121;296452000000;map;30.6407839674;-0.0497282142641;0.0;0.0;0.0;-0.000739324226632;0.9999997267;6.39269160274e-07;2.07618661374e-07;0.0;0.0;0.0;0.0;2.07618661374e-07;2.95428316811e-06;0.0;0.0;0.0;0.0;0.0;0.0;0.0;0.0;0.0;0.0;0.0;0.0;0.0;0.0;0.0;0.0;0.0;0.0;0.0;0.0;0.0;0.0;0.0;0.0;0.0;0.0;0.0;9.93221574121e-09
296959000000;122;296959000000;map;30.8942910158;-0.0501475934712;0.0;0.0;0.0;-0.000740652485235;0.999999725717;6.5296194407e-07;1.9842182386e-07;0.0;0.0;0.0;0.0;1.9842182386e-07;3.04494870544e-06;0.0;0.0;0.0;0.0;0.0;0.0;0.0;0.0;0.0;0.0;0.0;0.0;0.0;0.0;0.0;0.0;0.0;0.0;0.0;0.0;0.0;0.0;0.0;0.0;0.0;0.0;0.0;1.00650861232e-08
297461000000;123;297461000000;map;31.1452957543;-0.0505650373215;0.0;0.0;0.0;-0.000741688073386;0.999999724949;6.50974470773e-07;1.94857196156e-07;0.0;0.0;0.0;0.0;1.94857196156e-07;3.15100618262e-06;0.0;0.0;0.0;0.0;0.0;0.0;0.0;0.0;0.0;0.0;0.0;0.0;0.0;0.0;0.0;0.0;0.0;0.0;0.0;0.0;0.0;0.0;0.0;0.0;0.0;0.0;0.0;1.02700821444e-08
297964000000;124;297964000000;map;31.3967867404;-0.0509598670069;0.0;0.0;0.0;-0.000742524906865;0.999999724328;6.43813791612e-07;1.76827414267e-07;0.0;0.0;0.0;0.0;1.76827414267e-07;3.29828707755e-06;0.0;0.0;0.0;0.0;0.0;0.0;0.0;0.0;0.0;0.0;0.0;0.0;0.0;0.0;0.0;0.0;0.0;0.0;0.0;0.0;0.0;0.0;0.0;0.0;0.0;0.0;0.0;1.0486051166e-08
298474000000;125;298474000000;map;31.6517913355;-0.0514323071744;0.0;0.0;0.0;-0.000744833942201;0.999999722611;6.59302486383e-07;2.11661836946e-07;0.0;0.0;0.0;0.0;2.11661836946e-07;3.43316457323e-06;0.0;0.0;0.0;0.0;0.0;0.0;0.0;0.0;0.0;0.0;0.0;0.0;0.0;0.0;0.0;0.0;0.0;0.0;0.0;0.0;0.0;0.0;0.0;0.0;0.0;0.0;0.0;1.05622004755e-08
298980000000;126;298980000000;map;31.90478829;-0.0518898186242;0.0;0.0;0.0;-0.000746649644123;0.999999721257;6.71436509947e-07;2.12958191081e-07;0.0;0.0;0.0;0.0;2.12958191081e-07;3.53640291861e-06;0.0;0.0;0.0;0.0;0.0;0.0;0.0;0.0;0.0;0.0;0.0;0.0;0.0;0.0;0.0;0.0;0.0;0.0;0.0;0.0;0.0;0.0;0.0;0.0;0.0;0.0;0.0;1.07096396483e-08
299499000000;127;299499000000;map;32.1642840262;-0.0523525887323;0.0;0.0;0.0;-0.000748561776652;0.999999719828;6.7527344072e-07;2.24732484622e-07;0.0;0.0;0.0;0.0;2.24732484622e-07;3.66599204816e-06;0.0;0.0;0.0;0.0;0.0;0.0;0.0;0.0;0.0;0.0;0.0;0.0;0.0;0.0;0.0;0.0;0.0;0.0;0.0;0.0;0.0;0.0;0.0;0.0;0.0;0.0;0.0;1.05669464569e-08
300000000000;128;300000000000;map;32.4147829925;-0.0528193466598;0.0;0.0;0.0;-0.000750701429049;0.999999718224;6.67616404826e-07;2.29355622938e-07;0.0;0.0;0.0;0.0;2.2935562316e-07;3.69887581269e-06;0.0;0.0;0.0;0.0;0.0;0.0;0.0;0.0;0.0;0.0;0.0;0.0;0.0;0.0;0.0;0.0;0.0;0.0;0.0;0.0;0.0;0.0;0.0;0.0;0.0;0.0;0.0;1.03906530317e-08
300502000000;129;300502000000;map;32.6657892917;-0.053256061284;0.0;0.0;0.0;-0.000751761435386;0.999999717427;6.74911689202e-07;2.31738132017e-07;0.0;0.0;0.0;0.0;2.31738131795e-07;3.76816893756e-06;0.0;0.0;0.0;0.0;0.0;0.0;0.0;0.0;0.0;0.0;0.0;0.0;0.0;0.0;0.0;0.0;0.0;0.0;0.0;0.0;0.0;0.0;0.0;0.0;0.0;0.0;0.0;1.07117910384e-08
301006000000;130;301006000000;map;32.9177838925;-0.053727132441;0.0;0.0;0.0;-0.000754121080094;0.999999715651;6.71540192343e-07;2.26912992618e-07;0.0;0.0;0.0;0.0;2.26912992618e-07;3.80850663674e-06;0.0;0.0;0.0;0.0;0.0;0.0;0.0;0.0;0.0;0.0;0.0;0.0;0.0;0.0;0.0;0.0;0.0;0.0;0.0;0.0;0.0;0.0;0.0;0.0;0.0;0.0;0.0;1.04976467794e-08
301515000000;131;301515000000;map;33.1722897541;-0.0541703699422;0.0;0.0;0.0;-0.000755829229661;0.999999714361;6.78206788507e-07;2.32700819947e-07;0.0;0.0;0.0;0.0;2.32700819724e-07;3.84679617649e-06;0.0;0.0;0.0;0.0;0.0;0.0;0.0;0.0;0.0;0.0;0.0;0.0;0.0;0.0;0.0;0.0;0.0;0.0;0.0;0.0;0.0;0.0;0.0;0.0;0.0;0.0;0.0;1.05549107511e-08
302018000000;132;302018000000;map;33.4237748055;-0.054606003401;0.0;0.0;0.0;-0.000757407318949;0.999999713167;6.79061486153e-07;2.38943391073e-07;0.0;0.0;0.0;0.0;2.38943391073e-07;3.94830175996e-06;0.0;0.0;0.0;0.0;0.0;0.0;0.0;0.0;0.0;0.0;0.0;0.0;0.0;0.0;0.0;0.0;0.0;0.0;0.0;0.0;0.0;0.0;0.0;0.0;0.0;0.0;0.0;1.06612845503e-08
302529000000;133;302529000000;map;33.6792660806;-0.0550566181619;0.0;0.0;0.0;-0.000758887270392;0.999999712045;6.70643203193e-07;2.34518771958e-07;0.0;0.0;0.0;0.0;2.34518771736e-07;3.83936517503e-06;0.0;0.0;0.0;0.0;0.0;0.0;0.0;0.0;0.0;0.0;0.0;0.0;0.0;0.0;0.0;0.0;0.0;0.0;0.0;0.0;0.0;0.0;0.0;0.0;0.0;0.0;0.0;1.0180806446e-08
303031000000;134;303031000000;map;33.9302669373;-0.0554507896318;0.0;0.0;0.0;-0.000759714656507;0.999999711417;6.60584191792e-07;2.18911785144e-07;0.0;0.0;0.0;0.0;2.18911785144e-07;3.89126178862e-06;0.0;0.0;0.0;0.0;0.0;0.0;0.0;0.0;0.0;0.0;0.0;0.0;0.0;0.0;0.0;0.0;0.0;0.0;0.0;0.0;0.0;0.0;0.0;0.0;0.0;0.0;0.0;1.01867603501e-08
303533000000;135;303533000000;map;34.1812625071;-0.055917364967;0.0;0.0;0.0;-0.000761433307992;0.99999971011;6.52742755847e-07;2.20683505026e-07;0.0;0.0;0.0;0.0;2.20683505026e-07;3.90141156132e-06;0.0;0.0;0.0;0.0;0.0;0.0;0.0;0.0;0.0;0.0;0.0;0.0;0.0;0.0;0.0;0.0;0.0;0.0;0.0;0.0;0.0;0.0;0.0;0.0;0.0;0.0;0.0;1.01677158063e-08
304033000000;136;304033000000;map;34.4312580018;-0.0563223261306;0.0;0.0;0.0;-0.000762453486717;0.999999709332;6.46711441732e-07;2.19765718956e-07;0.0;0.0;0.0;0.0;2.19765718956e-07;3.90467625931e-06;0.0;0.0;0.0;0.0;0.0;0.0;0.0;0.0;0.0;0.0;0.0;0.0;0.0;0.0;0.0;0.0;0.0;0.0;0.0;0.0;0.0;0.0;0.0;0.0;0.0;0.0;0.0;1.01125286179e-08
304537000000;137;304537000000;map;34.6832527793;-0.0567546548146;0.0;0.0;0.0;-0.000763591204102;0.999999708464;6.63230821374e-07;2.40141850183e-07;0.0;0.0;0.0;0.0;2.40141850405e-07;3.84589673588e-06;0.0;0.0;0.0;0.0;0.0;0.0;0.0;0.0;0.0;0.0;0.0;0.0;0.0;0.0;0.0;0.0;0.0;0.0;0.0;0.0;0.0;0.0;0.0;0.0;0.0;0.0;0.0;1.00189543579e-08
305043000000;138;305043000000;map;34.936237234;-0.057184686184;0.0;0.0;0.0;-0.000763791202685;0.999999708311;6.71233237881e-07;2.25691158651e-07;0.0;0.0;0.0;0.0;2.25691158429e-07;3.76811792636e-06;0.0;0.0;0.0;0.0;0.0;0.0;0.0;0.0;0.0;0.0;0.0;0.0;0.0;0.0;0.0;0.0;0.0;0.0;0.0;0.0;0.0;0.0;0.0;0.0;0.0;0.0;0.0;9.96229279332e-09
305545000000;139;305545000000;map;35.1872218399;-0.0575816054222;0.0;0.0;0.0;-0.000764421132176;0.99999970783;6.81809979142e-07;2.1040189857e-07;0.0;0.0;0.0;0.0;2.1040189857e-07;3.85704680719e-06;0.0;0.0;0.0;0.0;0.0;0.0;0.0;0.0;0.0;0.0;0.0;0.0;0.0;0.0;0.0;0.0;0.0;0.0;0.0;0.0;0.0;0.0;0.0;0.0;0.0;0.0;0.0;1.01757822427e-08
306048000000;140;306048000000;map;35.4387225373;-0.0579974436627;0.0;0.0;0.0;-0.000764794695336;0.999999707544;6.94945356372e-07;2.05058122482e-07;0.0;0.0;0.0;0.0;2.05058122482e-07;3.93347121346e-06;0.0;0.0;0.0;0.0;0.0;0.0;0.0;0.0;0.0;0.0;0.0;0.0;0.0;0.0;0.0;0.0;0.0;0.0;0.0;0.0;0.0;0.0;0.0;0.0;0.0;0.0;0.0;1.01898778564e-08
306549000000;141;306549000000;map;35.6892274106;-0.0584033801383;0.0;0.0;0.0;-0.000765222051493;0.999999707218;7.01111275703e-07;2.07808207531e-07;0.0;0.0;0.0;0.0;2.07808207531e-07;3.95271819905e-06;0.0;0.0;0.0;0.0;0.0;0.0;0.0;0.0;0.0;0.0;0.0;0.0;0.0;0.0;0.0;0.0;0.0;0.0;0.0;0.0;0.0;0.0;0.0;0.0;0.0;0.0;0.0;1.00457236115e-08
307055000000;142;307055000000;map;35.942216006;-0.0588275307198;0.0;0.0;0.0;-0.000765520835117;0.999999706989;6.97371660863e-07;2.07908317229e-07;0.0;0.0;0.0;0.0;2.07908317229e-07;4.09199221021e-06;0.0;0.0;0.0;0.0;0.0;0.0;0.0;0.0;0.0;0.0;0.0;0.0;0.0;0.0;0.0;0.0;0.0;0.0;0.0;0.0;0.0;0.0;0.0;0.0;0.0;0.0;0.0;1.02900705999e-08
307556000000;143;307556000000;map;36.1927209372;-0.0592069387983;0.0;0.0;0.0;-0.000765268207248;0.999999707182;6.99145175531e-07;1.99229003517e-07;0.0;0.0;0.0;0.0;1.99229003517e-07;4.14760611302e-06;0.0;0.0;0.0;0.0;0.0;0.0;0.0;0.0;0.0;0.0;0.0;0.0;0.0;0.0;0.0;0.0;0.0;0.0;0.0;0.0;0.0;0.0;0.0;0.0;0.0;0.0;0.0;1.02201463109e-08
308056000000;144;308056000000;map;36.4427210609;-0.0596014685437;0.0;0.0;0.0;-0.000764998972303;0.999999707388;6.97202267474e-07;2.15741557064e-07;0.0;0.0;0.0;0.0;2.15741557064e-07;4.24056426744e-06;0.0;0.0;0.0;0.0;0.0;0.0;0.0;0.0;0.0;0.0;0.0;0.0;0.0;0.0;0.0;0.0;0.0;0.0;0.0;0.0;0.0;0.0;0.0;0.0;0.0;0.0;0.0;1.02919038001e-08
308564000000;145;308564000000;map;36.6967107531;-0.0600453057957;0.0;0.0;0.0;-0.000766336908341;0.999999706364;7.1286012826e-07;2.07592773638e-07;0.0;0.0;0.0;0.0;2.07592773638e-07;4.19118297718e-06;0.0;0.0;0.0;0.0;0.0;0.0;0.0;0.0;0.0;0.0;0.0;0.0;0.0;0.0;0.0;0.0;0.0;0.0;0.0;0.0;0.0;0.0;0.0;0.0;0.0;0.0;0.0;1.01517359221e-08
309073000000;146;309073000000;map;36.9512127515;-0.0604466308825;0.0;0.0;0.0;-0.000766876048825;0.999999705951;7.34911054678e-07;2.13042318897e-07;0.0;0.0;0.0;0.0;2.13042318897e-07;4.28597452804e-06;0.0;0.0;0.0;0.0;0.0;0.0;0.0;0.0;0.0;0.0;0.0;0.0;0.0;0.0;0.0;0.0;0.0;0.0;0.0;0.0;0.0;0.0;0.0;0.0;0.0;0.0;0.0;1.00564445913e-08
310040000000;147;310040000000;map;37.0027971241;-0.0606735294015;0.0;0.0;0.0;0.0997789697347;0.995009626686;7.41877329347e-07;1.9738961976e-07;0.0;0.0;0.0;0.0;1.9738961976e-07;4.17939097966e-06;0.0;0.0;0.0;0.0;0.0;0.0;0.0;0.0;0.0;0.0;0.0;0.0;0.0;0.0;0.0;0.0;0.0;0.0;0.0;0.0;0.0;0.0;0.0;0.0;0.0;0.0;0.0;9.79287786595e-09
310925000000;148;310925000000;map;37.0029890455;-0.0606115484733;0.0;0.0;0.0;0.200971493124;0.97959709011;7.39381448511e-07;2.16344376192e-07;0.0;0.0;0.0;0.0;2.16344376192e-07;4.21138642422e-06;0.0;0.0;0.0;0.0;0.0;0.0;0.0;0.0;0.0;0.0;0.0;0.0;0.0;0.0;0.0;0.0;0.0;0.0;0.0;0.0;0.0;0.0;0.0;0.0;0.0;0.0;0.0;9.68664328874e-09
311829000000;149;311829000000;map;37.0031021868;-0.0605841672908;0.0;0.0;0.0;0.299371046918;0.95413677021;7.33833758204e-07;2.18205221891e-07;0.0;0.0;0.0;0.0;2.18205221891e-07;4.26439611513e-06;0.0;0.0;0.0;0.0;0.0;0.0;0.0;0.0;0.0;0.0;0.0;0.0;0.0;0.0;0.0;0.0;0.0;0.0;0.0;0.0;0.0;0.0;0.0;0.0;0.0;0.0;0.0;9.86724993038e-09
312721000000;150;312721000000;map;37.0032589027;-0.0605302170099;0.0;0.0;0.0;0.393221461874;0.91944378943;7.36948095437e-07;2.23035775626e-07;0.0;0.0;0.0;0.0;2.2303577607e-07;4.22873771547e-06;0.0;0.0;0.0;0.0;0.0;0.0;0.0;0.0;0.0;0.0;0.0;0.0;0.0;0.0;0.0;0.0;0.0;0.0;0.0;0.0;0.0;0.0;0.0;0.0;0.0;0.0;0.0;9.90843698435e-09
313619000000;151;313619000000;map;37.0033056258;-0.0605229650929;0.0;0.0;0.0;0.484293385686;0.874905661532;7.48000047679e-07;2.15868501297e-07;0.0;0.0;0.0;0.0;2.15868501297e-07;4.31982662056e-06;0.0;0.0;0.0;0.0;0.0;0.0;0.0;0.0;0.0;0.0;0.0;0.0;0.0;0.0;0.0;0.0;0.0;0.0;0.0;0.0;0.0;0.0;0.0;0.0;0.0;0.0;0.0;1.02771034169e-08
314483000000;152;314483000000;map;37.0033639826;-0.0604306188499;0.0;0.0;0.0;0.570799365642;0.821089571352;7.6394530879e-07;2.45241719821e-07;0.0;0.0;0.0;0.0;2.45241719821e-07;4.29631559567e-06;0.0;0.0;0.0;0.0;0.0;0.0;0.0;0.0;0.0;0.0;0.0;0.0;0.0;0.0;0.0;0.0;0.0;0.0;0.0;0.0;0.0;0.0;0.0;0.0;0.0;0.0;0.0;1.01701007874e-08
315346000000;153;315346000000;map;37.0033820688;-0.0603839224717;0.0;0.0;0.0;0.651335005217;0.758790294468;7.57785983296e-07;2.7091433985e-07;0.0;0.0;0.0;0.0;2.7091433985e-07;4.20636537798e-06;0.0;0.0;0.0;0.0;0.0;0.0;0.0;0.0;0.0;0.0;0.0;0.0;0.0;0.0;0.0;0.0;0.0;0.0;0.0;0.0;0.0;0.0;0.0;0.0;0.0;0.0;0.0;9.97456231211e-09
316210000000;154;316210000000;map;37.0034047188;-0.0602386993152;0.0;0.0;0.0;0.725252561534;0.68848291336;7.57266207074e-07;2.48622725962e-07;0.0;0.0;0.0;0.0;2.48622725962e-07;4.11399114282e-06;0.0;0.0;0.0;0.0;0.0;0.0;0.0;0.0;0.0;0.0;0.0;0.0;0.0;0.0;0.0;0.0;0.0;0.0;0.0;0.0;0.0;0.0;0.0;0.0;0.0;0.0;0.0;9.81946504298e-09
317157000000;155;317157000000;map;36.9842480381;0.198787153182;0.0;0.0;0.0;0.733352738342;0.679848336885;7.38104972697e-07;1.965963774e-07;0.0;0.0;0.0;0.0;1.965963774e-07;4.07033994536e-06;0.0;0.0;0.0;0.0;0.0;0.0;0.0;0.0;0.0;0.0;0.0;0.0;0.0;0.0;0.0;0.0;0.0;0.0;0.0;0.0;0.0;0.0;0.0;0.0;0.0;0.0;0.0;9.90304507518e-09
317666000000;156;317666000000;map;36.9649183429;0.452558232482;0.0;0.0;0.0;0.733352041597;0.679849088464;7.3427645475e-07;1.36463160771e-07;0.0;0.0;0.0;0.0;1.36463160771e-07;4.12395695537e-06;0.0;0.0;0.0;0.0;0.0;0.0;0.0;0.0;0.0;0.0;0.0;0.0;0.0;0.0;0.0;0.0;0.0;0.0;0.0;0.0;0.0;0.0;0.0;0.0;0.0;0.0;0.0;1.01547446265e-08
318168000000;157;318168000000;map;36.9458995184;0.702867476474;0.0;0.0;0.0;0.733352133195;0.679848989658;7.25988456907e-07;1.05781499116e-07;0.0;0.0;0.0;0.0;1.0578149201e-07;4.09458413725e-06;0.0;0.0;0.0;0.0;0.0;0.0;0.0;0.0;0.0;0.0;0.0;0.0;0.0;0.0;0.0;0.0;0.0;0.0;0.0;0.0;0.0;0.0;0.0;0.0;0.0;0.0;0.0;9.98556617665e-09
318674000000;158;318674000000;map;36.9267597058;0.955167371896;0.0;0.0;0.0;0.733352313077;0.679848795619;7.42169049772e-07;8.24595502991e-08;0.0;0.0;0.0;0.0;8.24595431936e-08;4.08498773752e-06;0.0;0.0;0.0;0.0;0.0;0.0;0.0;0.0;0.0;0.0;0.0;0.0;0.0;0.0;0.0;0.0;0.0;0.0;0.0;0.0;0.0;0.0;0.0;0.0;0.0;0.0;0.0;9.93712514745e-09
319177000000;159;319177000000;map;36.9077292384;1.20596282808;0.0;0.0;0.0;0.733352241723;0.679848872589;7.41539224691e-07;3.948741778e-08;0.0;0.0;0.0;0.0;3.94874248855e-08;4.09287813152e-06;0.0;0.0;0.0;0.0;0.0;0.0;0.0;0.0;0.0;0.0;0.0;0.0;0.0;0.0;0.0;0.0;0.0;0.0;0.0;0.0;0.0;0.0;0.0;0.0;0.0;0.0;0.0;1.00193038561e-08
319680000000;160;319680000000;map;36.8887042759;1.4567367467;0.0;0.0;0.0;0.733352032028;0.679849098786;7.59546310292e-07;-3.19632675883e-08;0.0;0.0;0.0;0.0;-3.19632746937e-08;4.1695133266e-06;0.0;0.0;0.0;0.0;0.0;0.0;0.0;0.0;0.0;0.0;0.0;0.0;0.0;0.0;0.0;0.0;0.0;0.0;0.0;0.0;0.0;0.0;0.0;0.0;0.0;0.0;0.0;1.02442035117e-08
320184000000;161;320184000000;map;36.8696531231;1.70801745539;0.0;0.0;0.0;0.733352110188;0.679849014475;7.60892817198e-07;-7.22525257402e-08;0.0;0.0;0.0;0.0;-7.22525257402e-08;4.02119147447e-06;0.0;0.0;0.0;0.0;0.0;0.0;0.0;0.0;0.0;0.0;0.0;0.0;0.0;0.0;0.0;0.0;0.0;0.0;0.0;0.0;0.0;0.0;0.0;0.0;0.0;0.0;0.0;1.01439241708e-08
320687000000;162;320687000000;map;36.8506239933;1.95884124107;0.0;0.0;0.0;0.733352736185;0.679848339213;7.78901039666e-07;-1.01667438912e-07;0.0;0.0;0.0;0.0;-1.01667438912e-07;4.01631078262e-06;0.0;0.0;0.0;0.0;0.0;0.0;0.0;0.0;0.0;0.0;0.0;0.0;0.0;0.0;0.0;0.0;0.0;0.0;0.0;0.0;0.0;0.0;0.0;0.0;0.0;0.0;0.0;1.01435022861e-08
322655000000;163;322655000000;map;36.8431237798;2.20990330956;0.0;0.0;0.0;0.701306937651;0.712859438601;7.85380962043e-07;-1.66635913956e-07;0.0;0.0;0.0;0.0;-1.66635913956e-07;4.15012526656e-06;0.0;0.0;0.0;0.0;0.0;0.0;0.0;0.0;0.0;0.0;0.0;0.0;0.0;0.0;0.0;0.0;0.0;0.0;0.0;0.0;0.0;0.0;0.0;0.0;0.0;0.0;0.0;1.04788242802e-08
323163000000;164;323163000000;map;36.8472588649;2.46388778973;0.0;0.0;0.0;0.701333973383;0.712832839998;7.99901727078e-07;-2.18371056349e-07;0.0;0.0;0.0;0.0;-2.18371056349e-07;4.16713149587e-06;0.0;0.0;0.0;0.0;0.0;0.0;0.0;0.0;0.0;0.0;0.0;0.0;0.0;0.0;0.0;0.0;0.0;0.0;0.0;0.0;0.0;0.0;0.0;0.0;0.0;0.0;0.0;1.04658926244e-08
323682000000;165;323682000000;map;36.8514870076;2.72335460342;0.0;0.0;0.0;0.701333788396;0.712833022;8.16057081465e-07;-2.70228269983e-07;0.0;0.0;0.0;0.0;-2.70228284194e-07;4.16555637273e-06;0.0;0.0;0.0;0.0;0.0;0.0;0.0;0.0;0.0;0.0;0.0;0.0;0.0;0.0;0.0;0.0;0.0;0.0;0.0;0.0;0.0;0.0;0.0;0.0;0.0;0.0;0.0;1.05699427268e-08
324185000000;166;324185000000;map;36.8555915997;2.97478178684;0.0;0.0;0.0;0.701332879942;0.712833915798;8.29153805171e-07;-3.36005641088e-07;0.0;0.0;0.0;0.0;-3.36005641088e-07;4.0737650373e-06;0.0;0.0;0.0;0.0;0.0;0.0;0.0;0.0;0.0;0.0;0.0;0.0;0.0;0.0;0.0;0.0;0.0;0.0;0.0;0.0;0.0;0.0;0.0;0.0;0.0;0.0;0.0;1.02987691973e-08
324687000000;167;324687000000;map;36.859663566;3.22572384611;0.0;0.0;0.0;0.701332374604;0.712834412982;8.38540472614e-07;-3.65327721852e-07;0.0;0.0;0.0;0.0;-3.65327721852e-07;4.07939333336e-06;0.0;0.0;0.0;0.0;0.0;0.0;0.0;0.0;0.0;0.0;0.0;0.0;0.0;0.0;0.0;0.0;0.0;0.0;0.0;0.0;0.0;0.0;0.0;0.0;0.0;0.0;0.0;1.05263067429e-08
325208000000;168;325208000000;map;36.8638985538;3.48618081291;0.0;0.0;0.0;0.701332006255;0.712834775388;8.38807636683e-07;-3.93045354485e-07;0.0;0.0;0.0;0.0;-3.93045354485e-07;4.13560529822e-06;0.0;0.0;0.0;0.0;0.0;0.0;0.0;0.0;0.0;0.0;0.0;0.0;0.0;0.0;0.0;0.0;0.0;0.0;0.0;0.0;0.0;0.0;0.0;0.0;0.0;0.0;0.0;1.07793050332e-08
325727000000;169;325727000000;map;36.8681199047;3.74560612544;0.0;0.0;0.0;0.701331313178;0.71283545728;8.5997635324e-07;-4.48978909162e-07;0.0;0.0;0.0;0.0;-4.48978909162e-07;4.02541658318e-06;0.0;0.0;0.0;0.0;0.0;0.0;0.0;0.0;0.0;0.0;0.0;0.0;0.0;0.0;0.0;0.0;0.0;0.0;0.0;0.0;0.0;0.0;0.0;0.0;0.0;0.0;0.0;1.05256581506e-08
326229000000;170;326229000000;map;36.8721894108;3.99655486715;0.0;0.0;0.0;0.701330843496;0.712835919382;8.46013108458e-07;-4.51295562698e-07;0.0;0.0;0.0;0.0;-4.51295562698e-07;3.97532154395e-06;0.0;0.0;0.0;0.0;0.0;0.0;0.0;0.0;0.0;0.0;0.0;0.0;0.0;0.0;0.0;0.0;0.0;0.0;0.0;0.0;0.0;0.0;0.0;0.0;0.0;0.0;0.0;1.05022111283e-08
326738000000;171;326738000000;map;36.8763355074;4.25100842987;0.0;0.0;0.0;0.70133020825;0.712836544374;8.48623358252e-07;-4.73565705761e-07;0.0;0.0;0.0;0.0;-4.73565705761e-07;3.83331630971e-06;0.0;0.0;0.0;0.0;0.0;0.0;0.0;0.0;0.0;0.0;0.0;0.0;0.0;0.0;0.0;0.0;0.0;0.0;0.0;0.0;0.0;0.0;0.0;0.0;0.0;0.0;0.0;1.03762323447e-08
327258000000;172;327258000000;map;36.8805833761;4.51098660336;0.0;0.0;0.0;0.701330253512;0.712836499843;8.77798129295e-07;-5.5432985846e-07;0.0;0.0;0.0;0.0;-5.5432985846e-07;3.92097847524e-06;0.0;0.0;0.0;0.0;0.0;0.0;0.0;0.0;0.0;0.0;0.0;0.0;0.0;0.0;0.0;0.0;0.0;0.0;0.0;0.0;0.0;0.0;0.0;0.0;0.0;0.0;0.0;1.04745765669e-08
327763000000;173;327763000000;map;36.8846899824;4.76344947235;0.0;0.0;0.0;0.70133044171;0.712836314683;9.13226131161e-07;-5.90839619008e-07;0.0;0.0;0.0;0.0;-5.90839619008e-07;3.9208694389e-06;0.0;0.0;0.0;0.0;0.0;0.0;0.0;0.0;0.0;0.0;0.0;0.0;0.0;0.0;0.0;0.0;0.0;0.0;0.0;0.0;0.0;0.0;0.0;0.0;0.0;0.0;0.0;1.04752782278e-08
328282000000;174;328282000000;map;36.8889353923;5.02288657512;0.0;0.0;0.0;0.701330169141;0.712836582852;9.20415232031e-07;-6.2259977085e-07;0.0;0.0;0.0;0.0;-6.22599742428e-07;3.94522283287e-06;0.0;0.0;0.0;0.0;0.0;0.0;0.0;0.0;0.0;0.0;0.0;0.0;0.0;0.0;0.0;0.0;0.0;0.0;0.0;0.0;0.0;0.0;0.0;0.0;0.0;0.0;0.0;1.04560500531e-08
328787000000;175;328787000000;map;36.8930582903;5.27532564573;0.0;0.0;0.0;0.701329267645;0.712837469796;9.32577677304e-07;-6.36319555269e-07;0.0;0.0;0.0;0.0;-6.36319555269e-07;3.8865839187e-06;0.0;0.0;0.0;0.0;0.0;0.0;0.0;0.0;0.0;0.0;0.0;0.0;0.0;0.0;0.0;0.0;0.0;0.0;0.0;0.0;0.0;0.0;0.0;0.0;0.0;0.0;0.0;1.03861330917e-08
329288000000;176;329288000000;map;36.8971448475;5.52580736194;0.0;0.0;0.0;0.701329123895;0.712837611225;9.34338459047e-07;-6.46864805276e-07;0.0;0.0;0.0;0.0;-6.46864805276e-07;3.86126028573e-06;0.0;0.0;0.0;0.0;0.0;0.0;0.0;0.0;0.0;0.0;0.0;0.0;0.0;0.0;0.0;0.0;0.0;0.0;0.0;0.0;0.0;0.0;0.0;0.0;0.0;0.0;0.0;1.02096846793e-08
329789000000;177;329789000000;map;36.9012321809;5.77624697362;0.0;0.0;0.0;0.701328785231;0.712837944421;9.49763943936e-07;-6.76515668374e-07;0.0;0.0;0.0;0.0;-6.76515725218e-07;3.76584115713e-06;0.0;0.0;0.0;0.0;0.0;0.0;0.0;0.0;0.0;0.0;0.0;0.0;0.0;0.0;0.0;0.0;0.0;0.0;0.0;0.0;0.0;0.0;0.0;0.0;0.0;0.0;0.0;1.00988124784e-08
330294000000;178;330294000000;map;36.9053355896;6.02867739637;0.0;0.0;0.0;0.701328002405;0.712838714607;9.77265244728e-07;-7.40727529092e-07;0.0;0.0;0.0;0.0;-7.40727557513e-07;3.749838136e-06;0.0;0.0;0.0;0.0;0.0;0.0;0.0;0.0;0.0;0.0;0.0;0.0;0.0;0.0;0.0;0.0;0.0;0.0;0.0;0.0;0.0;0.0;0.0;0.0;0.0;0.0;0.0;1.02868716032e-08
330815000000;179;330815000000;map;36.9095908161;6.28911178017;0.0;0.0;0.0;0.7013273386;0.712839367692;9.94035644908e-07;-7.80477193985e-07;0.0;0.0;0.0;0.0;-7.80477193985e-07;3.84191434932e-06;0.0;0.0;0.0;0.0;0.0;0.0;0.0;0.0;0.0;0.0;0.0;0.0;0.0;0.0;0.0;0.0;0.0;0.0;0.0;0.0;0.0;0.0;0.0;0.0;0.0;0.0;0.0;1.04007427386e-08
331319000000;180;331319000000;map;36.9136674996;6.54110395676;0.0;0.0;0.0;0.701328079015;0.712838639234;1.01039904621e-06;-8.08532149676e-07;0.0;0.0;0.0;0.0;-8.08532149676e-07;3.86593826818e-06;0.0;0.0;0.0;0.0;0.0;0.0;0.0;0.0;0.0;0.0;0.0;0.0;0.0;0.0;0.0;0.0;0.0;0.0;0.0;0.0;0.0;0.0;0.0;0.0;0.0;0.0;0.0;1.03129223205e-08
331838000000;181;331838000000;map;36.9179018227;6.80055095616;0.0;0.0;0.0;0.701328062295;0.712838655684;1.0521009699e-06;-8.4486043761e-07;0.0;0.0;0.0;0.0;-8.4486043761e-07;3.85762056254e-06;0.0;0.0;0.0;0.0;0.0;0.0;0.0;0.0;0.0;0.0;0.0;0.0;0.0;0.0;0.0;0.0;0.0;0.0;0.0;0.0;0.0;0.0;0.0;0.0;0.0;0.0;0.0;1.06754367853e-08
332339000000;182;332339000000;map;36.9219841972;7.05102550846;0.0;0.0;0.0;0.701328339502;0.712838382953;1.07059236143e-06;-8.5175940967e-07;0.0;0.0;0.0;0.0;-8.5175940967e-07;3.8401448279e-06;0.0;0.0;0.0;0.0;0.0;0.0;0.0;0.0;0.0;0.0;0.0;0.0;0.0;0.0;0.0;0.0;0.0;0.0;0.0;0.0;0.0;0.0;0.0;0.0;0.0;0.0;0.0;1.03226547576e-08
332841000000;183;332841000000;map;36.9260691912;7.30196331737;0.0;0.0;0.0;0.701327995581;0.712838721321;1.08650056063e-06;-9.18307193842e-07;0.0;0.0;0.0;0.0;-9.18307193842e-07;3.8314842925e-06;0.0;0.0;0.0;0.0;0.0;0.0;0.0;0.0;0.0;0.0;0.0;0.0;0.0;0.0;0.0;0.0;0.0;0.0;0.0;0.0;0.0;0.0;0.0;0.0;0.0;0.0;0.0;1.0429477309e-08
333350000000;184;333350000000;map;36.9302213707;7.55640681824;0.0;0.0;0.0;0.701327563799;0.71283914613;1.13839678306e-06;-9.7837659041e-07;0.0;0.0;0.0;0.0;-9.7837659041e-07;3.84471392323e-06;0.0;0.0;0.0;0.0;0.0;0.0;0.0;0.0;0.0;0.0;0.0;0.0;0.0;0.0;0.0;0.0;0.0;0.0;0.0;0.0;0.0;0.0;0.0;0.0;0.0;0.0;0.0;1.02278747955e-08
333851000000;185;333851000000;map;36.9342907362;7.80687852315;0.0;0.0;0.0;0.701327511275;0.712839197806;1.16474052447e-06;-9.95813252302e-07;0.0;0.0;0.0;0.0;-9.95813252302e-07;3.81936236948e-06;0.0;0.0;0.0;0.0;0.0;0.0;0.0;0.0;0.0;0.0;0.0;0.0;0.0;0.0;0.0;0.0;0.0;0.0;0.0;0.0;0.0;0.0;0.0;0.0;0.0;0.0;0.0;1.04932363074e-08
334352000000;186;334352000000;map;36.9383911535;8.05731272003;0.0;0.0;0.0;0.701326962023;0.712839738188;1.24181838146e-06;-1.08659406806e-06;0.0;0.0;0.0;0.0;-1.0865941249e-06;3.87366134191e-06;0.0;0.0;0.0;0.0;0.0;0.0;0.0;0.0;0.0;0.0;0.0;0.0;0.0;0.0;0.0;0.0;0.0;0.0;0.0;0.0;0.0;0.0;0.0;0.0;0.0;0.0;0.0;1.08491416145e-08
