%time;field.header.seq;field.header.stamp;field.header.frame_id;field.pose.pose.position.x;field.pose.pose.position.y;field.pose.pose.position.z;field.pose.pose.orientation.x;field.pose.pose.orientation.y;field.pose.pose.orientation.z;field.pose.pose.orientation.w;field.pose.covariance0;field.pose.covariance1;field.pose.covariance2;field.pose.covariance3;field.pose.covariance4;field.pose.covariance5;field.pose.covariance6;field.pose.covariance7;field.pose.covariance8;field.pose.covariance9;field.pose.covariance10;field.pose.covariance11;field.pose.covariance12;field.pose.covariance13;field.pose.covariance14;field.pose.covariance15;field.pose.covariance16;field.pose.covariance17;field.pose.covariance18;field.pose.covariance19;field.pose.covariance20;field.pose.covariance21;field.pose.covariance22;field.pose.covariance23;field.pose.covariance24;field.pose.covariance25;field.pose.covariance26;field.pose.covariance27;field.pose.covariance28;field.pose.covariance29;field.pose.covariance30;field.pose.covariance31;field.pose.covariance32;field.pose.covariance33;field.pose.covariance34;field.pose.covariance35
239609000000;9;239609000000;map;2.28031438332;-0.0140475656976;0.0;0.0;0.0;-0.00166247063284;0.999998618095;0.0459534959965;-0.00129909764737;0.0;0.0;0.0;0.0;-0.00129909764737;0.00372546053996;0.0;0.0;0.0;0.0;0.0;0.0;0.0;0.0;0.0;0.0;0.0;0.0;0.0;0.0;0.0;0.0;0.0;0.0;0.0;0.0;0.0;0.0;0.0;0.0;0.0;0.0;0.0;0.0005057415279
240117000000;10;240117000000;map;2.53497275842;-0.0141593912008;0.0;0.0;0.0;-0.00153714245133;0.999998818596;0.0397046456495;-0.000896054648054;0.0;0.0;0.0;0.0;-0.000896054648054;0.00283695871492;0.0;0.0;0.0;0.0;0.0;0.0;0.0;0.0;0.0;0.0;0.0;0.0;0.0;0.0;0.0;0.0;0.0;0.0;0.0;0.0;0.0;0.0;0.0;0.0;0.0;0.0;0.0;0.000307411443266
240618000000;11;240618000000;map;2.783753064;-0.0146271624861;0.0;0.0;0.0;-0.00160765077363;0.999998707729;0.0317902973083;-0.00102275582687;0.0;0.0;0.0;0.0;-0.00102275582687;0.00243586828553;0.0;0.0;0.0;0.0;0.0;0.0;0.0;0.0;0.0;0.0;0.0;0.0;0.0;0.0;0.0;0.0;0.0;0.0;0.0;0.0;0.0;0.0;0.0;0.0;0.0;0.0;0.0;0.000240844508794
241124000000;12;241124000000;map;3.03721513201;-0.0144006775169;0.0;0.0;0.0;-0.00146254022283;0.999998930487;0.0263114238769;-0.00100168931677;0.0;0.0;0.0;0.0;-0.00100168931677;0.00229040355511;0.0;0.0;0.0;0.0;0.0;0.0;0.0;0.0;0.0;0.0;0.0;0.0;0.0;0.0;0.0;0.0;0.0;0.0;0.0;0.0;0.0;0.0;0.0;0.0;0.0;0.0;0.0;0.000199260579994
241630000000;13;241630000000;map;3.28963722584;-0.0146215101777;0.0;0.0;0.0;-0.00154867309087;0.999998800805;0.021786356534;-0.000914509331756;0.0;0.0;0.0;0.0;-0.000914509331756;0.00209845676485;0.0;0.0;0.0;0.0;0.0;0.0;0.0;0.0;0.0;0.0;0.0;0.0;0.0;0.0;0.0;0.0;0.0;0.0;0.0;0.0;0.0;0.0;0.0;0.0;0.0;0.0;0.0;0.000164602947859
242132000000;14;242132000000;map;3.53641082033;-0.0152311252441;0.0;0.0;0.0;-0.00164662412058;0.999998644314;0.0165545923215;-0.000822765520387;0.0;0.0;0.0;0.0;-0.000822765520387;0.00191216038325;0.0;0.0;0.0;0.0;0.0;0.0;0.0;0.0;0.0;0.0;0.0;0.0;0.0;0.0;0.0;0.0;0.0;0.0;0.0;0.0;0.0;0.0;0.0;0.0;0.0;0.0;0.0;0.000142054780658
242635000000;15;242635000000;map;3.78551974889;-0.015684043332;0.0;0.0;0.0;-0.00162934106842;0.999998672623;0.0130750857903;-0.000845893428222;0.0;0.0;0.0;0.0;-0.000845893428222;0.00184453093489;0.0;0.0;0.0;0.0;0.0;0.0;0.0;0.0;0.0;0.0;0.0;0.0;0.0;0.0;0.0;0.0;0.0;0.0;0.0;0.0;0.0;0.0;0.0;0.0;0.0;0.0;0.0;0.000121211250008
243144000000;16;243144000000;map;4.03369236742;-0.0160826085407;0.0;0.0;0.0;-0.00154831869133;0.999998801354;0.0113269414272;-0.000904859033566;0.0;0.0;0.0;0.0;-0.000904859033566;0.00171684493503;0.0;0.0;0.0;0.0;0.0;0.0;0.0;0.0;0.0;0.0;0.0;0.0;0.0;0.0;0.0;0.0;0.0;0.0;0.0;0.0;0.0;0.0;0.0;0.0;0.0;0.0;0.0;0.000103371708299
243647000000;17;243647000000;map;4.28279856503;-0.0158878005626;0.0;0.0;0.0;-0.00163642513242;0.999998661055;0.00947673986923;-0.000798594575059;0.0;0.0;0.0;0.0;-0.000798594575059;0.0016765996169;0.0;0.0;0.0;0.0;0.0;0.0;0.0;0.0;0.0;0.0;0.0;0.0;0.0;0.0;0.0;0.0;0.0;0.0;0.0;0.0;0.0;0.0;0.0;0.0;0.0;0.0;0.0;8.45666438072e-05
244154000000;18;244154000000;map;4.53266526163;-0.0165233909206;0.0;0.0;0.0;-0.00164680397471;0.999998644017;0.00768494670969;-0.00078036702224;0.0;0.0;0.0;0.0;-0.00078036702224;0.00157228623965;0.0;0.0;0.0;0.0;0.0;0.0;0.0;0.0;0.0;0.0;0.0;0.0;0.0;0.0;0.0;0.0;0.0;0.0;0.0;0.0;0.0;0.0;0.0;0.0;0.0;0.0;0.0;7.234137871e-05
244659000000;19;244659000000;map;4.78196888684;-0.0164732251126;0.0;0.0;0.0;-0.00152954169869;0.99999883025;0.0069061914223;-0.000752986753054;0.0;0.0;0.0;0.0;-0.000752986753054;0.00149855777349;0.0;0.0;0.0;0.0;0.0;0.0;0.0;0.0;0.0;0.0;0.0;0.0;0.0;0.0;0.0;0.0;0.0;0.0;0.0;0.0;0.0;0.0;0.0;0.0;0.0;0.0;0.0;6.26969440501e-05
245180000000;20;245180000000;map;5.03941812743;-0.0165874993453;0.0;0.0;0.0;-0.00154927116974;0.999998799879;0.00541249699119;-0.000683724374876;0.0;0.0;0.0;0.0;-0.000683724374876;0.00141017682365;0.0;0.0;0.0;0.0;0.0;0.0;0.0;0.0;0.0;0.0;0.0;0.0;0.0;0.0;0.0;0.0;0.0;0.0;0.0;0.0;0.0;0.0;0.0;0.0;0.0;0.0;0.0;5.19431734049e-05
245684000000;21;245684000000;map;5.28890011825;-0.0157363633264;0.0;0.0;0.0;-0.00141846484724;0.999998993978;0.00471622278774;-0.000594923090345;0.0;0.0;0.0;0.0;-0.000594923090345;0.00126869353203;0.0;0.0;0.0;0.0;0.0;0.0;0.0;0.0;0.0;0.0;0.0;0.0;0.0;0.0;0.0;0.0;0.0;0.0;0.0;0.0;0.0;0.0;0.0;0.0;0.0;0.0;0.0;4.41821893621e-05
246187000000;22;246187000000;map;5.53747237481;-0.0160208808634;0.0;0.0;0.0;-0.00132295263193;0.999999124898;0.0043256872808;-0.000528900407093;0.0;0.0;0.0;0.0;-0.000528900407093;0.00116648455301;0.0;0.0;0.0;0.0;0.0;0.0;0.0;0.0;0.0;0.0;0.0;0.0;0.0;0.0;0.0;0.0;0.0;0.0;0.0;0.0;0.0;0.0;0.0;0.0;0.0;0.0;0.0;3.54915614268e-05
246706000000;23;246706000000;map;5.79637242723;-0.0156291758395;0.0;0.0;0.0;-0.00129581328411;0.999999160434;0.00431557901894;-0.000491599410058;0.0;0.0;0.0;0.0;-0.000491599410058;0.00107017188982;0.0;0.0;0.0;0.0;0.0;0.0;0.0;0.0;0.0;0.0;0.0;0.0;0.0;0.0;0.0;0.0;0.0;0.0;0.0;0.0;0.0;0.0;0.0;0.0;0.0;0.0;0.0;2.98341746216e-05
247211000000;24;247211000000;map;6.04665679072;-0.015334271562;0.0;0.0;0.0;-0.0012185015837;0.999999257627;0.00351609134925;-0.00041801272031;0.0;0.0;0.0;0.0;-0.00041801272031;0.00101351553858;0.0;0.0;0.0;0.0;0.0;0.0;0.0;0.0;0.0;0.0;0.0;0.0;0.0;0.0;0.0;0.0;0.0;0.0;0.0;0.0;0.0;0.0;0.0;0.0;0.0;0.0;0.0;2.55590224122e-05
247712000000;25;247712000000;map;6.29414004809;-0.0150407509453;0.0;0.0;0.0;-0.00113024472456;0.999999361273;0.00300856859116;-0.000340626911576;0.0;0.0;0.0;0.0;-0.000340626911576;0.000914113724091;0.0;0.0;0.0;0.0;0.0;0.0;0.0;0.0;0.0;0.0;0.0;0.0;0.0;0.0;0.0;0.0;0.0;0.0;0.0;0.0;0.0;0.0;0.0;0.0;0.0;0.0;0.0;2.2876645434e-05
248219000000;26;248219000000;map;6.54561050624;-0.0141003579472;0.0;0.0;0.0;-0.00107130616081;0.999999426151;0.00244429098169;-0.000272730447793;0.0;0.0;0.0;0.0;-0.000272730447793;0.000829470512989;0.0;0.0;0.0;0.0;0.0;0.0;0.0;0.0;0.0;0.0;0.0;0.0;0.0;0.0;0.0;0.0;0.0;0.0;0.0;0.0;0.0;0.0;0.0;0.0;0.0;0.0;0.0;2.04739448446e-05
248722000000;27;248722000000;map;6.79608972692;-0.0146921275283;0.0;0.0;0.0;-0.00106209029859;0.999999435982;0.00234845314147;-0.000291897232632;0.0;0.0;0.0;0.0;-0.000291897232632;0.000794017344616;0.0;0.0;0.0;0.0;0.0;0.0;0.0;0.0;0.0;0.0;0.0;0.0;0.0;0.0;0.0;0.0;0.0;0.0;0.0;0.0;0.0;0.0;0.0;0.0;0.0;0.0;0.0;1.81629316183e-05
249241000000;28;249241000000;map;7.05367209403;-0.0152166998006;0.0;0.0;0.0;-0.00103363898877;0.999999465795;0.00201806644633;-0.000275211845264;0.0;0.0;0.0;0.0;-0.000275211845264;0.000774123458577;0.0;0.0;0.0;0.0;0.0;0.0;0.0;0.0;0.0;0.0;0.0;0.0;0.0;0.0;0.0;0.0;0.0;0.0;0.0;0.0;0.0;0.0;0.0;0.0;0.0;0.0;0.0;1.63645144398e-05
249750000000;29;249750000000;map;7.30617623751;-0.0156194473634;0.0;0.0;0.0;-0.000997993290784;0.999999502005;0.00178541636015;-0.000267551475542;0.0;0.0;0.0;0.0;-0.000267551475542;0.000686008001744;0.0;0.0;0.0;0.0;0.0;0.0;0.0;0.0;0.0;0.0;0.0;0.0;0.0;0.0;0.0;0.0;0.0;0.0;0.0;0.0;0.0;0.0;0.0;0.0;0.0;0.0;0.0;1.45750967183e-05
250254000000;30;250254000000;map;7.55615960998;-0.0157853681131;0.0;0.0;0.0;-0.000968606189652;0.999999530901;0.00156588152055;-0.000221846448534;0.0;0.0;0.0;0.0;-0.000221846448534;0.000626315529088;0.0;0.0;0.0;0.0;0.0;0.0;0.0;0.0;0.0;0.0;0.0;0.0;0.0;0.0;0.0;0.0;0.0;0.0;0.0;0.0;0.0;0.0;0.0;0.0;0.0;0.0;0.0;1.2062320797e-05
250771000000;31;250771000000;map;7.81355454922;-0.0164505493906;0.0;0.0;0.0;-0.000973911591127;0.999999525748;0.00136998915126;-0.000236916080445;0.0;0.0;0.0;0.0;-0.000236916080445;0.000595819678999;0.0;0.0;0.0;0.0;0.0;0.0;0.0;0.0;0.0;0.0;0.0;0.0;0.0;0.0;0.0;0.0;0.0;0.0;0.0;0.0;0.0;0.0;0.0;0.0;0.0;0.0;0.0;1.13818686526e-05
251272000000;32;251272000000;map;8.06285105648;-0.0167465154261;0.0;0.0;0.0;-0.000945914029615;0.999999552623;0.00125359224556;-0.00021712847664;0.0;0.0;0.0;0.0;-0.00021712847664;0.000544080951628;0.0;0.0;0.0;0.0;0.0;0.0;0.0;0.0;0.0;0.0;0.0;0.0;0.0;0.0;0.0;0.0;0.0;0.0;0.0;0.0;0.0;0.0;0.0;0.0;0.0;0.0;0.0;1.01094855433e-05
251772000000;33;251772000000;map;8.31120382051;-0.016443647715;0.0;0.0;0.0;-0.000897160736066;0.999999597551;0.00106328741767;-0.000147264426492;0.0;0.0;0.0;0.0;-0.000147264426492;0.000492186091596;0.0;0.0;0.0;0.0;0.0;0.0;0.0;0.0;0.0;0.0;0.0;0.0;0.0;0.0;0.0;0.0;0.0;0.0;0.0;0.0;0.0;0.0;0.0;0.0;0.0;0.0;0.0;8.26879292148e-06
252291000000;34;252291000000;map;8.57044037034;-0.0171998590492;0.0;0.0;0.0;-0.000913821313772;0.999999582465;0.00107961972098;-0.000180935947571;0.0;0.0;0.0;0.0;-0.000180935947571;0.0004937851081;0.0;0.0;0.0;0.0;0.0;0.0;0.0;0.0;0.0;0.0;0.0;0.0;0.0;0.0;0.0;0.0;0.0;0.0;0.0;0.0;0.0;0.0;0.0;0.0;0.0;0.0;0.0;7.75443362825e-06
252796000000;35;252796000000;map;8.82175867874;-0.0172655378344;0.0;0.0;0.0;-0.000878349257546;0.999999614251;0.000921546440765;-0.000144908217968;0.0;0.0;0.0;0.0;-0.000144908217968;0.000465246667471;0.0;0.0;0.0;0.0;0.0;0.0;0.0;0.0;0.0;0.0;0.0;0.0;0.0;0.0;0.0;0.0;0.0;0.0;0.0;0.0;0.0;0.0;0.0;0.0;0.0;0.0;0.0;6.5241050428e-06
253297000000;36;253297000000;map;9.07089487903;-0.0172554298317;0.0;0.0;0.0;-0.000833840791009;0.999999652355;0.000745539019576;-9.66012573012e-05;0.0;0.0;0.0;0.0;-9.66012573012e-05;0.000417925855391;0.0;0.0;0.0;0.0;0.0;0.0;0.0;0.0;0.0;0.0;0.0;0.0;0.0;0.0;0.0;0.0;0.0;0.0;0.0;0.0;0.0;0.0;0.0;0.0;0.0;0.0;0.0;5.2959410002e-06
253800000000;37;253800000000;map;9.32113670354;-0.0173124964388;0.0;0.0;0.0;-0.000795168221037;0.999999683854;0.000577764207321;-4.93653444691e-05;0.0;0.0;0.0;0.0;-4.93653444691e-05;0.000389379483923;0.0;0.0;0.0;0.0;0.0;0.0;0.0;0.0;0.0;0.0;0.0;0.0;0.0;0.0;0.0;0.0;0.0;0.0;0.0;0.0;0.0;0.0;0.0;0.0;0.0;0.0;0.0;4.16315608319e-06
254303000000;38;254303000000;map;9.57212800746;-0.0178851258225;0.0;0.0;0.0;-0.000803692426067;0.999999677039;0.000530499165748;-5.44191189427e-05;0.0;0.0;0.0;0.0;-5.44191189427e-05;0.000355445783109;0.0;0.0;0.0;0.0;0.0;0.0;0.0;0.0;0.0;0.0;0.0;0.0;0.0;0.0;0.0;0.0;0.0;0.0;0.0;0.0;0.0;0.0;0.0;0.0;0.0;0.0;0.0;3.75752908424e-06
254824000000;39;254824000000;map;9.83195214503;-0.0180654588441;0.0;0.0;0.0;-0.000785008415227;0.999999691881;0.000435302986176;-2.05402240445e-05;0.0;0.0;0.0;0.0;-2.05402240445e-05;0.000318678912648;0.0;0.0;0.0;0.0;0.0;0.0;0.0;0.0;0.0;0.0;0.0;0.0;0.0;0.0;0.0;0.0;0.0;0.0;0.0;0.0;0.0;0.0;0.0;0.0;0.0;0.0;0.0;3.29813342219e-06
255330000000;40;255330000000;map;10.0843990227;-0.0187156019998;0.0;0.0;0.0;-0.000788974674319;0.999999688759;0.000376496322502;-2.48145939524e-05;0.0;0.0;0.0;0.0;-2.48145939524e-05;0.000300754130734;0.0;0.0;0.0;0.0;0.0;0.0;0.0;0.0;0.0;0.0;0.0;0.0;0.0;0.0;0.0;0.0;0.0;0.0;0.0;0.0;0.0;0.0;0.0;0.0;0.0;0.0;0.0;3.06352844621e-06
255834000000;41;255834000000;map;10.3359130248;-0.0189134134386;0.0;0.0;0.0;-0.000773489905346;0.999999700857;0.000336522255338;-8.57323305342e-06;0.0;0.0;0.0;0.0;-8.57323305342e-06;0.000278876925199;0.0;0.0;0.0;0.0;0.0;0.0;0.0;0.0;0.0;0.0;0.0;0.0;0.0;0.0;0.0;0.0;0.0;0.0;0.0;0.0;0.0;0.0;0.0;0.0;0.0;0.0;0.0;2.49157976263e-06
256343000000;42;256343000000;map;10.5902389757;-0.0196882754727;0.0;0.0;0.0;-0.000784367736209;0.999999692384;0.000353708344008;-4.55207097758e-05;0.0;0.0;0.0;0.0;-4.55207097758e-05;0.000269630412265;0.0;0.0;0.0;0.0;0.0;0.0;0.0;0.0;0.0;0.0;0.0;0.0;0.0;0.0;0.0;0.0;0.0;0.0;0.0;0.0;0.0;0.0;0.0;0.0;0.0;0.0;0.0;2.46610926977e-06
256862000000;43;256862000000;map;10.8492119668;-0.0203072131198;0.0;0.0;0.0;-0.00078171437043;0.999999694461;0.0003067890067;-5.13421979993e-05;0.0;0.0;0.0;0.0;-5.13421979993e-05;0.000223662185401;0.0;0.0;0.0;0.0;0.0;0.0;0.0;0.0;0.0;0.0;0.0;0.0;0.0;0.0;0.0;0.0;0.0;0.0;0.0;0.0;0.0;0.0;0.0;0.0;0.0;0.0;0.0;2.10638150798e-06
257368000000;44;257368000000;map;11.1019321061;-0.0208337296986;0.0;0.0;0.0;-0.000780678456336;0.999999695271;0.000294507547579;-5.56832713161e-05;0.0;0.0;0.0;0.0;-5.56832713161e-05;0.000187345876927;0.0;0.0;0.0;0.0;0.0;0.0;0.0;0.0;0.0;0.0;0.0;0.0;0.0;0.0;0.0;0.0;0.0;0.0;0.0;0.0;0.0;0.0;0.0;0.0;0.0;0.0;0.0;1.79330790258e-06
257876000000;45;257876000000;map;11.3556569302;-0.0212810728035;0.0;0.0;0.0;-0.000778019091612;0.999999697343;0.000267521775982;-5.65725864252e-05;0.0;0.0;0.0;0.0;-5.65725864252e-05;0.00016775856608;0.0;0.0;0.0;0.0;0.0;0.0;0.0;0.0;0.0;0.0;0.0;0.0;0.0;0.0;0.0;0.0;0.0;0.0;0.0;0.0;0.0;0.0;0.0;0.0;0.0;0.0;0.0;1.63773833225e-06
258376000000;46;258376000000;map;11.6056247612;-0.0217988833346;0.0;0.0;0.0;-0.00078083420626;0.999999695149;0.000272367076008;-6.9415517783e-05;0.0;0.0;0.0;0.0;-6.9415517783e-05;0.000170848479987;0.0;0.0;0.0;0.0;0.0;0.0;0.0;0.0;0.0;0.0;0.0;0.0;0.0;0.0;0.0;0.0;0.0;0.0;0.0;0.0;0.0;0.0;0.0;0.0;0.0;0.0;0.0;1.60131157579e-06
258880000000;47;258880000000;map;11.8576334853;-0.0222201980828;0.0;0.0;0.0;-0.000781212623398;0.999999694853;0.000281581732821;-7.60165438302e-05;0.0;0.0;0.0;0.0;-7.60165438302e-05;0.000187300601343;0.0;0.0;0.0;0.0;0.0;0.0;0.0;0.0;0.0;0.0;0.0;0.0;0.0;0.0;0.0;0.0;0.0;0.0;0.0;0.0;0.0;0.0;0.0;0.0;0.0;0.0;0.0;1.59854117366e-06
259388000000;48;259388000000;map;12.111431828;-0.0225742276748;0.0;0.0;0.0;-0.000774752046761;0.99999969988;0.000251301634023;-7.09577913921e-05;0.0;0.0;0.0;0.0;-7.09577913921e-05;0.000179601478017;0.0;0.0;0.0;0.0;0.0;0.0;0.0;0.0;0.0;0.0;0.0;0.0;0.0;0.0;0.0;0.0;0.0;0.0;0.0;0.0;0.0;0.0;0.0;0.0;0.0;0.0;0.0;1.41046915478e-06
259890000000;49;259890000000;map;12.3621632527;-0.0229622074942;0.0;0.0;0.0;-0.000766818667685;0.999999705995;0.000231062292869;-6.94768881847e-05;0.0;0.0;0.0;0.0;-6.94768881847e-05;0.000142131753786;0.0;0.0;0.0;0.0;0.0;0.0;0.0;0.0;0.0;0.0;0.0;0.0;0.0;0.0;0.0;0.0;0.0;0.0;0.0;0.0;0.0;0.0;0.0;0.0;0.0;0.0;0.0;1.03514481041e-06
260391000000;50;260391000000;map;12.6124099448;-0.023174835294;0.0;0.0;0.0;-0.000757708658899;0.999999712939;0.000189207819744;-4.88486032086e-05;0.0;0.0;0.0;0.0;-4.88486032086e-05;0.000117263843059;0.0;0.0;0.0;0.0;0.0;0.0;0.0;0.0;0.0;0.0;0.0;0.0;0.0;0.0;0.0;0.0;0.0;0.0;0.0;0.0;0.0;0.0;0.0;0.0;0.0;0.0;0.0;8.16867467064e-07
260897000000;51;260897000000;map;12.8651523396;-0.0233723418944;0.0;0.0;0.0;-0.000746476785587;0.999999721386;0.000141422856416;-2.8102542123e-05;0.0;0.0;0.0;0.0;-2.8102542123e-05;0.000108648966784;0.0;0.0;0.0;0.0;0.0;0.0;0.0;0.0;0.0;0.0;0.0;0.0;0.0;0.0;0.0;0.0;0.0;0.0;0.0;0.0;0.0;0.0;0.0;0.0;0.0;0.0;0.0;6.36091636153e-07
261403000000;52;261403000000;map;13.1180456392;-0.0237722129315;0.0;0.0;0.0;-0.000747209030171;0.999999720839;0.000137929918907;-2.8080327854e-05;0.0;0.0;0.0;0.0;-2.8080327854e-05;9.76087865997e-05;0.0;0.0;0.0;0.0;0.0;0.0;0.0;0.0;0.0;0.0;0.0;0.0;0.0;0.0;0.0;0.0;0.0;0.0;0.0;0.0;0.0;0.0;0.0;0.0;0.0;0.0;0.0;5.9427014834e-07
261904000000;53;261904000000;map;13.3684212909;-0.0240659842235;0.0;0.0;0.0;-0.000742415406747;0.99999972441;0.000124368551894;-2.07700015826e-05;0.0;0.0;0.0;0.0;-2.07700015826e-05;0.00010427525858;0.0;0.0;0.0;0.0;0.0;0.0;0.0;0.0;0.0;0.0;0.0;0.0;0.0;0.0;0.0;0.0;0.0;0.0;0.0;0.0;0.0;0.0;0.0;0.0;0.0;0.0;0.0;5.29535981e-07
262410000000;54;262410000000;map;13.6212494556;-0.024473530599;0.0;0.0;0.0;-0.000740830224272;0.999999725585;0.000124340009421;-2.46418771256e-05;0.0;0.0;0.0;0.0;-2.46418771256e-05;8.92997348618e-05;0.0;0.0;0.0;0.0;0.0;0.0;0.0;0.0;0.0;0.0;0.0;0.0;0.0;0.0;0.0;0.0;0.0;0.0;0.0;0.0;0.0;0.0;0.0;0.0;0.0;0.0;0.0;4.04324359118e-07
262911000000;55;262911000000;map;13.8716869929;-0.0247454648761;0.0;0.0;0.0;-0.000735544350235;0.999999729487;0.000103342963286;-1.26127957574e-05;0.0;0.0;0.0;0.0;-1.26127957573e-05;7.74600348298e-05;0.0;0.0;0.0;0.0;0.0;0.0;0.0;0.0;0.0;0.0;0.0;0.0;0.0;0.0;0.0;0.0;0.0;0.0;0.0;0.0;0.0;0.0;0.0;0.0;0.0;0.0;0.0;2.94996518097e-07
263413000000;56;263413000000;map;14.1225509259;-0.0250769369721;0.0;0.0;0.0;-0.000733971246754;0.999999730643;9.74878562374e-05;-8.71521169993e-06;0.0;0.0;0.0;0.0;-8.71521169987e-06;6.07354135169e-05;0.0;0.0;0.0;0.0;0.0;0.0;0.0;0.0;0.0;0.0;0.0;0.0;0.0;0.0;0.0;0.0;0.0;0.0;0.0;0.0;0.0;0.0;0.0;0.0;0.0;0.0;0.0;2.21020671765e-07
263915000000;57;263915000000;map;14.3734270982;-0.0253503487743;0.0;0.0;0.0;-0.000730790657166;0.999999732972;7.59400140282e-05;5.56361588661e-06;0.0;0.0;0.0;0.0;5.56361588666e-06;4.91804697135e-05;0.0;0.0;0.0;0.0;0.0;0.0;0.0;0.0;0.0;0.0;0.0;0.0;0.0;0.0;0.0;0.0;0.0;0.0;0.0;0.0;0.0;0.0;0.0;0.0;0.0;0.0;0.0;1.63746418022e-07
264419000000;58;264419000000;map;14.6252632651;-0.0258628828496;0.0;0.0;0.0;-0.000733067154793;0.999999731306;5.96059210238e-05;1.12115529433e-06;0.0;0.0;0.0;0.0;1.12115529433e-06;3.37014465015e-05;0.0;0.0;0.0;0.0;0.0;0.0;0.0;0.0;0.0;0.0;0.0;0.0;0.0;0.0;0.0;0.0;0.0;0.0;0.0;0.0;0.0;0.0;0.0;0.0;0.0;0.0;0.0;1.12824221595e-07
264940000000;59;264940000000;map;14.8858542767;-0.0260889994263;0.0;0.0;0.0;-0.000728601896939;0.99999973457;5.6347116697e-05;1.2299606822e-05;0.0;0.0;0.0;0.0;1.2299606822e-05;4.25411632523e-05;0.0;0.0;0.0;0.0;0.0;0.0;0.0;0.0;0.0;0.0;0.0;0.0;0.0;0.0;0.0;0.0;0.0;0.0;0.0;0.0;0.0;0.0;0.0;0.0;0.0;0.0;0.0;1.00191370823e-07
265455000000;60;265455000000;map;15.143243721;-0.0264158514658;0.0;0.0;0.0;-0.000727377286101;0.999999735461;5.22284752833e-05;1.80316643226e-05;0.0;0.0;0.0;0.0;1.80316643226e-05;4.40719235262e-05;0.0;0.0;0.0;0.0;0.0;0.0;0.0;0.0;0.0;0.0;0.0;0.0;0.0;0.0;0.0;0.0;0.0;0.0;0.0;0.0;0.0;0.0;0.0;0.0;0.0;0.0;0.0;9.07218087913e-08
265957000000;61;265957000000;map;15.3941058771;-0.0267904449708;0.0;0.0;0.0;-0.000726973592438;0.999999735755;3.94057123287e-05;2.27804912969e-05;0.0;0.0;0.0;0.0;2.27804912968e-05;3.63019014955e-05;0.0;0.0;0.0;0.0;0.0;0.0;0.0;0.0;0.0;0.0;0.0;0.0;0.0;0.0;0.0;0.0;0.0;0.0;0.0;0.0;0.0;0.0;0.0;0.0;0.0;0.0;0.0;5.7726582126e-08
266465000000;62;266465000000;map;15.6481518933;-0.0271339893389;0.0;0.0;0.0;-0.000726592561004;0.999999736032;4.08437773274e-05;2.45137001172e-05;0.0;0.0;0.0;0.0;2.45137001172e-05;3.98337063267e-05;0.0;0.0;0.0;0.0;0.0;0.0;0.0;0.0;0.0;0.0;0.0;0.0;0.0;0.0;0.0;0.0;0.0;0.0;0.0;0.0;0.0;0.0;0.0;0.0;0.0;0.0;0.0;6.16348914744e-08
266966000000;63;266966000000;map;15.8986682476;-0.0275932898107;0.0;0.0;0.0;-0.000728605077313;0.999999734567;3.73090334449e-05;1.90056262249e-05;0.0;0.0;0.0;0.0;1.90056262249e-05;3.19178957098e-05;0.0;0.0;0.0;0.0;0.0;0.0;0.0;0.0;0.0;0.0;0.0;0.0;0.0;0.0;0.0;0.0;0.0;0.0;0.0;0.0;0.0;0.0;0.0;0.0;0.0;0.0;0.0;4.91914894872e-08
267471000000;64;267471000000;map;16.1511567353;-0.0278987198174;0.0;0.0;0.0;-0.000727499588128;0.999999735372;3.98988888151e-05;2.28269252079e-05;0.0;0.0;0.0;0.0;2.28269252079e-05;3.83817966259e-05;0.0;0.0;0.0;0.0;0.0;0.0;0.0;0.0;0.0;0.0;0.0;0.0;0.0;0.0;0.0;0.0;0.0;0.0;0.0;0.0;0.0;0.0;0.0;0.0;0.0;0.0;0.0;5.73936564294e-08
267972000000;65;267972000000;map;16.4015944766;-0.0283905849487;0.0;0.0;0.0;-0.000730071693813;0.999999733498;3.64207530197e-05;1.63119337105e-05;0.0;0.0;0.0;0.0;1.63119337105e-05;2.72901336211e-05;0.0;0.0;0.0;0.0;0.0;0.0;0.0;0.0;0.0;0.0;0.0;0.0;0.0;0.0;0.0;0.0;0.0;0.0;0.0;0.0;0.0;0.0;0.0;0.0;0.0;0.0;0.0;4.16301581987e-08
268473000000;66;268473000000;map;16.6521635941;-0.0287808230854;0.0;0.0;0.0;-0.000730004835252;0.999999733546;3.58147738098e-05;1.47301815348e-05;0.0;0.0;0.0;0.0;1.47301815348e-05;2.48113130848e-05;0.0;0.0;0.0;0.0;0.0;0.0;0.0;0.0;0.0;0.0;0.0;0.0;0.0;0.0;0.0;0.0;0.0;0.0;0.0;0.0;0.0;0.0;0.0;0.0;0.0;0.0;0.0;3.79638144527e-08
268981000000;67;268981000000;map;16.9060498526;-0.0292078554245;0.0;0.0;0.0;-0.000731564356898;0.999999732407;3.46404902984e-05;1.21634856454e-05;0.0;0.0;0.0;0.0;1.21634856454e-05;2.05971794543e-05;0.0;0.0;0.0;0.0;0.0;0.0;0.0;0.0;0.0;0.0;0.0;0.0;0.0;0.0;0.0;0.0;0.0;0.0;0.0;0.0;0.0;0.0;0.0;0.0;0.0;0.0;0.0;3.16148305591e-08
269494000000;68;269494000000;map;17.1625448666;-0.0297291315901;0.0;0.0;0.0;-0.000734064141189;0.999999730575;2.94163168064e-05;3.92756418999e-06;0.0;0.0;0.0;0.0;3.92756418999e-06;6.75121703504e-06;0.0;0.0;0.0;0.0;0.0;0.0;0.0;0.0;0.0;0.0;0.0;0.0;0.0;0.0;0.0;0.0;0.0;0.0;0.0;0.0;0.0;0.0;0.0;0.0;0.0;0.0;0.0;1.32466082986e-08
269996000000;69;269996000000;map;17.4136095041;-0.0300760184784;0.0;0.0;0.0;-0.000733090092218;0.999999731289;3.09781898977e-05;4.74410772955e-06;0.0;0.0;0.0;0.0;4.74410772955e-06;8.46525404914e-06;0.0;0.0;0.0;0.0;0.0;0.0;0.0;0.0;0.0;0.0;0.0;0.0;0.0;0.0;0.0;0.0;0.0;0.0;0.0;0.0;0.0;0.0;0.0;0.0;0.0;0.0;0.0;1.53508688572e-08
270496000000;70;270496000000;map;17.6635456298;-0.0305193122723;0.0;0.0;0.0;-0.000734565299112;0.999999730207;2.92917258093e-05;1.08626034057e-06;0.0;0.0;0.0;0.0;1.08626034057e-06;2.13642996846e-06;0.0;0.0;0.0;0.0;0.0;0.0;0.0;0.0;0.0;0.0;0.0;0.0;0.0;0.0;0.0;0.0;0.0;0.0;0.0;0.0;0.0;0.0;0.0;0.0;0.0;0.0;0.0;7.31804707061e-09
271011000000;71;271011000000;map;17.9211053723;-0.0308331054485;0.0;0.0;0.0;-0.000733080838721;0.999999731296;3.34878619697e-05;4.22691242052e-06;0.0;0.0;0.0;0.0;4.22691242052e-06;7.16785748849e-06;0.0;0.0;0.0;0.0;0.0;0.0;0.0;0.0;0.0;0.0;0.0;0.0;0.0;0.0;0.0;0.0;0.0;0.0;0.0;0.0;0.0;0.0;0.0;0.0;0.0;0.0;0.0;1.34361417999e-08
271532000000;72;271532000000;map;18.1814971132;-0.0312647232475;0.0;0.0;0.0;-0.000734658702651;0.999999730138;3.23304489029e-05;2.08911551181e-06;0.0;0.0;0.0;0.0;2.08911551181e-06;3.93852348711e-06;0.0;0.0;0.0;0.0;0.0;0.0;0.0;0.0;0.0;0.0;0.0;0.0;0.0;0.0;0.0;0.0;0.0;0.0;0.0;0.0;0.0;0.0;0.0;0.0;0.0;0.0;0.0;9.58032677708e-09
272037000000;73;272037000000;map;18.4339646885;-0.0316690080859;0.0;0.0;0.0;-0.000735041220245;0.999999729857;3.12977665544e-05;-7.86803203701e-08;0.0;0.0;0.0;0.0;-7.86803203701e-08;5.81769787421e-07;0.0;0.0;0.0;0.0;0.0;0.0;0.0;0.0;0.0;0.0;0.0;0.0;0.0;0.0;0.0;0.0;0.0;0.0;0.0;0.0;0.0;0.0;0.0;0.0;0.0;0.0;0.0;5.83396865002e-09
272542000000;74;272542000000;map;18.6865243296;-0.0320420170817;0.0;0.0;0.0;-0.00073536406212;0.99999972962;3.1800292561e-05;-6.42264007533e-08;0.0;0.0;0.0;0.0;-6.42264007533e-08;5.97250482505e-07;0.0;0.0;0.0;0.0;0.0;0.0;0.0;0.0;0.0;0.0;0.0;0.0;0.0;0.0;0.0;0.0;0.0;0.0;0.0;0.0;0.0;0.0;0.0;0.0;0.0;0.0;0.0;5.84623483812e-09
273048000000;75;273048000000;map;18.939443873;-0.0324135533614;0.0;0.0;0.0;-0.000735402252707;0.999999729592;3.22732184941e-05;-1.15247264953e-07;0.0;0.0;0.0;0.0;-1.15247264953e-07;6.31664066363e-07;0.0;0.0;0.0;0.0;0.0;0.0;0.0;0.0;0.0;0.0;0.0;0.0;0.0;0.0;0.0;0.0;0.0;0.0;0.0;0.0;0.0;0.0;0.0;0.0;0.0;0.0;0.0;6.05394335579e-09
273550000000;76;273550000000;map;19.1904583806;-0.0327892819362;0.0;0.0;0.0;-0.000735442184467;0.999999729562;3.23461662788e-05;-1.09721204122e-07;0.0;0.0;0.0;0.0;-1.09721204011e-07;6.66435362668e-07;0.0;0.0;0.0;0.0;0.0;0.0;0.0;0.0;0.0;0.0;0.0;0.0;0.0;0.0;0.0;0.0;0.0;0.0;0.0;0.0;0.0;0.0;0.0;0.0;0.0;0.0;0.0;6.18462593206e-09
274070000000;77;274070000000;map;19.4504583614;-0.0331723490464;0.0;0.0;0.0;-0.000735483812955;0.999999729532;3.29453147287e-05;-1.10625575811e-07;0.0;0.0;0.0;0.0;-1.10625575811e-07;6.81585443586e-07;0.0;0.0;0.0;0.0;0.0;0.0;0.0;0.0;0.0;0.0;0.0;0.0;0.0;0.0;0.0;0.0;0.0;0.0;0.0;0.0;0.0;0.0;0.0;0.0;0.0;0.0;0.0;6.20822993977e-09
274579000000;78;274579000000;map;19.7049808165;-0.0335530609946;0.0;0.0;0.0;-0.000735556800029;0.999999729478;3.39695891398e-05;-2.29522733597e-07;0.0;0.0;0.0;0.0;-2.29522733486e-07;7.03789026764e-07;0.0;0.0;0.0;0.0;0.0;0.0;0.0;0.0;0.0;0.0;0.0;0.0;0.0;0.0;0.0;0.0;0.0;0.0;0.0;0.0;0.0;0.0;0.0;0.0;0.0;0.0;0.0;6.25980290805e-09
275087000000;79;275087000000;map;19.9589195355;-0.0339234825591;0.0;0.0;0.0;-0.000735719991778;0.999999729358;3.44392403235e-05;-2.5700074191e-07;0.0;0.0;0.0;0.0;-2.5700074191e-07;7.23946976946e-07;0.0;0.0;0.0;0.0;0.0;0.0;0.0;0.0;0.0;0.0;0.0;0.0;0.0;0.0;0.0;0.0;0.0;0.0;0.0;0.0;0.0;0.0;0.0;0.0;0.0;0.0;0.0;6.28655106738e-09
275605000000;80;275605000000;map;20.2179342254;-0.0343110571737;0.0;0.0;0.0;-0.000735866753149;0.99999972925;3.45346052768e-05;-2.63707718218e-07;0.0;0.0;0.0;0.0;-2.63707718218e-07;7.68202288896e-07;0.0;0.0;0.0;0.0;0.0;0.0;0.0;0.0;0.0;0.0;0.0;0.0;0.0;0.0;0.0;0.0;0.0;0.0;0.0;0.0;0.0;0.0;0.0;0.0;0.0;0.0;0.0;6.44577814386e-09
276109000000;81;276109000000;map;20.4698807198;-0.0346913637026;0.0;0.0;0.0;-0.000736253834438;0.999999728965;3.54308399437e-05;-2.43883547357e-07;0.0;0.0;0.0;0.0;-2.43883547246e-07;8.0339050472e-07;0.0;0.0;0.0;0.0;0.0;0.0;0.0;0.0;0.0;0.0;0.0;0.0;0.0;0.0;0.0;0.0;0.0;0.0;0.0;0.0;0.0;0.0;0.0;0.0;0.0;0.0;0.0;6.51189636608e-09
276617000000;82;276617000000;map;20.7238412633;-0.0350659557447;0.0;0.0;0.0;-0.000736202673343;0.999999729003;3.5968398663e-05;-2.68202312914e-07;0.0;0.0;0.0;0.0;-2.68202312914e-07;8.47274031006e-07;0.0;0.0;0.0;0.0;0.0;0.0;0.0;0.0;0.0;0.0;0.0;0.0;0.0;0.0;0.0;0.0;0.0;0.0;0.0;0.0;0.0;0.0;0.0;0.0;0.0;0.0;0.0;6.62792244409e-09
277120000000;83;277120000000;map;20.9755389368;-0.0354557608824;0.0;0.0;0.0;-0.000736747537493;0.999999728601;3.66160836052e-05;-2.31449174382e-07;0.0;0.0;0.0;0.0;-2.31449174382e-07;8.75556847025e-07;0.0;0.0;0.0;0.0;0.0;0.0;0.0;0.0;0.0;0.0;0.0;0.0;0.0;0.0;0.0;0.0;0.0;0.0;0.0;0.0;0.0;0.0;0.0;0.0;0.0;0.0;0.0;6.5823304693e-09
277640000000;84;277640000000;map;21.235463528;-0.0358371460773;0.0;0.0;0.0;-0.000736513180009;0.999999728774;3.70091640889e-05;-2.66579250008e-07;0.0;0.0;0.0;0.0;-2.66579250008e-07;9.10791942743e-07;0.0;0.0;0.0;0.0;0.0;0.0;0.0;0.0;0.0;0.0;0.0;0.0;0.0;0.0;0.0;0.0;0.0;0.0;0.0;0.0;0.0;0.0;0.0;0.0;0.0;0.0;0.0;6.68420853118e-09
278165000000;85;278165000000;map;21.4979114341;-0.0362090021438;0.0;0.0;0.0;-0.000735933317707;0.999999729201;3.68482065483e-05;-3.61643877622e-07;0.0;0.0;0.0;0.0;-3.61643877622e-07;9.8621807082e-07;0.0;0.0;0.0;0.0;0.0;0.0;0.0;0.0;0.0;0.0;0.0;0.0;0.0;0.0;0.0;0.0;0.0;0.0;0.0;0.0;0.0;0.0;0.0;0.0;0.0;0.0;0.0;6.94507164096e-09
278667000000;86;278667000000;map;21.7488922441;-0.0365924993594;0.0;0.0;0.0;-0.000736096218327;0.999999729081;3.62354449521e-05;-2.95509945181e-07;0.0;0.0;0.0;0.0;-2.95509945181e-07;9.75667392628e-07;0.0;0.0;0.0;0.0;0.0;0.0;0.0;0.0;0.0;0.0;0.0;0.0;0.0;0.0;0.0;0.0;0.0;0.0;0.0;0.0;0.0;0.0;0.0;0.0;0.0;0.0;0.0;6.77986246073e-09
279175000000;87;279175000000;map;22.0028929318;-0.0369616058747;0.0;0.0;0.0;-0.000736081201425;0.999999729092;3.65571756333e-05;-3.79711474374e-07;0.0;0.0;0.0;0.0;-3.79711474374e-07;9.76615443569e-07;0.0;0.0;0.0;0.0;0.0;0.0;0.0;0.0;0.0;0.0;0.0;0.0;0.0;0.0;0.0;0.0;0.0;0.0;0.0;0.0;0.0;0.0;0.0;0.0;0.0;0.0;0.0;6.571447175e-09
279679000000;88;279679000000;map;22.2549909839;-0.0373452319875;0.0;0.0;0.0;-0.000736829105754;0.999999728541;3.72118772134e-05;-4.02129010535e-07;0.0;0.0;0.0;0.0;-4.02129010424e-07;1.0011785428e-06;0.0;0.0;0.0;0.0;0.0;0.0;0.0;0.0;0.0;0.0;0.0;0.0;0.0;0.0;0.0;0.0;0.0;0.0;0.0;0.0;0.0;0.0;0.0;0.0;0.0;0.0;0.0;6.48835008996e-09
280185000000;89;280185000000;map;22.5080808168;-0.0377129740414;0.0;0.0;0.0;-0.000736271472815;0.999999728952;3.75948504256e-05;-3.81212829192e-07;0.0;0.0;0.0;0.0;-3.81212829192e-07;1.0499052844e-06;0.0;0.0;0.0;0.0;0.0;0.0;0.0;0.0;0.0;0.0;0.0;0.0;0.0;0.0;0.0;0.0;0.0;0.0;0.0;0.0;0.0;0.0;0.0;0.0;0.0;0.0;0.0;6.75261669943e-09
280690000000;90;280690000000;map;22.7607485982;-0.038085474615;0.0;0.0;0.0;-0.000736396415753;0.99999972886;3.77233765221e-05;-4.07247791046e-07;0.0;0.0;0.0;0.0;-4.07247791046e-07;1.08306502332e-06;0.0;0.0;0.0;0.0;0.0;0.0;0.0;0.0;0.0;0.0;0.0;0.0;0.0;0.0;0.0;0.0;0.0;0.0;0.0;0.0;0.0;0.0;0.0;0.0;0.0;0.0;0.0;6.79965240825e-09
281193000000;91;281193000000;map;23.0121892816;-0.0384734554884;0.0;0.0;0.0;-0.000736806999083;0.999999728558;3.85395759395e-05;-4.75742392481e-07;0.0;0.0;0.0;0.0;-4.75742392481e-07;1.11658499154e-06;0.0;0.0;0.0;0.0;0.0;0.0;0.0;0.0;0.0;0.0;0.0;0.0;0.0;0.0;0.0;0.0;0.0;0.0;0.0;0.0;0.0;0.0;0.0;0.0;0.0;0.0;0.0;6.93250325015e-09
281700000000;92;281700000000;map;23.2656648343;-0.0388460479328;0.0;0.0;0.0;-0.000736496605307;0.999999728786;3.88531781255e-05;-4.3887327672e-07;0.0;0.0;0.0;0.0;-4.38873276609e-07;1.13524749249e-06;0.0;0.0;0.0;0.0;0.0;0.0;0.0;0.0;0.0;0.0;0.0;0.0;0.0;0.0;0.0;0.0;0.0;0.0;0.0;0.0;0.0;0.0;0.0;0.0;0.0;0.0;0.0;6.90469127511e-09
282204000000;93;282204000000;map;23.5177174415;-0.0392356669396;0.0;0.0;0.0;-0.000737109349057;0.999999728335;3.94242999846e-05;-4.24694871382e-07;0.0;0.0;0.0;0.0;-4.24694871159e-07;1.17102137807e-06;0.0;0.0;0.0;0.0;0.0;0.0;0.0;0.0;0.0;0.0;0.0;0.0;0.0;0.0;0.0;0.0;0.0;0.0;0.0;0.0;0.0;0.0;0.0;0.0;0.0;0.0;0.0;6.85983226955e-09
282708000000;94;282708000000;map;23.76971807;-0.0396165262246;0.0;0.0;0.0;-0.000737348907958;0.999999728158;4.06116226941e-05;-4.73817641011e-07;0.0;0.0;0.0;0.0;-4.73817641011e-07;1.18489955919e-06;0.0;0.0;0.0;0.0;0.0;0.0;0.0;0.0;0.0;0.0;0.0;0.0;0.0;0.0;0.0;0.0;0.0;0.0;0.0;0.0;0.0;0.0;0.0;0.0;0.0;0.0;0.0;6.91815850249e-09
283216000000;95;283216000000;map;24.0237452766;-0.0399874173392;0.0;0.0;0.0;-0.000737391693217;0.999999728127;4.14410031908e-05;-4.20907743659e-07;0.0;0.0;0.0;0.0;-4.20907743437e-07;1.2250591271e-06;0.0;0.0;0.0;0.0;0.0;0.0;0.0;0.0;0.0;0.0;0.0;0.0;0.0;0.0;0.0;0.0;0.0;0.0;0.0;0.0;0.0;0.0;0.0;0.0;0.0;0.0;0.0;7.07216175762e-09
283718000000;96;283718000000;map;24.2747158057;-0.0403755807254;0.0;0.0;0.0;-0.000738378878594;0.999999727398;4.19323820324e-05;-4.02921547127e-07;0.0;0.0;0.0;0.0;-4.02921547127e-07;1.25948004321e-06;0.0;0.0;0.0;0.0;0.0;0.0;0.0;0.0;0.0;0.0;0.0;0.0;0.0;0.0;0.0;0.0;0.0;0.0;0.0;0.0;0.0;0.0;0.0;0.0;0.0;0.0;0.0;7.27722128327e-09
284238000000;97;284238000000;map;24.5346301008;-0.0407538319638;0.0;0.0;0.0;-0.000738084654375;0.999999727615;4.1433874344e-05;-4.3936620453e-07;0.0;0.0;0.0;0.0;-4.3936620453e-07;1.3213164157e-06;0.0;0.0;0.0;0.0;0.0;0.0;0.0;0.0;0.0;0.0;0.0;0.0;0.0;0.0;0.0;0.0;0.0;0.0;0.0;0.0;0.0;0.0;0.0;0.0;0.0;0.0;0.0;7.45527418968e-09
284742000000;98;284742000000;map;24.7866185755;-0.0411402344133;0.0;0.0;0.0;-0.00073841683991;0.99999972737;4.15990145939e-05;-3.93573518442e-07;0.0;0.0;0.0;0.0;-3.9357351822e-07;1.33231479677e-06;0.0;0.0;0.0;0.0;0.0;0.0;0.0;0.0;0.0;0.0;0.0;0.0;0.0;0.0;0.0;0.0;0.0;0.0;0.0;0.0;0.0;0.0;0.0;0.0;0.0;0.0;0.0;7.56461406058e-09
285261000000;99;285261000000;map;25.0462495872;-0.0415180739822;0.0;0.0;0.0;-0.00073817983055;0.999999727545;4.17018417238e-05;-3.61581595554e-07;0.0;0.0;0.0;0.0;-3.61581595776e-07;1.37647763097e-06;0.0;0.0;0.0;0.0;0.0;0.0;0.0;0.0;0.0;0.0;0.0;0.0;0.0;0.0;0.0;0.0;0.0;0.0;0.0;0.0;0.0;0.0;0.0;0.0;0.0;0.0;0.0;7.55923236547e-09
285770000000;100;285770000000;map;25.3007208164;-0.0419042276566;0.0;0.0;0.0;-0.000738419968788;0.999999727368;4.15051922573e-05;-2.78394674869e-07;0.0;0.0;0.0;0.0;-2.78394674647e-07;1.39509746378e-06;0.0;0.0;0.0;0.0;0.0;0.0;0.0;0.0;0.0;0.0;0.0;0.0;0.0;0.0;0.0;0.0;0.0;0.0;0.0;0.0;0.0;0.0;0.0;0.0;0.0;0.0;0.0;7.47603025329e-09
286274000000;101;286274000000;map;25.5528910795;-0.0422691986082;0.0;0.0;0.0;-0.000738171521563;0.999999727551;4.1118419972e-05;-2.62929083839e-07;0.0;0.0;0.0;0.0;-2.62929083839e-07;1.44362658239e-06;0.0;0.0;0.0;0.0;0.0;0.0;0.0;0.0;0.0;0.0;0.0;0.0;0.0;0.0;0.0;0.0;0.0;0.0;0.0;0.0;0.0;0.0;0.0;0.0;0.0;0.0;0.0;7.60471109753e-09
286779000000;102;286779000000;map;25.805335191;-0.0426425947326;0.0;0.0;0.0;-0.000737967132088;0.999999727702;4.15980899788e-05;-2.77358445766e-07;0.0;0.0;0.0;0.0;-2.77358445766e-07;1.47352544913e-06;0.0;0.0;0.0;0.0;0.0;0.0;0.0;0.0;0.0;0.0;0.0;0.0;0.0;0.0;0.0;0.0;0.0;0.0;0.0;0.0;0.0;0.0;0.0;0.0;0.0;0.0;0.0;7.88958500088e-09
287282000000;103;287282000000;map;26.0567915016;-0.0430278217894;0.0;0.0;0.0;-0.000738438013918;0.999999727355;4.23482682663e-05;-3.87066358742e-07;0.0;0.0;0.0;0.0;-3.87066358742e-07;1.49225269982e-06;0.0;0.0;0.0;0.0;0.0;0.0;0.0;0.0;0.0;0.0;0.0;0.0;0.0;0.0;0.0;0.0;0.0;0.0;0.0;0.0;0.0;0.0;0.0;0.0;0.0;0.0;0.0;7.82846167202e-09
287785000000;104;287785000000;map;26.3083291917;-0.0433916273055;0.0;0.0;0.0;-0.000738358176127;0.999999727414;4.29183332926e-05;-3.87080650421e-07;0.0;0.0;0.0;0.0;-3.87080650421e-07;1.51463960664e-06;0.0;0.0;0.0;0.0;0.0;0.0;0.0;0.0;0.0;0.0;0.0;0.0;0.0;0.0;0.0;0.0;0.0;0.0;0.0;0.0;0.0;0.0;0.0;0.0;0.0;0.0;0.0;7.74825782814e-09
288287000000;105;288287000000;map;26.5594222053;-0.0437747362608;0.0;0.0;0.0;-0.000738579236544;0.99999972725;4.39521994622e-05;-3.92820085349e-07;0.0;0.0;0.0;0.0;-3.92820085349e-07;1.59272185574e-06;0.0;0.0;0.0;0.0;0.0;0.0;0.0;0.0;0.0;0.0;0.0;0.0;0.0;0.0;0.0;0.0;0.0;0.0;0.0;0.0;0.0;0.0;0.0;0.0;0.0;0.0;0.0;7.9708537707e-09
288808000000;106;288808000000;map;26.8199456461;-0.0441658628923;0.0;0.0;0.0;-0.000738798186998;0.999999727089;4.45050554845e-05;-4.25597346254e-07;0.0;0.0;0.0;0.0;-4.25597346032e-07;1.61980749574e-06;0.0;0.0;0.0;0.0;0.0;0.0;0.0;0.0;0.0;0.0;0.0;0.0;0.0;0.0;0.0;0.0;0.0;0.0;0.0;0.0;0.0;0.0;0.0;0.0;0.0;0.0;0.0;7.96350964536e-09
289327000000;107;289327000000;map;27.0794292555;-0.0445471576522;0.0;0.0;0.0;-0.00073890892921;0.999999727007;4.55104529919e-05;-5.4858362164e-07;0.0;0.0;0.0;0.0;-5.4858362164e-07;1.62128889554e-06;0.0;0.0;0.0;0.0;0.0;0.0;0.0;0.0;0.0;0.0;0.0;0.0;0.0;0.0;0.0;0.0;0.0;0.0;0.0;0.0;0.0;0.0;0.0;0.0;0.0;0.0;0.0;7.89969025089e-09
289832000000;108;289832000000;map;27.3319029244;-0.0449067830879;0.0;0.0;0.0;-0.000739067076957;0.99999972689;4.64680246068e-05;-6.76693244106e-07;0.0;0.0;0.0;0.0;-6.76693243884e-07;1.68534936913e-06;0.0;0.0;0.0;0.0;0.0;0.0;0.0;0.0;0.0;0.0;0.0;0.0;0.0;0.0;0.0;0.0;0.0;0.0;0.0;0.0;0.0;0.0;0.0;0.0;0.0;0.0;0.0;7.89149636085e-09
290333000000;109;290333000000;map;27.5823695404;-0.0452827625039;0.0;0.0;0.0;-0.000739289559406;0.999999726725;4.77533885714e-05;-6.53848022614e-07;0.0;0.0;0.0;0.0;-6.53848022614e-07;1.73377777311e-06;0.0;0.0;0.0;0.0;0.0;0.0;0.0;0.0;0.0;0.0;0.0;0.0;0.0;0.0;0.0;0.0;0.0;0.0;0.0;0.0;0.0;0.0;0.0;0.0;0.0;0.0;0.0;7.91099032293e-09
290834000000;110;290834000000;map;27.8328312481;-0.0456624679414;0.0;0.0;0.0;-0.000739509370804;0.999999726563;4.71671544346e-05;-4.51474233332e-07;0.0;0.0;0.0;0.0;-4.51474233332e-07;1.76453378564e-06;0.0;0.0;0.0;0.0;0.0;0.0;0.0;0.0;0.0;0.0;0.0;0.0;0.0;0.0;0.0;0.0;0.0;0.0;0.0;0.0;0.0;0.0;0.0;0.0;0.0;0.0;0.0;7.98697287681e-09
291351000000;111;291351000000;map;28.0913632448;-0.046059101771;0.0;0.0;0.0;-0.000740242700629;0.99999972602;4.72946077252e-05;-3.32126687264e-07;0.0;0.0;0.0;0.0;-3.32126687264e-07;1.85080796183e-06;0.0;0.0;0.0;0.0;0.0;0.0;0.0;0.0;0.0;0.0;0.0;0.0;0.0;0.0;0.0;0.0;0.0;0.0;0.0;0.0;0.0;0.0;0.0;0.0;0.0;0.0;0.0;8.14182389833e-09
291870000000;112;291870000000;map;28.3508141999;-0.0464450277031;0.0;0.0;0.0;-0.000740144036402;0.999999726093;4.66494410603e-05;-3.12197061758e-07;0.0;0.0;0.0;0.0;-3.12197061536e-07;1.90001787686e-06;0.0;0.0;0.0;0.0;0.0;0.0;0.0;0.0;0.0;0.0;0.0;0.0;0.0;0.0;0.0;0.0;0.0;0.0;0.0;0.0;0.0;0.0;0.0;0.0;0.0;0.0;0.0;8.21847147582e-09
292376000000;113;292376000000;map;28.6038287297;-0.046817760582;0.0;0.0;0.0;-0.000740719158137;0.999999725668;4.67742478349e-05;-4.01728942334e-07;0.0;0.0;0.0;0.0;-4.01728942556e-07;1.95861896968e-06;0.0;0.0;0.0;0.0;0.0;0.0;0.0;0.0;0.0;0.0;0.0;0.0;0.0;0.0;0.0;0.0;0.0;0.0;0.0;0.0;0.0;0.0;0.0;0.0;0.0;0.0;0.0;8.19695313307e-09
292886000000;114;292886000000;map;28.8587686905;-0.0472050523521;0.0;0.0;0.0;-0.00074124688801;0.999999725276;4.66693514909e-05;-4.88903777907e-07;0.0;0.0;0.0;0.0;-4.88903778351e-07;2.05079906094e-06;0.0;0.0;0.0;0.0;0.0;0.0;0.0;0.0;0.0;0.0;0.0;0.0;0.0;0.0;0.0;0.0;0.0;0.0;0.0;0.0;0.0;0.0;0.0;0.0;0.0;0.0;0.0;8.23661829327e-09
293398000000;115;293398000000;map;29.1146838381;-0.0476041206352;0.0;0.0;0.0;-0.000741811716525;0.999999724858;4.7204260909e-05;-5.50532297083e-07;0.0;0.0;0.0;0.0;-5.50532297083e-07;2.08299551961e-06;0.0;0.0;0.0;0.0;0.0;0.0;0.0;0.0;0.0;0.0;0.0;0.0;0.0;0.0;0.0;0.0;0.0;0.0;0.0;0.0;0.0;0.0;0.0;0.0;0.0;0.0;0.0;8.40837845564e-09
293918000000;116;293918000000;map;29.3746895063;-0.0479991819044;0.0;0.0;0.0;-0.000741906766732;0.999999724787;4.84807191015e-05;-5.57410474e-07;0.0;0.0;0.0;0.0;-5.57410474e-07;2.15182235241e-06;0.0;0.0;0.0;0.0;0.0;0.0;0.0;0.0;0.0;0.0;0.0;0.0;0.0;0.0;0.0;0.0;0.0;0.0;0.0;0.0;0.0;0.0;0.0;0.0;0.0;0.0;0.0;8.6108313998e-09
294420000000;117;294420000000;map;29.6257807183;-0.0484081727069;0.0;0.0;0.0;-0.000743164063182;0.999999723854;4.93747812698e-05;-5.71133245142e-07;0.0;0.0;0.0;0.0;-5.71133245142e-07;2.1991620457e-06;0.0;0.0;0.0;0.0;0.0;0.0;0.0;0.0;0.0;0.0;0.0;0.0;0.0;0.0;0.0;0.0;0.0;0.0;0.0;0.0;0.0;0.0;0.0;0.0;0.0;0.0;0.0;8.63100281997e-09
294940000000;118;294940000000;map;29.885819019;-0.0488354163686;0.0;0.0;0.0;-0.000744180997107;0.999999723097;4.9706525715e-05;-5.46799036494e-07;0.0;0.0;0.0;0.0;-5.46799036494e-07;2.18461049988e-06;0.0;0.0;0.0;0.0;0.0;0.0;0.0;0.0;0.0;0.0;0.0;0.0;0.0;0.0;0.0;0.0;0.0;0.0;0.0;0.0;0.0;0.0;0.0;0.0;0.0;0.0;0.0;8.4459626138e-09
295441000000;119;295441000000;map;30.1364083671;-0.0492162013092;0.0;0.0;0.0;-0.000744268137223;0.999999723032;5.02048694671e-05;-5.85482058169e-07;0.0;0.0;0.0;0.0;-5.85482057947e-07;2.25867350857e-06;0.0;0.0;0.0;0.0;0.0;0.0;0.0;0.0;0.0;0.0;0.0;0.0;0.0;0.0;0.0;0.0;0.0;0.0;0.0;0.0;0.0;0.0;0.0;0.0;0.0;0.0;0.0;8.62994633174e-09
295943000000;120;295943000000;map;30.3873844407;-0.0496089280418;0.0;0.0;0.0;-0.000744812327344;0.999999722627;5.09654602183e-05;-5.79389332067e-07;0.0;0.0;0.0;0.0;-5.79389332067e-07;2.33563270081e-06;0.0;0.0;0.0;0.0;0.0;0.0;0.0;0.0;0.0;0.0;0.0;0.0;0.0;0.0;0.0;0.0;0.0;0.0;0.0;0.0;0.0;0.0;0.0;0.0;0.0;0.0;0.0;8.76882546276e-09
296452000000;121;296452000000;map;30.6418471972;-0.0500053779875;0.0;0.0;0.0;-0.000745402985806;0.999999722187;5.08476296091e-05;-3.39936836236e-07;0.0;0.0;0.0;0.0;-3.39936836236e-07;2.33811822897e-06;0.0;0.0;0.0;0.0;0.0;0.0;0.0;0.0;0.0;0.0;0.0;0.0;0.0;0.0;0.0;0.0;0.0;0.0;0.0;0.0;0.0;0.0;0.0;0.0;0.0;0.0;0.0;8.70786578075e-09
296959000000;122;296959000000;map;30.8953528364;-0.0504204285421;0.0;0.0;0.0;-0.000746573709632;0.999999721314;5.17277453582e-05;-3.21857607455e-07;0.0;0.0;0.0;0.0;-3.21857607455e-07;2.45140104929e-06;0.0;0.0;0.0;0.0;0.0;0.0;0.0;0.0;0.0;0.0;0.0;0.0;0.0;0.0;0.0;0.0;0.0;0.0;0.0;0.0;0.0;0.0;0.0;0.0;0.0;0.0;0.0;8.94714393465e-09
297461000000;123;297461000000;map;31.1464230708;-0.0508432144477;0.0;0.0;0.0;-0.000747844259066;0.999999720364;5.23579764149e-05;-3.54756604981e-07;0.0;0.0;0.0;0.0;-3.54756604981e-07;2.57715451562e-06;0.0;0.0;0.0;0.0;0.0;0.0;0.0;0.0;0.0;0.0;0.0;0.0;0.0;0.0;0.0;0.0;0.0;0.0;0.0;0.0;0.0;0.0;0.0;0.0;0.0;0.0;0.0;9.27077350372e-09
297964000000;124;297964000000;map;31.3980177243;-0.0512838137949;0.0;0.0;0.0;-0.000749103267795;0.999999719422;5.27234675474e-05;-2.7054407381e-07;0.0;0.0;0.0;0.0;-2.70544074032e-07;2.62966682906e-06;0.0;0.0;0.0;0.0;0.0;0.0;0.0;0.0;0.0;0.0;0.0;0.0;0.0;0.0;0.0;0.0;0.0;0.0;0.0;0.0;0.0;0.0;0.0;0.0;0.0;0.0;0.0;9.20702449735e-09
298474000000;125;298474000000;map;31.6529030353;-0.0516805327807;0.0;0.0;0.0;-0.00074952124314;0.999999719109;5.10165355081e-05;-3.27062085193e-07;0.0;0.0;0.0;0.0;-3.27062085193e-07;2.75648909122e-06;0.0;0.0;0.0;0.0;0.0;0.0;0.0;0.0;0.0;0.0;0.0;0.0;0.0;0.0;0.0;0.0;0.0;0.0;0.0;0.0;0.0;0.0;0.0;0.0;0.0;0.0;0.0;9.52778103129e-09
298980000000;126;298980000000;map;31.906032022;-0.0521178657532;0.0;0.0;0.0;-0.000750568651447;0.999999718323;5.16722204793e-05;-1.03385669581e-07;0.0;0.0;0.0;0.0;-1.03385669581e-07;2.76378411974e-06;0.0;0.0;0.0;0.0;0.0;0.0;0.0;0.0;0.0;0.0;0.0;0.0;0.0;0.0;0.0;0.0;0.0;0.0;0.0;0.0;0.0;0.0;0.0;0.0;0.0;0.0;0.0;9.68030546955e-09
299499000000;127;299499000000;map;32.1655399536;-0.0525298944618;0.0;0.0;0.0;-0.000751183476554;0.999999717862;5.21370941442e-05;-3.08884727351e-07;0.0;0.0;0.0;0.0;-3.08884727351e-07;2.80494909867e-06;0.0;0.0;0.0;0.0;0.0;0.0;0.0;0.0;0.0;0.0;0.0;0.0;0.0;0.0;0.0;0.0;0.0;0.0;0.0;0.0;0.0;0.0;0.0;0.0;0.0;0.0;0.0;9.82683981048e-09
300000000000;128;300000000000;map;32.4160351451;-0.0529969829245;0.0;0.0;0.0;-0.00075311688533;0.999999716407;5.22875095612e-05;-1.37750029383e-07;0.0;0.0;0.0;0.0;-1.37750029383e-07;2.88050085645e-06;0.0;0.0;0.0;0.0;0.0;0.0;0.0;0.0;0.0;0.0;0.0;0.0;0.0;0.0;0.0;0.0;0.0;0.0;0.0;0.0;0.0;0.0;0.0;0.0;0.0;0.0;0.0;9.89415085644e-09
300502000000;129;300502000000;map;32.6671613481;-0.0534622736881;0.0;0.0;0.0;-0.000755465979517;0.999999714636;5.1933596751e-05;-7.92998429144e-08;0.0;0.0;0.0;0.0;-7.92998426924e-08;2.9228805963e-06;0.0;0.0;0.0;0.0;0.0;0.0;0.0;0.0;0.0;0.0;0.0;0.0;0.0;0.0;0.0;0.0;0.0;0.0;0.0;0.0;0.0;0.0;0.0;0.0;0.0;0.0;0.0;9.8819204175e-09
301006000000;130;301006000000;map;32.919170655;-0.0539349368719;0.0;0.0;0.0;-0.000757676621781;0.999999712963;5.25291272879e-05;2.37894041133e-07;0.0;0.0;0.0;0.0;2.37894040689e-07;2.89262820599e-06;0.0;0.0;0.0;0.0;0.0;0.0;0.0;0.0;0.0;0.0;0.0;0.0;0.0;0.0;0.0;0.0;0.0;0.0;0.0;0.0;0.0;0.0;0.0;0.0;0.0;0.0;0.0;9.69478366604e-09
301515000000;131;301515000000;map;33.1737496528;-0.0543993298632;0.0;0.0;0.0;-0.000759191882457;0.999999711814;5.24624174432e-05;3.35782399663e-07;0.0;0.0;0.0;0.0;3.35782399441e-07;2.89824933105e-06;0.0;0.0;0.0;0.0;0.0;0.0;0.0;0.0;0.0;0.0;0.0;0.0;0.0;0.0;0.0;0.0;0.0;0.0;0.0;0.0;0.0;0.0;0.0;0.0;0.0;0.0;0.0;9.7190438156e-09
302018000000;132;302018000000;map;33.4251670905;-0.0548133652631;0.0;0.0;0.0;-0.000759999055135;0.999999711201;5.19222746789e-05;2.76149481282e-07;0.0;0.0;0.0;0.0;2.7614948106e-07;2.89302085742e-06;0.0;0.0;0.0;0.0;0.0;0.0;0.0;0.0;0.0;0.0;0.0;0.0;0.0;0.0;0.0;0.0;0.0;0.0;0.0;0.0;0.0;0.0;0.0;0.0;0.0;0.0;0.0;9.59014647773e-09
302529000000;133;302529000000;map;33.6806448392;-0.0552391673314;0.0;0.0;0.0;-0.000760865474219;0.999999710542;5.17266480529e-05;2.60248387285e-07;0.0;0.0;0.0;0.0;2.60248387285e-07;2.8404579388e-06;0.0;0.0;0.0;0.0;0.0;0.0;0.0;0.0;0.0;0.0;0.0;0.0;0.0;0.0;0.0;0.0;0.0;0.0;0.0;0.0;0.0;0.0;0.0;0.0;0.0;0.0;0.0;9.22426337442e-09
303031000000;134;303031000000;map;33.931623014;-0.0556706063675;0.0;0.0;0.0;-0.000762374114889;0.999999709393;5.13367133408e-05;3.1679898127e-07;0.0;0.0;0.0;0.0;3.16798980826e-07;2.81679577402e-06;0.0;0.0;0.0;0.0;0.0;0.0;0.0;0.0;0.0;0.0;0.0;0.0;0.0;0.0;0.0;0.0;0.0;0.0;0.0;0.0;0.0;0.0;0.0;0.0;0.0;0.0;0.0;9.11037114492e-09
303533000000;135;303533000000;map;34.1827017544;-0.0560722060178;0.0;0.0;0.0;-0.000762399605875;0.999999709373;5.14951939294e-05;5.14354966397e-07;0.0;0.0;0.0;0.0;5.14354966397e-07;2.79995732304e-06;0.0;0.0;0.0;0.0;0.0;0.0;0.0;0.0;0.0;0.0;0.0;0.0;0.0;0.0;0.0;0.0;0.0;0.0;0.0;0.0;0.0;0.0;0.0;0.0;0.0;0.0;0.0;8.75701935107e-09
304033000000;136;304033000000;map;34.4327631672;-0.0564676881076;0.0;0.0;0.0;-0.000762578931456;0.999999709237;5.13995814799e-05;4.13667416765e-07;0.0;0.0;0.0;0.0;4.13667416765e-07;2.79626868302e-06;0.0;0.0;0.0;0.0;0.0;0.0;0.0;0.0;0.0;0.0;0.0;0.0;0.0;0.0;0.0;0.0;0.0;0.0;0.0;0.0;0.0;0.0;0.0;0.0;0.0;0.0;0.0;8.69774321126e-09
304537000000;137;304537000000;map;34.6849112354;-0.0568841640602;0.0;0.0;0.0;-0.000763304710527;0.999999708683;5.07433778694e-05;4.74231126368e-07;0.0;0.0;0.0;0.0;4.7423112659e-07;2.93520591382e-06;0.0;0.0;0.0;0.0;0.0;0.0;0.0;0.0;0.0;0.0;0.0;0.0;0.0;0.0;0.0;0.0;0.0;0.0;0.0;0.0;0.0;0.0;0.0;0.0;0.0;0.0;0.0;8.84238417776e-09
305043000000;138;305043000000;map;34.9380265625;-0.0572691919048;0.0;0.0;0.0;-0.000762988693555;0.999999708924;5.1984006177e-05;3.7615584203e-07;0.0;0.0;0.0;0.0;3.7615584203e-07;2.92940492111e-06;0.0;0.0;0.0;0.0;0.0;0.0;0.0;0.0;0.0;0.0;0.0;0.0;0.0;0.0;0.0;0.0;0.0;0.0;0.0;0.0;0.0;0.0;0.0;0.0;0.0;0.0;0.0;8.74725360725e-09
305545000000;139;305545000000;map;35.1891137656;-0.0576679081999;0.0;0.0;0.0;-0.000763270031908;0.999999708709;5.24874067196e-05;7.01686834415e-07;0.0;0.0;0.0;0.0;7.0168683397e-07;2.94701211592e-06;0.0;0.0;0.0;0.0;0.0;0.0;0.0;0.0;0.0;0.0;0.0;0.0;0.0;0.0;0.0;0.0;0.0;0.0;0.0;0.0;0.0;0.0;0.0;0.0;0.0;0.0;0.0;8.86805097989e-09
306048000000;140;306048000000;map;35.4405429751;-0.0580773665305;0.0;0.0;0.0;-0.000763745666631;0.999999708346;5.32085769009e-05;7.36232164567e-07;0.0;0.0;0.0;0.0;7.36232164567e-07;2.96538960971e-06;0.0;0.0;0.0;0.0;0.0;0.0;0.0;0.0;0.0;0.0;0.0;0.0;0.0;0.0;0.0;0.0;0.0;0.0;0.0;0.0;0.0;0.0;0.0;0.0;0.0;0.0;0.0;8.79902108667e-09
306549000000;141;306549000000;map;35.6912538849;-0.0584379120433;0.0;0.0;0.0;-0.000762930736898;0.999999708968;5.33926117896e-05;8.02008230494e-07;0.0;0.0;0.0;0.0;8.02008230494e-07;3.06828153141e-06;0.0;0.0;0.0;0.0;0.0;0.0;0.0;0.0;0.0;0.0;0.0;0.0;0.0;0.0;0.0;0.0;0.0;0.0;0.0;0.0;0.0;0.0;0.0;0.0;0.0;0.0;0.0;9.00085630278e-09
307055000000;142;307055000000;map;35.9442128618;-0.0588523738202;0.0;0.0;0.0;-0.000763489922765;0.999999708542;5.38965873602e-05;4.91481731313e-07;0.0;0.0;0.0;0.0;4.91481731313e-07;3.07901684681e-06;0.0;0.0;0.0;0.0;0.0;0.0;0.0;0.0;0.0;0.0;0.0;0.0;0.0;0.0;0.0;0.0;0.0;0.0;0.0;0.0;0.0;0.0;0.0;0.0;0.0;0.0;0.0;9.03160059892e-09
307556000000;143;307556000000;map;36.1946244384;-0.0592241288402;0.0;0.0;0.0;-0.000763152599872;0.999999708799;5.47876763903e-05;5.91214714518e-07;0.0;0.0;0.0;0.0;5.91214714074e-07;3.068777482e-06;0.0;0.0;0.0;0.0;0.0;0.0;0.0;0.0;0.0;0.0;0.0;0.0;0.0;0.0;0.0;0.0;0.0;0.0;0.0;0.0;0.0;0.0;0.0;0.0;0.0;0.0;0.0;9.07827748371e-09
308056000000;144;308056000000;map;36.4446940407;-0.0596185834349;0.0;0.0;0.0;-0.000763328568415;0.999999708665;5.55144554255e-05;3.80358993191e-07;0.0;0.0;0.0;0.0;3.80358993191e-07;3.16760896853e-06;0.0;0.0;0.0;0.0;0.0;0.0;0.0;0.0;0.0;0.0;0.0;0.0;0.0;0.0;0.0;0.0;0.0;0.0;0.0;0.0;0.0;0.0;0.0;0.0;0.0;0.0;0.0;9.14223188133e-09
308564000000;145;308564000000;map;36.6987329571;-0.0600007518515;0.0;0.0;0.0;-0.000762908292472;0.999999708985;5.64288602618e-05;1.60743197419e-07;0.0;0.0;0.0;0.0;1.60743197419e-07;3.20294988865e-06;0.0;0.0;0.0;0.0;0.0;0.0;0.0;0.0;0.0;0.0;0.0;0.0;0.0;0.0;0.0;0.0;0.0;0.0;0.0;0.0;0.0;0.0;0.0;0.0;0.0;0.0;0.0;9.3383585527e-09
309073000000;146;309073000000;map;36.9533016131;-0.0604054882965;0.0;0.0;0.0;-0.000763088354252;0.999999708848;5.62038626413e-05;4.37343624426e-07;0.0;0.0;0.0;0.0;4.37343623982e-07;3.25445842114e-06;0.0;0.0;0.0;0.0;0.0;0.0;0.0;0.0;0.0;0.0;0.0;0.0;0.0;0.0;0.0;0.0;0.0;0.0;0.0;0.0;0.0;0.0;0.0;0.0;0.0;0.0;0.0;9.31643053764e-09
310040000000;147;310040000000;map;37.0049553783;-0.0605971483732;0.0;0.0;0.0;0.0997834494182;0.995009177456;5.71931054765e-05;6.130683885e-07;0.0;0.0;0.0;0.0;6.13068388056e-07;3.21548869326e-06;0.0;0.0;0.0;0.0;0.0;0.0;0.0;0.0;0.0;0.0;0.0;0.0;0.0;0.0;0.0;0.0;0.0;0.0;0.0;0.0;0.0;0.0;0.0;0.0;0.0;0.0;0.0;9.28217371787e-09
310925000000;148;310925000000;map;37.0051321392;-0.0605654317255;0.0;0.0;0.0;0.200975632079;0.979596240964;5.83208270655e-05;8.43386015692e-07;0.0;0.0;0.0;0.0;8.43386015692e-07;3.22035027198e-06;0.0;0.0;0.0;0.0;0.0;0.0;0.0;0.0;0.0;0.0;0.0;0.0;0.0;0.0;0.0;0.0;0.0;0.0;0.0;0.0;0.0;0.0;0.0;0.0;0.0;0.0;0.0;9.39721103142e-09
311829000000;149;311829000000;map;37.0051547127;-0.0604980643494;0.0;0.0;0.0;0.299376019848;0.954135209884;5.81132364914e-05;7.74860421604e-07;0.0;0.0;0.0;0.0;7.74860421604e-07;3.27601161503e-06;0.0;0.0;0.0;0.0;0.0;0.0;0.0;0.0;0.0;0.0;0.0;0.0;0.0;0.0;0.0;0.0;0.0;0.0;0.0;0.0;0.0;0.0;0.0;0.0;0.0;0.0;0.0;9.40728630542e-09
312721000000;150;312721000000;map;37.0053001233;-0.0604056362767;0.0;0.0;0.0;0.393225995219;0.919441850627;5.80060016091e-05;1.13856718365e-06;0.0;0.0;0.0;0.0;1.13856718365e-06;3.38995739803e-06;0.0;0.0;0.0;0.0;0.0;0.0;0.0;0.0;0.0;0.0;0.0;0.0;0.0;0.0;0.0;0.0;0.0;0.0;0.0;0.0;0.0;0.0;0.0;0.0;0.0;0.0;0.0;9.7586903241e-09
313619000000;151;313619000000;map;37.0053856268;-0.0603530513368;0.0;0.0;0.0;0.484298435915;0.87490286602;5.90553129314e-05;1.10088797411e-06;0.0;0.0;0.0;0.0;1.10088797411e-06;3.46798276357e-06;0.0;0.0;0.0;0.0;0.0;0.0;0.0;0.0;0.0;0.0;0.0;0.0;0.0;0.0;0.0;0.0;0.0;0.0;0.0;0.0;0.0;0.0;0.0;0.0;0.0;0.0;0.0;9.46260716468e-09
314483000000;152;314483000000;map;37.0054213361;-0.0602387238278;0.0;0.0;0.0;0.570804892461;0.821085729229;5.97870682668e-05;9.59291844627e-07;0.0;0.0;0.0;0.0;9.59291844627e-07;3.54683307546e-06;0.0;0.0;0.0;0.0;0.0;0.0;0.0;0.0;0.0;0.0;0.0;0.0;0.0;0.0;0.0;0.0;0.0;0.0;0.0;0.0;0.0;0.0;0.0;0.0;0.0;0.0;0.0;9.25397249861e-09
315346000000;153;315346000000;map;37.0053512297;-0.0601952737084;0.0;0.0;0.0;0.651340185045;0.758785848146;6.15825169916e-05;8.74058506017e-07;0.0;0.0;0.0;0.0;8.74058506017e-07;3.67735397301e-06;0.0;0.0;0.0;0.0;0.0;0.0;0.0;0.0;0.0;0.0;0.0;0.0;0.0;0.0;0.0;0.0;0.0;0.0;0.0;0.0;0.0;0.0;0.0;0.0;0.0;0.0;0.0;9.32904511375e-09
316210000000;154;316210000000;map;37.0054682226;-0.0600514643253;0.0;0.0;0.0;0.725256334077;0.688478939316;6.0893753016e-05;6.34280098222e-07;0.0;0.0;0.0;0.0;6.34280098222e-07;3.79975787099e-06;0.0;0.0;0.0;0.0;0.0;0.0;0.0;0.0;0.0;0.0;0.0;0.0;0.0;0.0;0.0;0.0;0.0;0.0;0.0;0.0;0.0;0.0;0.0;0.0;0.0;0.0;0.0;9.42654045933e-09
317157000000;155;317157000000;map;36.9863805705;0.198967638433;0.0;0.0;0.0;0.73335608137;0.679844730742;6.21178971869e-05;7.52105576041e-07;0.0;0.0;0.0;0.0;7.52105576041e-07;4.19753153198e-06;0.0;0.0;0.0;0.0;0.0;0.0;0.0;0.0;0.0;0.0;0.0;0.0;0.0;0.0;0.0;0.0;0.0;0.0;0.0;0.0;0.0;0.0;0.0;0.0;0.0;0.0;0.0;9.49869518631e-09
317666000000;156;317666000000;map;36.967211311;0.452804621124;0.0;0.0;0.0;0.733356469366;0.679844312206;6.41749479655e-05;8.59861323477e-07;0.0;0.0;0.0;0.0;8.59861323477e-07;4.49968248131e-06;0.0;0.0;0.0;0.0;0.0;0.0;0.0;0.0;0.0;0.0;0.0;0.0;0.0;0.0;0.0;0.0;0.0;0.0;0.0;0.0;0.0;0.0;0.0;0.0;0.0;0.0;0.0;9.80839611937e-09
318168000000;157;318168000000;map;36.9484736881;0.703139095764;0.0;0.0;0.0;0.73335688084;0.679843868344;6.26865089544e-05;8.73113005895e-07;0.0;0.0;0.0;0.0;8.73113005895e-07;4.87007637257e-06;0.0;0.0;0.0;0.0;0.0;0.0;0.0;0.0;0.0;0.0;0.0;0.0;0.0;0.0;0.0;0.0;0.0;0.0;0.0;0.0;0.0;0.0;0.0;0.0;0.0;0.0;0.0;9.8498029975e-09
318674000000;158;318674000000;map;36.9295037764;0.955442481991;0.0;0.0;0.0;0.733356658178;0.679844108533;6.45342042844e-05;1.32396237973e-06;0.0;0.0;0.0;0.0;1.32396238683e-06;5.19454620118e-06;0.0;0.0;0.0;0.0;0.0;0.0;0.0;0.0;0.0;0.0;0.0;0.0;0.0;0.0;0.0;0.0;0.0;0.0;0.0;0.0;0.0;0.0;0.0;0.0;0.0;0.0;0.0;1.00880457575e-08
319177000000;159;319177000000;map;36.9105282044;1.2062560225;0.0;0.0;0.0;0.733356367023;0.679844422605;6.47164010843e-05;1.31314170915e-06;0.0;0.0;0.0;0.0;1.31314170915e-06;5.49930657412e-06;0.0;0.0;0.0;0.0;0.0;0.0;0.0;0.0;0.0;0.0;0.0;0.0;0.0;0.0;0.0;0.0;0.0;0.0;0.0;0.0;0.0;0.0;0.0;0.0;0.0;0.0;0.0;1.00868724738e-08
319680000000;160;319680000000;map;36.8915190401;1.45701960712;0.0;0.0;0.0;0.733356400915;0.679844386045;6.60108501052e-05;1.16420218887e-06;0.0;0.0;0.0;0.0;1.16420218887e-06;5.91480049605e-06;0.0;0.0;0.0;0.0;0.0;0.0;0.0;0.0;0.0;0.0;0.0;0.0;0.0;0.0;0.0;0.0;0.0;0.0;0.0;0.0;0.0;0.0;0.0;0.0;0.0;0.0;0.0;1.03185567024e-08
320184000000;161;320184000000;map;36.872484563;1.70828044459;0.0;0.0;0.0;0.733356178935;0.679844625498;6.5095863647e-05;1.09633193546e-06;0.0;0.0;0.0;0.0;1.09633193546e-06;6.23046824311e-06;0.0;0.0;0.0;0.0;0.0;0.0;0.0;0.0;0.0;0.0;0.0;0.0;0.0;0.0;0.0;0.0;0.0;0.0;0.0;0.0;0.0;0.0;0.0;0.0;0.0;0.0;0.0;1.05122650861e-08
320687000000;162;320687000000;map;36.853472085;1.95900513075;0.0;0.0;0.0;0.733355692617;0.679845150094;6.3961805381e-05;9.41520681863e-07;0.0;0.0;0.0;0.0;9.41520681863e-07;6.47492831929e-06;0.0;0.0;0.0;0.0;0.0;0.0;0.0;0.0;0.0;0.0;0.0;0.0;0.0;0.0;0.0;0.0;0.0;0.0;0.0;0.0;0.0;0.0;0.0;0.0;0.0;0.0;0.0;1.05639470784e-08
322655000000;163;322655000000;map;36.84593961;2.2100390105;0.0;0.0;0.0;0.701310748225;0.71285568976;6.27998899745e-05;1.1334135479e-06;0.0;0.0;0.0;0.0;1.1334135479e-06;6.97132482408e-06;0.0;0.0;0.0;0.0;0.0;0.0;0.0;0.0;0.0;0.0;0.0;0.0;0.0;0.0;0.0;0.0;0.0;0.0;0.0;0.0;0.0;0.0;0.0;0.0;0.0;0.0;0.0;1.07822004949e-08
323163000000;164;323163000000;map;36.8501425782;2.46399237974;0.0;0.0;0.0;0.701337283735;0.71282958303;6.17972964392e-05;9.93141568983e-07;0.0;0.0;0.0;0.0;9.93141568983e-07;7.3418714015e-06;0.0;0.0;0.0;0.0;0.0;0.0;0.0;0.0;0.0;0.0;0.0;0.0;0.0;0.0;0.0;0.0;0.0;0.0;0.0;0.0;0.0;0.0;0.0;0.0;0.0;0.0;0.0;1.08880125212e-08
323682000000;165;323682000000;map;36.8546122927;2.72347084673;0.0;0.0;0.0;0.70133769296;0.712829180403;6.25667871645e-05;6.47677580901e-07;0.0;0.0;0.0;0.0;6.47677580901e-07;7.71491622675e-06;0.0;0.0;0.0;0.0;0.0;0.0;0.0;0.0;0.0;0.0;0.0;0.0;0.0;0.0;0.0;0.0;0.0;0.0;0.0;0.0;0.0;0.0;0.0;0.0;0.0;0.0;0.0;1.10815228412e-08
324185000000;166;324185000000;map;36.8586985804;2.97487274258;0.0;0.0;0.0;0.701337015203;0.712829847233;6.25756147201e-05;5.68708031778e-07;0.0;0.0;0.0;0.0;5.68708031778e-07;7.88039032429e-06;0.0;0.0;0.0;0.0;0.0;0.0;0.0;0.0;0.0;0.0;0.0;0.0;0.0;0.0;0.0;0.0;0.0;0.0;0.0;0.0;0.0;0.0;0.0;0.0;0.0;0.0;0.0;1.12740683773e-08
324687000000;167;324687000000;map;36.8629358395;3.22581000684;0.0;0.0;0.0;0.701337314028;0.712829553225;6.2525923795e-05;5.67012392594e-08;0.0;0.0;0.0;0.0;5.67012392594e-08;8.21882969504e-06;0.0;0.0;0.0;0.0;0.0;0.0;0.0;0.0;0.0;0.0;0.0;0.0;0.0;0.0;0.0;0.0;0.0;0.0;0.0;0.0;0.0;0.0;0.0;0.0;0.0;0.0;0.0;1.13162064484e-08
325208000000;168;325208000000;map;36.8671419589;3.48626876918;0.0;0.0;0.0;0.701336872457;0.712829987678;6.39850759399e-05;-2.5024343131e-07;0.0;0.0;0.0;0.0;-2.5024343131e-07;8.59889884985e-06;0.0;0.0;0.0;0.0;0.0;0.0;0.0;0.0;0.0;0.0;0.0;0.0;0.0;0.0;0.0;0.0;0.0;0.0;0.0;0.0;0.0;0.0;0.0;0.0;0.0;0.0;0.0;1.15882868082e-08
325727000000;169;325727000000;map;36.8713244642;3.74573119425;0.0;0.0;0.0;0.701337280269;0.71282958644;6.29705405117e-05;6.46740545562e-08;0.0;0.0;0.0;0.0;6.46740545562e-08;9.15746461416e-06;0.0;0.0;0.0;0.0;0.0;0.0;0.0;0.0;0.0;0.0;0.0;0.0;0.0;0.0;0.0;0.0;0.0;0.0;0.0;0.0;0.0;0.0;0.0;0.0;0.0;0.0;0.0;1.18658354605e-08
326229000000;170;326229000000;map;36.8754527382;3.99664380073;0.0;0.0;0.0;0.701336966138;0.712829895507;6.33420295344e-05;3.78041221438e-07;0.0;0.0;0.0;0.0;3.78041221438e-07;9.27614458135e-06;0.0;0.0;0.0;0.0;0.0;0.0;0.0;0.0;0.0;0.0;0.0;0.0;0.0;0.0;0.0;0.0;0.0;0.0;0.0;0.0;0.0;0.0;0.0;0.0;0.0;0.0;0.0;1.16740819574e-08
326738000000;171;326738000000;map;36.8796016223;4.25104387515;0.0;0.0;0.0;0.701336945032;0.712829916273;6.30421768619e-05;8.53496828768e-08;0.0;0.0;0.0;0.0;8.53496828768e-08;9.52356715089e-06;0.0;0.0;0.0;0.0;0.0;0.0;0.0;0.0;0.0;0.0;0.0;0.0;0.0;0.0;0.0;0.0;0.0;0.0;0.0;0.0;0.0;0.0;0.0;0.0;0.0;0.0;0.0;1.15572449722e-08
327258000000;172;327258000000;map;36.8839164838;4.51097143969;0.0;0.0;0.0;0.701336876627;0.712829983575;6.24405154213e-05;3.10283041927e-07;0.0;0.0;0.0;0.0;3.10283041927e-07;9.69171470189e-06;0.0;0.0;0.0;0.0;0.0;0.0;0.0;0.0;0.0;0.0;0.0;0.0;0.0;0.0;0.0;0.0;0.0;0.0;0.0;0.0;0.0;0.0;0.0;0.0;0.0;0.0;0.0;1.14936649417e-08
327763000000;173;327763000000;map;36.8881829409;4.76335655156;0.0;0.0;0.0;0.701336732857;0.712830125027;6.24751412488e-05;3.13904365612e-07;0.0;0.0;0.0;0.0;3.13904394034e-07;9.88192735818e-06;0.0;0.0;0.0;0.0;0.0;0.0;0.0;0.0;0.0;0.0;0.0;0.0;0.0;0.0;0.0;0.0;0.0;0.0;0.0;0.0;0.0;0.0;0.0;0.0;0.0;0.0;0.0;1.18551675495e-08
328282000000;174;328282000000;map;36.8924667281;5.02278076886;0.0;0.0;0.0;0.701337062799;0.712829800404;6.32110920833e-05;3.02101142324e-07;0.0;0.0;0.0;0.0;3.02101142324e-07;1.00397081724e-05;0.0;0.0;0.0;0.0;0.0;0.0;0.0;0.0;0.0;0.0;0.0;0.0;0.0;0.0;0.0;0.0;0.0;0.0;0.0;0.0;0.0;0.0;0.0;0.0;0.0;0.0;0.0;1.19416017431e-08
328787000000;175;328787000000;map;36.8966166397;5.27514333966;0.0;0.0;0.0;0.701337280769;0.712829585949;6.43102744107e-05;5.91650746173e-08;0.0;0.0;0.0;0.0;5.91650746173e-08;1.03934744438e-05;0.0;0.0;0.0;0.0;0.0;0.0;0.0;0.0;0.0;0.0;0.0;0.0;0.0;0.0;0.0;0.0;0.0;0.0;0.0;0.0;0.0;0.0;0.0;0.0;0.0;0.0;0.0;1.23007582276e-08
329288000000;176;329288000000;map;36.9008450683;5.52561725409;0.0;0.0;0.0;0.701336675701;0.712830181261;6.42185380002e-05;1.89779512993e-07;0.0;0.0;0.0;0.0;1.89779512993e-07;1.04170340478e-05;0.0;0.0;0.0;0.0;0.0;0.0;0.0;0.0;0.0;0.0;0.0;0.0;0.0;0.0;0.0;0.0;0.0;0.0;0.0;0.0;0.0;0.0;0.0;0.0;0.0;0.0;0.0;1.21883579157e-08
329789000000;177;329789000000;map;36.9050095104;5.77606949155;0.0;0.0;0.0;0.701337318416;0.712829548908;6.4190083549e-05;-1.56043768129e-07;0.0;0.0;0.0;0.0;-1.56043768129e-07;1.05392647214e-05;0.0;0.0;0.0;0.0;0.0;0.0;0.0;0.0;0.0;0.0;0.0;0.0;0.0;0.0;0.0;0.0;0.0;0.0;0.0;0.0;0.0;0.0;0.0;0.0;0.0;0.0;0.0;1.22185417713e-08
330294000000;178;330294000000;map;36.9090360409;6.0284637053;0.0;0.0;0.0;0.701337445588;0.712829423787;6.34242958313e-05;-2.59222019849e-07;0.0;0.0;0.0;0.0;-2.59222048271e-07;1.08737756364e-05;0.0;0.0;0.0;0.0;0.0;0.0;0.0;0.0;0.0;0.0;0.0;0.0;0.0;0.0;0.0;0.0;0.0;0.0;0.0;0.0;0.0;0.0;0.0;0.0;0.0;0.0;0.0;1.22680042057e-08
330815000000;179;330815000000;map;36.9134067864;6.28887440426;0.0;0.0;0.0;0.70133716815;0.712829696752;6.42067634544e-05;-2.9905311294e-07;0.0;0.0;0.0;0.0;-2.9905311294e-07;1.12396365353e-05;0.0;0.0;0.0;0.0;0.0;0.0;0.0;0.0;0.0;0.0;0.0;0.0;0.0;0.0;0.0;0.0;0.0;0.0;0.0;0.0;0.0;0.0;0.0;0.0;0.0;0.0;0.0;1.21533343758e-08
331319000000;180;331319000000;map;36.9174777701;6.54079425862;0.0;0.0;0.0;0.701338049123;0.712828829981;6.48728450869e-05;-9.667452332e-07;0.0;0.0;0.0;0.0;-9.667452332e-07;1.16282400455e-05;0.0;0.0;0.0;0.0;0.0;0.0;0.0;0.0;0.0;0.0;0.0;0.0;0.0;0.0;0.0;0.0;0.0;0.0;0.0;0.0;0.0;0.0;0.0;0.0;0.0;0.0;0.0;1.25457922223e-08
331838000000;181;331838000000;map;36.9216332832;6.80016580873;0.0;0.0;0.0;0.701338226631;0.712828655335;6.51474517781e-05;-6.69370280093e-07;0.0;0.0;0.0;0.0;-6.69370308515e-07;1.21965265194e-05;0.0;0.0;0.0;0.0;0.0;0.0;0.0;0.0;0.0;0.0;0.0;0.0;0.0;0.0;0.0;0.0;0.0;0.0;0.0;0.0;0.0;0.0;0.0;0.0;0.0;0.0;0.0;1.2772239085e-08
332339000000;182;332339000000;map;36.9256981994;7.05061793765;0.0;0.0;0.0;0.701338678443;0.712828210805;6.48801828902e-05;-3.97547580633e-07;0.0;0.0;0.0;0.0;-3.97547580633e-07;1.26136732277e-05;0.0;0.0;0.0;0.0;0.0;0.0;0.0;0.0;0.0;0.0;0.0;0.0;0.0;0.0;0.0;0.0;0.0;0.0;0.0;0.0;0.0;0.0;0.0;0.0;0.0;0.0;0.0;1.27798199099e-08
332841000000;183;332841000000;map;36.9297835411;7.30147844765;0.0;0.0;0.0;0.701338030233;0.712828848567;6.63782523134e-05;-1.46750551266e-07;0.0;0.0;0.0;0.0;-1.46750551266e-07;1.31102081369e-05;0.0;0.0;0.0;0.0;0.0;0.0;0.0;0.0;0.0;0.0;0.0;0.0;0.0;0.0;0.0;0.0;0.0;0.0;0.0;0.0;0.0;0.0;0.0;0.0;0.0;0.0;0.0;1.32337690133e-08
333350000000;184;333350000000;map;36.9337912678;7.55586800804;0.0;0.0;0.0;0.701337678314;0.712829194813;6.55971946344e-05;2.1266373551e-07;0.0;0.0;0.0;0.0;2.1266373551e-07;1.33390745418e-05;0.0;0.0;0.0;0.0;0.0;0.0;0.0;0.0;0.0;0.0;0.0;0.0;0.0;0.0;0.0;0.0;0.0;0.0;0.0;0.0;0.0;0.0;0.0;0.0;0.0;0.0;0.0;1.35381035729e-08
333851000000;185;333851000000;map;36.9378741094;7.80629154519;0.0;0.0;0.0;0.701336980165;0.712829881706;6.4105347974e-05;2.96768007502e-07;0.0;0.0;0.0;0.0;2.96768007502e-07;1.34166788968e-05;0.0;0.0;0.0;0.0;0.0;0.0;0.0;0.0;0.0;0.0;0.0;0.0;0.0;0.0;0.0;0.0;0.0;0.0;0.0;0.0;0.0;0.0;0.0;0.0;0.0;0.0;0.0;1.33836202569e-08
334352000000;186;334352000000;map;36.9420809535;8.05667555163;0.0;0.0;0.0;0.701336749805;0.712830108351;6.56234212784e-05;7.40293444323e-08;0.0;0.0;0.0;0.0;7.40293444323e-08;1.40163347595e-05;0.0;0.0;0.0;0.0;0.0;0.0;0.0;0.0;0.0;0.0;0.0;0.0;0.0;0.0;0.0;0.0;0.0;0.0;0.0;0.0;0.0;0.0;0.0;0.0;0.0;0.0;0.0;1.36160927441e-08
334857000000;187;334857000000;map;36.9463193151;8.30904964537;0.0;0.0;0.0;0.701336377527;0.712830474627;6.60016773963e-05;-3.78595700568e-07;0.0;0.0;0.0;0.0;-3.78595700568e-07;1.41736692143e-05;0.0;0.0;0.0;0.0;0.0;0.0;0.0;0.0;0.0;0.0;0.0;0.0;0.0;0.0;0.0;0.0;0.0;0.0;0.0;0.0;0.0;0.0;0.0;0.0;0.0;0.0;0.0;1.38284939533e-08
335361000000;188;335361000000;map;36.9503875785;8.56099580771;0.0;0.0;0.0;0.701336571358;0.712830283922;6.55732337691e-05;-5.26640974385e-07;0.0;0.0;0.0;0.0;-5.26640974385e-07;1.43840037623e-05;0.0;0.0;0.0;0.0;0.0;0.0;0.0;0.0;0.0;0.0;0.0;0.0;0.0;0.0;0.0;0.0;0.0;0.0;0.0;0.0;0.0;0.0;0.0;0.0;0.0;0.0;0.0;1.38241498726e-08
335864000000;189;335864000000;map;36.9545030428;8.81233929389;0.0;0.0;0.0;0.701336098917;0.712830748744;6.57356745251e-05;-1.8962532522e-07;0.0;0.0;0.0;0.0;-1.89625382063e-07;1.48601918113e-05;0.0;0.0;0.0;0.0;0.0;0.0;0.0;0.0;0.0;0.0;0.0;0.0;0.0;0.0;0.0;0.0;0.0;0.0;0.0;0.0;0.0;0.0;0.0;0.0;0.0;0.0;0.0;1.38372840332e-08
336367000000;190;336367000000;map;36.9585874399;9.06374148571;0.0;0.0;0.0;0.70133660506;0.712830250763;6.53095551115e-05;-9.97984557216e-08;0.0;0.0;0.0;0.0;-9.97984557216e-08;1.53223110146e-05;0.0;0.0;0.0;0.0;0.0;0.0;0.0;0.0;0.0;0.0;0.0;0.0;0.0;0.0;0.0;0.0;0.0;0.0;0.0;0.0;0.0;0.0;0.0;0.0;0.0;0.0;0.0;1.35674927309e-08
