%time;field.header.seq;field.header.stamp;field.header.frame_id;field.pose.pose.position.x;field.pose.pose.position.y;field.pose.pose.position.z;field.pose.pose.orientation.x;field.pose.pose.orientation.y;field.pose.pose.orientation.z;field.pose.pose.orientation.w;field.pose.covariance0;field.pose.covariance1;field.pose.covariance2;field.pose.covariance3;field.pose.covariance4;field.pose.covariance5;field.pose.covariance6;field.pose.covariance7;field.pose.covariance8;field.pose.covariance9;field.pose.covariance10;field.pose.covariance11;field.pose.covariance12;field.pose.covariance13;field.pose.covariance14;field.pose.covariance15;field.pose.covariance16;field.pose.covariance17;field.pose.covariance18;field.pose.covariance19;field.pose.covariance20;field.pose.covariance21;field.pose.covariance22;field.pose.covariance23;field.pose.covariance24;field.pose.covariance25;field.pose.covariance26;field.pose.covariance27;field.pose.covariance28;field.pose.covariance29;field.pose.covariance30;field.pose.covariance31;field.pose.covariance32;field.pose.covariance33;field.pose.covariance34;field.pose.covariance35
249241000000;28;249241000000;map;7.08428728502;-0.13285334044;0.0;0.0;0.0;-0.000334429459039;0.999999944078;0.206181798928;0.00247565797472;0.0;0.0;0.0;0.0;0.00247565797472;0.00162371285158;0.0;0.0;0.0;0.0;0.0;0.0;0.0;0.0;0.0;0.0;0.0;0.0;0.0;0.0;0.0;0.0;0.0;0.0;0.0;0.0;0.0;0.0;0.0;0.0;0.0;0.0;0.0;0.000210994554746
249750000000;29;249750000000;map;7.33871910508;-0.127522100953;0.0;0.0;0.0;0.000300885150557;0.999999954734;0.138166177256;0.00111763126736;0.0;0.0;0.0;0.0;0.00111763126736;0.00152968033255;0.0;0.0;0.0;0.0;0.0;0.0;0.0;0.0;0.0;0.0;0.0;0.0;0.0;0.0;0.0;0.0;0.0;0.0;0.0;0.0;0.0;0.0;0.0;0.0;0.0;0.0;0.0;0.00019933671754
250254000000;30;250254000000;map;7.59584254507;-0.122321385236;0.0;0.0;0.0;0.000980749553949;0.999999519065;0.093389410681;0.000488685372651;0.0;0.0;0.0;0.0;0.000488685372651;0.00146988906884;0.0;0.0;0.0;0.0;0.0;0.0;0.0;0.0;0.0;0.0;0.0;0.0;0.0;0.0;0.0;0.0;0.0;0.0;0.0;0.0;0.0;0.0;0.0;0.0;0.0;0.0;0.0;0.000192178716426
250771000000;31;250771000000;map;7.85626565775;-0.117717009581;0.0;0.0;0.0;0.00149465523048;0.999998883002;0.0911952189864;0.000221027910155;0.0;0.0;0.0;0.0;0.000221027910155;0.00140002332298;0.0;0.0;0.0;0.0;0.0;0.0;0.0;0.0;0.0;0.0;0.0;0.0;0.0;0.0;0.0;0.0;0.0;0.0;0.0;0.0;0.0;0.0;0.0;0.0;0.0;0.0;0.0;0.00018045458906
251272000000;32;251272000000;map;8.11170309687;-0.113821870976;0.0;0.0;0.0;0.00179373452735;0.999998391257;0.0946822013457;0.000279449161745;0.0;0.0;0.0;0.0;0.000279449161745;0.00145644532224;0.0;0.0;0.0;0.0;0.0;0.0;0.0;0.0;0.0;0.0;0.0;0.0;0.0;0.0;0.0;0.0;0.0;0.0;0.0;0.0;0.0;0.0;0.0;0.0;0.0;0.0;0.0;0.000181864539329
251772000000;33;251772000000;map;8.37322373834;-0.108939535348;0.0;0.0;0.0;0.0021155232475;0.999997762278;0.0990854257453;0.000244622999647;0.0;0.0;0.0;0.0;0.000244622999647;0.00147267195959;0.0;0.0;0.0;0.0;0.0;0.0;0.0;0.0;0.0;0.0;0.0;0.0;0.0;0.0;0.0;0.0;0.0;0.0;0.0;0.0;0.0;0.0;0.0;0.0;0.0;0.0;0.0;0.000180362543757
252291000000;34;252291000000;map;8.63257992609;-0.103999078989;0.0;0.0;0.0;0.00234490330468;0.99999725071;0.105331764949;0.000582761336409;0.0;0.0;0.0;0.0;0.000582761336409;0.00140293522565;0.0;0.0;0.0;0.0;0.0;0.0;0.0;0.0;0.0;0.0;0.0;0.0;0.0;0.0;0.0;0.0;0.0;0.0;0.0;0.0;0.0;0.0;0.0;0.0;0.0;0.0;0.0;0.000178860154408
252796000000;35;252796000000;map;8.88733853263;-0.100711258866;0.0;0.0;0.0;0.00244157689725;0.999997019347;0.109306377555;0.000669411698987;0.0;0.0;0.0;0.0;0.000669411698987;0.00135648385671;0.0;0.0;0.0;0.0;0.0;0.0;0.0;0.0;0.0;0.0;0.0;0.0;0.0;0.0;0.0;0.0;0.0;0.0;0.0;0.0;0.0;0.0;0.0;0.0;0.0;0.0;0.0;0.000181230761413
253297000000;36;253297000000;map;9.13959894611;-0.0972301454728;0.0;0.0;0.0;0.00254576271733;0.999996759541;0.10877781982;0.000769806195486;0.0;0.0;0.0;0.0;0.000769806195486;0.00135500173149;0.0;0.0;0.0;0.0;0.0;0.0;0.0;0.0;0.0;0.0;0.0;0.0;0.0;0.0;0.0;0.0;0.0;0.0;0.0;0.0;0.0;0.0;0.0;0.0;0.0;0.0;0.0;0.000178660044964
253800000000;37;253800000000;map;9.38489253155;-0.0934767628651;0.0;0.0;0.0;0.00260743360067;0.999996600639;0.110844365425;0.00080234412786;0.0;0.0;0.0;0.0;0.00080234412786;0.00137967949896;0.0;0.0;0.0;0.0;0.0;0.0;0.0;0.0;0.0;0.0;0.0;0.0;0.0;0.0;0.0;0.0;0.0;0.0;0.0;0.0;0.0;0.0;0.0;0.0;0.0;0.0;0.0;0.000185580824294
254303000000;38;254303000000;map;9.63774236836;-0.0904542865103;0.0;0.0;0.0;0.00250888115405;0.999996852753;0.114445269451;0.000913428478678;0.0;0.0;0.0;0.0;0.000913428478678;0.00145589075421;0.0;0.0;0.0;0.0;0.0;0.0;0.0;0.0;0.0;0.0;0.0;0.0;0.0;0.0;0.0;0.0;0.0;0.0;0.0;0.0;0.0;0.0;0.0;0.0;0.0;0.0;0.0;0.000184604193528
254824000000;39;254824000000;map;9.90681783968;-0.0870394976689;0.0;0.0;0.0;0.00259197891856;0.999996640817;0.115906547827;0.00152355378832;0.0;0.0;0.0;0.0;0.00152355378832;0.0015203490772;0.0;0.0;0.0;0.0;0.0;0.0;0.0;0.0;0.0;0.0;0.0;0.0;0.0;0.0;0.0;0.0;0.0;0.0;0.0;0.0;0.0;0.0;0.0;0.0;0.0;0.0;0.0;0.000187753395251
255330000000;40;255330000000;map;10.1642858782;-0.0834106910603;0.0;0.0;0.0;0.00257776282275;0.999996677564;0.117980082894;0.00178122523028;0.0;0.0;0.0;0.0;0.00178122523028;0.00153510632919;0.0;0.0;0.0;0.0;0.0;0.0;0.0;0.0;0.0;0.0;0.0;0.0;0.0;0.0;0.0;0.0;0.0;0.0;0.0;0.0;0.0;0.0;0.0;0.0;0.0;0.0;0.0;0.000186676506763
255834000000;41;255834000000;map;10.4089263107;-0.0816617403897;0.0;0.0;0.0;0.00249294844236;0.999996892599;0.118728175984;0.00181605480389;0.0;0.0;0.0;0.0;0.00181605480389;0.00162162161817;0.0;0.0;0.0;0.0;0.0;0.0;0.0;0.0;0.0;0.0;0.0;0.0;0.0;0.0;0.0;0.0;0.0;0.0;0.0;0.0;0.0;0.0;0.0;0.0;0.0;0.0;0.0;0.000190051800104
256343000000;42;256343000000;map;10.6576890086;-0.0806672104771;0.0;0.0;0.0;0.00239985925539;0.999997120334;0.112135608289;0.00164680566534;0.0;0.0;0.0;0.0;0.00164680566534;0.0016512428401;0.0;0.0;0.0;0.0;0.0;0.0;0.0;0.0;0.0;0.0;0.0;0.0;0.0;0.0;0.0;0.0;0.0;0.0;0.0;0.0;0.0;0.0;0.0;0.0;0.0;0.0;0.0;0.000194691691655
256862000000;43;256862000000;map;10.9192011116;-0.0781601948143;0.0;0.0;0.0;0.00232450417699;0.999997298337;0.109560750628;0.00138354310268;0.0;0.0;0.0;0.0;0.00138354310268;0.00166087858508;0.0;0.0;0.0;0.0;0.0;0.0;0.0;0.0;0.0;0.0;0.0;0.0;0.0;0.0;0.0;0.0;0.0;0.0;0.0;0.0;0.0;0.0;0.0;0.0;0.0;0.0;0.0;0.000196555182516
257368000000;44;257368000000;map;11.1702770022;-0.0766401475896;0.0;0.0;0.0;0.00216104472788;0.99999766494;0.109994096826;0.00164525411234;0.0;0.0;0.0;0.0;0.00164525411234;0.00171663901321;0.0;0.0;0.0;0.0;0.0;0.0;0.0;0.0;0.0;0.0;0.0;0.0;0.0;0.0;0.0;0.0;0.0;0.0;0.0;0.0;0.0;0.0;0.0;0.0;0.0;0.0;0.0;0.000192005735317
257876000000;45;257876000000;map;11.4250594715;-0.0749589253514;0.0;0.0;0.0;0.00208092188684;0.99999783488;0.10831494786;0.00148544978451;0.0;0.0;0.0;0.0;0.00148544978451;0.00171222671046;0.0;0.0;0.0;0.0;0.0;0.0;0.0;0.0;0.0;0.0;0.0;0.0;0.0;0.0;0.0;0.0;0.0;0.0;0.0;0.0;0.0;0.0;0.0;0.0;0.0;0.0;0.0;0.000185830249266
258376000000;46;258376000000;map;11.6682624195;-0.0732410351824;0.0;0.0;0.0;0.00189790101376;0.999998198984;0.111038483569;0.00185678487131;0.0;0.0;0.0;0.0;0.00185678487131;0.00171552686043;0.0;0.0;0.0;0.0;0.0;0.0;0.0;0.0;0.0;0.0;0.0;0.0;0.0;0.0;0.0;0.0;0.0;0.0;0.0;0.0;0.0;0.0;0.0;0.0;0.0;0.0;0.0;0.000180947491893
258880000000;47;258880000000;map;11.9256435935;-0.0708048006989;0.0;0.0;0.0;0.00183275571737;0.999998320502;0.118453011937;0.00202547478223;0.0;0.0;0.0;0.0;0.00202547478223;0.00166142664433;0.0;0.0;0.0;0.0;0.0;0.0;0.0;0.0;0.0;0.0;0.0;0.0;0.0;0.0;0.0;0.0;0.0;0.0;0.0;0.0;0.0;0.0;0.0;0.0;0.0;0.0;0.0;0.000174251456926
259388000000;48;259388000000;map;12.1791728291;-0.0694375764515;0.0;0.0;0.0;0.00176022326339;0.999998450806;0.121892163939;0.00184649765156;0.0;0.0;0.0;0.0;0.00184649765156;0.00167813334636;0.0;0.0;0.0;0.0;0.0;0.0;0.0;0.0;0.0;0.0;0.0;0.0;0.0;0.0;0.0;0.0;0.0;0.0;0.0;0.0;0.0;0.0;0.0;0.0;0.0;0.0;0.0;0.000174442622635
259890000000;49;259890000000;map;12.42853789;-0.0682204457595;0.0;0.0;0.0;0.00156247477556;0.999998779336;0.122068059648;0.00147825968823;0.0;0.0;0.0;0.0;0.00147825968823;0.00167202777831;0.0;0.0;0.0;0.0;0.0;0.0;0.0;0.0;0.0;0.0;0.0;0.0;0.0;0.0;0.0;0.0;0.0;0.0;0.0;0.0;0.0;0.0;0.0;0.0;0.0;0.0;0.0;0.000179546520694
260391000000;50;260391000000;map;12.6764602632;-0.0677980628052;0.0;0.0;0.0;0.00135732963885;0.999999078828;0.121340998001;0.00108037233947;0.0;0.0;0.0;0.0;0.00108037233947;0.0016235123226;0.0;0.0;0.0;0.0;0.0;0.0;0.0;0.0;0.0;0.0;0.0;0.0;0.0;0.0;0.0;0.0;0.0;0.0;0.0;0.0;0.0;0.0;0.0;0.0;0.0;0.0;0.0;0.000178460294881
260897000000;51;260897000000;map;12.9246405415;-0.0667113915026;0.0;0.0;0.0;0.00120785179851;0.999999270547;0.125298631902;0.000752053409194;0.0;0.0;0.0;0.0;0.000752053409194;0.0016705248668;0.0;0.0;0.0;0.0;0.0;0.0;0.0;0.0;0.0;0.0;0.0;0.0;0.0;0.0;0.0;0.0;0.0;0.0;0.0;0.0;0.0;0.0;0.0;0.0;0.0;0.0;0.0;0.000178711226436
261403000000;52;261403000000;map;13.1701733791;-0.0653349692319;0.0;0.0;0.0;0.00119065507417;0.99999929117;0.129570858171;0.000270029853033;0.0;0.0;0.0;0.0;0.000270029853033;0.00172138771594;0.0;0.0;0.0;0.0;0.0;0.0;0.0;0.0;0.0;0.0;0.0;0.0;0.0;0.0;0.0;0.0;0.0;0.0;0.0;0.0;0.0;0.0;0.0;0.0;0.0;0.0;0.0;0.000188370248048
261904000000;53;261904000000;map;13.4270656564;-0.064180909014;0.0;0.0;0.0;0.00102960955229;0.999999469952;0.131022704962;0.00062758826986;0.0;0.0;0.0;0.0;0.00062758826986;0.00176628253437;0.0;0.0;0.0;0.0;0.0;0.0;0.0;0.0;0.0;0.0;0.0;0.0;0.0;0.0;0.0;0.0;0.0;0.0;0.0;0.0;0.0;0.0;0.0;0.0;0.0;0.0;0.0;0.000187449553236
262410000000;54;262410000000;map;13.6855857341;-0.0632791894873;0.0;0.0;0.0;0.00092834108795;0.999999569091;0.138257392195;0.000933865867462;0.0;0.0;0.0;0.0;0.000933865867462;0.00182754894092;0.0;0.0;0.0;0.0;0.0;0.0;0.0;0.0;0.0;0.0;0.0;0.0;0.0;0.0;0.0;0.0;0.0;0.0;0.0;0.0;0.0;0.0;0.0;0.0;0.0;0.0;0.0;0.000194359283382
262911000000;55;262911000000;map;13.9397331409;-0.0628109663098;0.0;0.0;0.0;0.000836359683465;0.999999650251;0.139337043638;0.000702318289342;0.0;0.0;0.0;0.0;0.000702318289342;0.00184105407592;0.0;0.0;0.0;0.0;0.0;0.0;0.0;0.0;0.0;0.0;0.0;0.0;0.0;0.0;0.0;0.0;0.0;0.0;0.0;0.0;0.0;0.0;0.0;0.0;0.0;0.0;0.0;0.000194956203366
263413000000;56;263413000000;map;14.188338289;-0.0625903016835;0.0;0.0;0.0;0.000758930563451;0.999999712012;0.138251222865;0.000685572626834;0.0;0.0;0.0;0.0;0.000685572626834;0.00186001188388;0.0;0.0;0.0;0.0;0.0;0.0;0.0;0.0;0.0;0.0;0.0;0.0;0.0;0.0;0.0;0.0;0.0;0.0;0.0;0.0;0.0;0.0;0.0;0.0;0.0;0.0;0.0;0.000194036335924
263915000000;57;263915000000;map;14.4384490663;-0.063375961411;0.0;0.0;0.0;0.000486211277787;0.999999881799;0.129215516427;0.00051560486413;0.0;0.0;0.0;0.0;0.00051560486413;0.00187688110981;0.0;0.0;0.0;0.0;0.0;0.0;0.0;0.0;0.0;0.0;0.0;0.0;0.0;0.0;0.0;0.0;0.0;0.0;0.0;0.0;0.0;0.0;0.0;0.0;0.0;0.0;0.0;0.0001937094449
264419000000;58;264419000000;map;14.6953421271;-0.0626980276017;0.0;0.0;0.0;0.000299788795418;0.999999955063;0.128431432258;0.000672234792274;0.0;0.0;0.0;0.0;0.000672234792274;0.00190293124916;0.0;0.0;0.0;0.0;0.0;0.0;0.0;0.0;0.0;0.0;0.0;0.0;0.0;0.0;0.0;0.0;0.0;0.0;0.0;0.0;0.0;0.0;0.0;0.0;0.0;0.0;0.0;0.000188818951164
264940000000;59;264940000000;map;14.9532408798;-0.0629827386779;0.0;0.0;0.0;0.000136598731629;0.99999999067;0.121608324282;0.000658290066516;0.0;0.0;0.0;0.0;0.000658290066516;0.00188994335951;0.0;0.0;0.0;0.0;0.0;0.0;0.0;0.0;0.0;0.0;0.0;0.0;0.0;0.0;0.0;0.0;0.0;0.0;0.0;0.0;0.0;0.0;0.0;0.0;0.0;0.0;0.0;0.0001984684493
265455000000;60;265455000000;map;15.2084132319;-0.0633987487323;0.0;0.0;0.0;1.39581634603e-05;0.999999999903;0.121057660103;0.000284745407377;0.0;0.0;0.0;0.0;0.000284745407377;0.00195307223426;0.0;0.0;0.0;0.0;0.0;0.0;0.0;0.0;0.0;0.0;0.0;0.0;0.0;0.0;0.0;0.0;0.0;0.0;0.0;0.0;0.0;0.0;0.0;0.0;0.0;0.0;0.0;0.000205274766238
265957000000;61;265957000000;map;15.4456102497;-0.0647134376398;0.0;0.0;0.0;-0.000157720796859;0.999999987562;0.118615883526;0.000451875612695;0.0;0.0;0.0;0.0;0.000451875612695;0.0020330156215;0.0;0.0;0.0;0.0;0.0;0.0;0.0;0.0;0.0;0.0;0.0;0.0;0.0;0.0;0.0;0.0;0.0;0.0;0.0;0.0;0.0;0.0;0.0;0.0;0.0;0.0;0.0;0.000214697971355
266465000000;62;266465000000;map;15.7060532047;-0.0652598657106;0.0;0.0;0.0;-0.000298467785285;0.999999955458;0.116789876042;0.00036468499006;0.0;0.0;0.0;0.0;0.00036468499006;0.00214637324114;0.0;0.0;0.0;0.0;0.0;0.0;0.0;0.0;0.0;0.0;0.0;0.0;0.0;0.0;0.0;0.0;0.0;0.0;0.0;0.0;0.0;0.0;0.0;0.0;0.0;0.0;0.0;0.000216141833121
266966000000;63;266966000000;map;15.9555734062;-0.0657087308465;0.0;0.0;0.0;-0.000480666784476;0.99999988448;0.108231253758;0.000404992891625;0.0;0.0;0.0;0.0;0.000404992891625;0.00219014770041;0.0;0.0;0.0;0.0;0.0;0.0;0.0;0.0;0.0;0.0;0.0;0.0;0.0;0.0;0.0;0.0;0.0;0.0;0.0;0.0;0.0;0.0;0.0;0.0;0.0;0.0;0.0;0.000222322073936
267471000000;64;267471000000;map;16.1984114414;-0.0674590539508;0.0;0.0;0.0;-0.000613487343575;0.999999811817;0.106652340944;-0.000150253852823;0.0;0.0;0.0;0.0;-0.000150253852822;0.00219436020095;0.0;0.0;0.0;0.0;0.0;0.0;0.0;0.0;0.0;0.0;0.0;0.0;0.0;0.0;0.0;0.0;0.0;0.0;0.0;0.0;0.0;0.0;0.0;0.0;0.0;0.0;0.0;0.000223843749555
267972000000;65;267972000000;map;16.4516006624;-0.0679422774107;0.0;0.0;0.0;-0.000695670492251;0.999999758021;0.102327462979;0.000133071871051;0.0;0.0;0.0;0.0;0.000133071871051;0.00225106870013;0.0;0.0;0.0;0.0;0.0;0.0;0.0;0.0;0.0;0.0;0.0;0.0;0.0;0.0;0.0;0.0;0.0;0.0;0.0;0.0;0.0;0.0;0.0;0.0;0.0;0.0;0.0;0.000227890261021
268473000000;66;268473000000;map;16.7067704272;-0.0688205353017;0.0;0.0;0.0;-0.000738800493078;0.999999727087;0.0948096721747;1.70981573189e-05;0.0;0.0;0.0;0.0;1.70981573189e-05;0.00226719551551;0.0;0.0;0.0;0.0;0.0;0.0;0.0;0.0;0.0;0.0;0.0;0.0;0.0;0.0;0.0;0.0;0.0;0.0;0.0;0.0;0.0;0.0;0.0;0.0;0.0;0.0;0.0;0.000219329489964
268981000000;67;268981000000;map;16.9588952632;-0.0696100747212;0.0;0.0;0.0;-0.000799725046332;0.99999968022;0.0896199670559;0.000200487094594;0.0;0.0;0.0;0.0;0.000200487094593;0.00234221995067;0.0;0.0;0.0;0.0;0.0;0.0;0.0;0.0;0.0;0.0;0.0;0.0;0.0;0.0;0.0;0.0;0.0;0.0;0.0;0.0;0.0;0.0;0.0;0.0;0.0;0.0;0.0;0.000225431426787
269494000000;68;269494000000;map;17.217670008;-0.0694643311476;0.0;0.0;0.0;-0.000821581478215;0.999999662502;0.0862039119042;9.2939491867e-06;0.0;0.0;0.0;0.0;9.2939491867e-06;0.00244494950126;0.0;0.0;0.0;0.0;0.0;0.0;0.0;0.0;0.0;0.0;0.0;0.0;0.0;0.0;0.0;0.0;0.0;0.0;0.0;0.0;0.0;0.0;0.0;0.0;0.0;0.0;0.0;0.000226904812961
269996000000;69;269996000000;map;17.4761782469;-0.0696666406699;0.0;0.0;0.0;-0.000803168286737;0.99999967746;0.0813186733592;2.21668137723e-05;0.0;0.0;0.0;0.0;2.21668137723e-05;0.0024576145407;0.0;0.0;0.0;0.0;0.0;0.0;0.0;0.0;0.0;0.0;0.0;0.0;0.0;0.0;0.0;0.0;0.0;0.0;0.0;0.0;0.0;0.0;0.0;0.0;0.0;0.0;0.0;0.000212626559906
270496000000;70;270496000000;map;17.720865743;-0.0702986935822;0.0;0.0;0.0;-0.000843710648071;0.999999644076;0.0765442477461;0.000128475062412;0.0;0.0;0.0;0.0;0.000128475062412;0.00246023626772;0.0;0.0;0.0;0.0;0.0;0.0;0.0;0.0;0.0;0.0;0.0;0.0;0.0;0.0;0.0;0.0;0.0;0.0;0.0;0.0;0.0;0.0;0.0;0.0;0.0;0.0;0.0;0.000202204467302
271011000000;71;271011000000;map;17.9780012745;-0.0701171492286;0.0;0.0;0.0;-0.00086972154614;0.999999621792;0.0777929580489;-0.000104826060217;0.0;0.0;0.0;0.0;-0.000104826060217;0.00249282589022;0.0;0.0;0.0;0.0;0.0;0.0;0.0;0.0;0.0;0.0;0.0;0.0;0.0;0.0;0.0;0.0;0.0;0.0;0.0;0.0;0.0;0.0;0.0;0.0;0.0;0.0;0.0;0.000199193534587
271532000000;72;271532000000;map;18.2431135315;-0.0717189972329;0.0;0.0;0.0;-0.00118132629066;0.999999302234;0.0777726489362;-0.000116140926204;0.0;0.0;0.0;0.0;-0.000116140926204;0.00251024560181;0.0;0.0;0.0;0.0;0.0;0.0;0.0;0.0;0.0;0.0;0.0;0.0;0.0;0.0;0.0;0.0;0.0;0.0;0.0;0.0;0.0;0.0;0.0;0.0;0.0;0.0;0.0;0.000201495171585
272037000000;73;272037000000;map;18.4893131786;-0.0725288105508;0.0;0.0;0.0;-0.00128300376528;0.99999917695;0.0764606155026;-0.00053581976481;0.0;0.0;0.0;0.0;-0.00053581976481;0.00248081285658;0.0;0.0;0.0;0.0;0.0;0.0;0.0;0.0;0.0;0.0;0.0;0.0;0.0;0.0;0.0;0.0;0.0;0.0;0.0;0.0;0.0;0.0;0.0;0.0;0.0;0.0;0.0;0.00020441753817
272542000000;74;272542000000;map;18.7358180893;-0.0734264800556;0.0;0.0;0.0;-0.0013452026522;0.999999095215;0.0737910315826;-0.000348694784104;0.0;0.0;0.0;0.0;-0.000348694784104;0.00248257519078;0.0;0.0;0.0;0.0;0.0;0.0;0.0;0.0;0.0;0.0;0.0;0.0;0.0;0.0;0.0;0.0;0.0;0.0;0.0;0.0;0.0;0.0;0.0;0.0;0.0;0.0;0.0;0.000199577965489
273048000000;75;273048000000;map;18.9834267275;-0.0749767804424;0.0;0.0;0.0;-0.00145462586559;0.999998942031;0.0787863972012;-0.000179908925637;0.0;0.0;0.0;0.0;-0.000179908925637;0.00239599879793;0.0;0.0;0.0;0.0;0.0;0.0;0.0;0.0;0.0;0.0;0.0;0.0;0.0;0.0;0.0;0.0;0.0;0.0;0.0;0.0;0.0;0.0;0.0;0.0;0.0;0.0;0.0;0.000195698515899
273550000000;76;273550000000;map;19.234735803;-0.0763901338835;0.0;0.0;0.0;-0.00152956591334;0.999998830213;0.0775218889465;-2.94389741231e-05;0.0;0.0;0.0;0.0;-2.94389741231e-05;0.0023244556069;0.0;0.0;0.0;0.0;0.0;0.0;0.0;0.0;0.0;0.0;0.0;0.0;0.0;0.0;0.0;0.0;0.0;0.0;0.0;0.0;0.0;0.0;0.0;0.0;0.0;0.0;0.0;0.000193898380058
274070000000;77;274070000000;map;19.4881221915;-0.0781494819223;0.0;0.0;0.0;-0.00166549803095;0.999998613057;0.0811688599336;0.000364629630034;0.0;0.0;0.0;0.0;0.000364629630033;0.00233094813896;0.0;0.0;0.0;0.0;0.0;0.0;0.0;0.0;0.0;0.0;0.0;0.0;0.0;0.0;0.0;0.0;0.0;0.0;0.0;0.0;0.0;0.0;0.0;0.0;0.0;0.0;0.0;0.000200177561156
274579000000;78;274579000000;map;19.7377264415;-0.0796142943011;0.0;0.0;0.0;-0.00175528128985;0.999998459493;0.0878462654148;0.000264027727543;0.0;0.0;0.0;0.0;0.000264027727543;0.00224769598201;0.0;0.0;0.0;0.0;0.0;0.0;0.0;0.0;0.0;0.0;0.0;0.0;0.0;0.0;0.0;0.0;0.0;0.0;0.0;0.0;0.0;0.0;0.0;0.0;0.0;0.0;0.0;0.000198172629128
275087000000;79;275087000000;map;19.9908393216;-0.0817787420585;0.0;0.0;0.0;-0.00193691390307;0.999998124181;0.0920032254796;0.000237432845577;0.0;0.0;0.0;0.0;0.000237432845577;0.00223430097763;0.0;0.0;0.0;0.0;0.0;0.0;0.0;0.0;0.0;0.0;0.0;0.0;0.0;0.0;0.0;0.0;0.0;0.0;0.0;0.0;0.0;0.0;0.0;0.0;0.0;0.0;0.0;0.00019584664673
275605000000;80;275605000000;map;20.2537562153;-0.0829538217132;0.0;0.0;0.0;-0.0018857698558;0.999998221934;0.0916921206228;0.000134423383216;0.0;0.0;0.0;0.0;0.000134423383217;0.00224371950868;0.0;0.0;0.0;0.0;0.0;0.0;0.0;0.0;0.0;0.0;0.0;0.0;0.0;0.0;0.0;0.0;0.0;0.0;0.0;0.0;0.0;0.0;0.0;0.0;0.0;0.0;0.0;0.000198733250324
276109000000;81;276109000000;map;20.5016292784;-0.0850856415188;0.0;0.0;0.0;-0.00211090944282;0.999997772028;0.0952394713242;-7.3747685349e-05;0.0;0.0;0.0;0.0;-7.37476853487e-05;0.00221879091258;0.0;0.0;0.0;0.0;0.0;0.0;0.0;0.0;0.0;0.0;0.0;0.0;0.0;0.0;0.0;0.0;0.0;0.0;0.0;0.0;0.0;0.0;0.0;0.0;0.0;0.0;0.0;0.00019914914451
276617000000;82;276617000000;map;20.7582509853;-0.0873062979992;0.0;0.0;0.0;-0.00235976027582;0.999997215762;0.103973829489;1.96921005586e-05;0.0;0.0;0.0;0.0;1.96921005586e-05;0.00218236459427;0.0;0.0;0.0;0.0;0.0;0.0;0.0;0.0;0.0;0.0;0.0;0.0;0.0;0.0;0.0;0.0;0.0;0.0;0.0;0.0;0.0;0.0;0.0;0.0;0.0;0.0;0.0;0.000193106494691
277120000000;83;277120000000;map;21.0014322366;-0.0900887576143;0.0;0.0;0.0;-0.0026349828616;0.999996528427;0.108174391691;0.000426309238933;0.0;0.0;0.0;0.0;0.000426309238933;0.0022172481113;0.0;0.0;0.0;0.0;0.0;0.0;0.0;0.0;0.0;0.0;0.0;0.0;0.0;0.0;0.0;0.0;0.0;0.0;0.0;0.0;0.0;0.0;0.0;0.0;0.0;0.0;0.0;0.000199509854267
277640000000;84;277640000000;map;21.2595781191;-0.0939064327726;0.0;0.0;0.0;-0.00296167323218;0.999995614236;0.11229978351;0.000290573754798;0.0;0.0;0.0;0.0;0.000290573754798;0.00216402596892;0.0;0.0;0.0;0.0;0.0;0.0;0.0;0.0;0.0;0.0;0.0;0.0;0.0;0.0;0.0;0.0;0.0;0.0;0.0;0.0;0.0;0.0;0.0;0.0;0.0;0.0;0.0;0.000207142474989
278165000000;85;278165000000;map;21.5209057245;-0.0969219525287;0.0;0.0;0.0;-0.00314148598416;0.999995065521;0.117420291704;-4.05669375101e-05;0.0;0.0;0.0;0.0;-4.05669375101e-05;0.00217451974982;0.0;0.0;0.0;0.0;0.0;0.0;0.0;0.0;0.0;0.0;0.0;0.0;0.0;0.0;0.0;0.0;0.0;0.0;0.0;0.0;0.0;0.0;0.0;0.0;0.0;0.0;0.0;0.00020803216393
278667000000;86;278667000000;map;21.7598508785;-0.0997615363677;0.0;0.0;0.0;-0.00321469135072;0.999994832866;0.118495098393;0.000150469047774;0.0;0.0;0.0;0.0;0.000150469047774;0.00214603672365;0.0;0.0;0.0;0.0;0.0;0.0;0.0;0.0;0.0;0.0;0.0;0.0;0.0;0.0;0.0;0.0;0.0;0.0;0.0;0.0;0.0;0.0;0.0;0.0;0.0;0.0;0.0;0.000209120776032
279175000000;87;279175000000;map;22.0153234099;-0.102056257691;0.0;0.0;0.0;-0.00337667605731;0.999994299013;0.120417585203;0.000395046247414;0.0;0.0;0.0;0.0;0.000395046247414;0.00210246138035;0.0;0.0;0.0;0.0;0.0;0.0;0.0;0.0;0.0;0.0;0.0;0.0;0.0;0.0;0.0;0.0;0.0;0.0;0.0;0.0;0.0;0.0;0.0;0.0;0.0;0.0;0.0;0.000205342940448
279679000000;88;279679000000;map;22.2702099743;-0.104963216694;0.0;0.0;0.0;-0.00336227278694;0.999994347545;0.12508805117;0.000177831578128;0.0;0.0;0.0;0.0;0.000177831578128;0.00208689896772;0.0;0.0;0.0;0.0;0.0;0.0;0.0;0.0;0.0;0.0;0.0;0.0;0.0;0.0;0.0;0.0;0.0;0.0;0.0;0.0;0.0;0.0;0.0;0.0;0.0;0.0;0.0;0.000194335909716
280185000000;89;280185000000;map;22.5199109106;-0.107790812906;0.0;0.0;0.0;-0.00349039706928;0.999993908546;0.124121373457;-0.000129413012381;0.0;0.0;0.0;0.0;-0.000129413012381;0.00210176851137;0.0;0.0;0.0;0.0;0.0;0.0;0.0;0.0;0.0;0.0;0.0;0.0;0.0;0.0;0.0;0.0;0.0;0.0;0.0;0.0;0.0;0.0;0.0;0.0;0.0;0.0;0.0;0.000193073709446
280690000000;90;280690000000;map;22.7765853015;-0.110656651494;0.0;0.0;0.0;-0.00372648335923;0.999993056637;0.126626031238;2.77537769091e-05;0.0;0.0;0.0;0.0;2.77537769091e-05;0.00201700321585;0.0;0.0;0.0;0.0;0.0;0.0;0.0;0.0;0.0;0.0;0.0;0.0;0.0;0.0;0.0;0.0;0.0;0.0;0.0;0.0;0.0;0.0;0.0;0.0;0.0;0.0;0.0;0.000189499782333
281193000000;91;281193000000;map;23.0127580334;-0.112911507511;0.0;0.0;0.0;-0.00368313872908;0.999993217222;0.131763962633;6.22854773797e-05;0.0;0.0;0.0;0.0;6.22854773797e-05;0.00195893607071;0.0;0.0;0.0;0.0;0.0;0.0;0.0;0.0;0.0;0.0;0.0;0.0;0.0;0.0;0.0;0.0;0.0;0.0;0.0;0.0;0.0;0.0;0.0;0.0;0.0;0.0;0.0;0.000178803700557
281700000000;92;281700000000;map;23.2692488121;-0.11428717644;0.0;0.0;0.0;-0.00351141409694;0.999993834967;0.12704452921;0.00043261598349;0.0;0.0;0.0;0.0;0.00043261598349;0.00194780472896;0.0;0.0;0.0;0.0;0.0;0.0;0.0;0.0;0.0;0.0;0.0;0.0;0.0;0.0;0.0;0.0;0.0;0.0;0.0;0.0;0.0;0.0;0.0;0.0;0.0;0.0;0.0;0.000183438414112
282204000000;93;282204000000;map;23.5205929948;-0.115655019665;0.0;0.0;0.0;-0.00343403372023;0.999994103689;0.120860654259;0.000606622961751;0.0;0.0;0.0;0.0;0.000606622961751;0.0019947348517;0.0;0.0;0.0;0.0;0.0;0.0;0.0;0.0;0.0;0.0;0.0;0.0;0.0;0.0;0.0;0.0;0.0;0.0;0.0;0.0;0.0;0.0;0.0;0.0;0.0;0.0;0.0;0.000182648750137
282708000000;94;282708000000;map;23.7743723148;-0.117328404187;0.0;0.0;0.0;-0.00342803405413;0.999994124274;0.126870417122;0.000994998358319;0.0;0.0;0.0;0.0;0.000994998358318;0.00200543457488;0.0;0.0;0.0;0.0;0.0;0.0;0.0;0.0;0.0;0.0;0.0;0.0;0.0;0.0;0.0;0.0;0.0;0.0;0.0;0.0;0.0;0.0;0.0;0.0;0.0;0.0;0.0;0.000183032528314
283216000000;95;283216000000;map;24.0271490082;-0.118877851761;0.0;0.0;0.0;-0.00335890315529;0.999994358869;0.127710006642;0.000998197283026;0.0;0.0;0.0;0.0;0.000998197283026;0.00202339619736;0.0;0.0;0.0;0.0;0.0;0.0;0.0;0.0;0.0;0.0;0.0;0.0;0.0;0.0;0.0;0.0;0.0;0.0;0.0;0.0;0.0;0.0;0.0;0.0;0.0;0.0;0.0;0.000186800411168
283718000000;96;283718000000;map;24.2695884916;-0.120696844902;0.0;0.0;0.0;-0.00339108237032;0.999994250264;0.126968249485;0.000898995332834;0.0;0.0;0.0;0.0;0.000898995332834;0.00193095177845;0.0;0.0;0.0;0.0;0.0;0.0;0.0;0.0;0.0;0.0;0.0;0.0;0.0;0.0;0.0;0.0;0.0;0.0;0.0;0.0;0.0;0.0;0.0;0.0;0.0;0.0;0.0;0.000185271065446
284238000000;97;284238000000;map;24.5246563329;-0.122496396614;0.0;0.0;0.0;-0.0034200148475;0.999994151732;0.126707390072;0.00106087566959;0.0;0.0;0.0;0.0;0.00106087566959;0.00188828011864;0.0;0.0;0.0;0.0;0.0;0.0;0.0;0.0;0.0;0.0;0.0;0.0;0.0;0.0;0.0;0.0;0.0;0.0;0.0;0.0;0.0;0.0;0.0;0.0;0.0;0.0;0.0;0.000182573114211
284742000000;98;284742000000;map;24.7795193994;-0.125003709225;0.0;0.0;0.0;-0.00345166649508;0.999994042981;0.131448453262;0.000818956437419;0.0;0.0;0.0;0.0;0.000818956437418;0.00191101784923;0.0;0.0;0.0;0.0;0.0;0.0;0.0;0.0;0.0;0.0;0.0;0.0;0.0;0.0;0.0;0.0;0.0;0.0;0.0;0.0;0.0;0.0;0.0;0.0;0.0;0.0;0.0;0.000187151959256
285261000000;99;285261000000;map;25.0374247322;-0.125535165317;0.0;0.0;0.0;-0.00324726940745;0.999994727607;0.130991471391;0.000908914402017;0.0;0.0;0.0;0.0;0.000908914402017;0.00193246369069;0.0;0.0;0.0;0.0;0.0;0.0;0.0;0.0;0.0;0.0;0.0;0.0;0.0;0.0;0.0;0.0;0.0;0.0;0.0;0.0;0.0;0.0;0.0;0.0;0.0;0.0;0.0;0.000192031169555
285770000000;100;285770000000;map;25.2843811293;-0.125439181299;0.0;0.0;0.0;-0.00328326422321;0.999994610073;0.129168519501;0.000993349251329;0.0;0.0;0.0;0.0;0.000993349251329;0.00186552400471;0.0;0.0;0.0;0.0;0.0;0.0;0.0;0.0;0.0;0.0;0.0;0.0;0.0;0.0;0.0;0.0;0.0;0.0;0.0;0.0;0.0;0.0;0.0;0.0;0.0;0.0;0.0;0.000189269444546
286274000000;101;286274000000;map;25.5343721448;-0.125738660895;0.0;0.0;0.0;-0.00326303489365;0.999994676287;0.12285885899;0.000838612016929;0.0;0.0;0.0;0.0;0.00083861201693;0.00176084796508;0.0;0.0;0.0;0.0;0.0;0.0;0.0;0.0;0.0;0.0;0.0;0.0;0.0;0.0;0.0;0.0;0.0;0.0;0.0;0.0;0.0;0.0;0.0;0.0;0.0;0.0;0.0;0.000192874927918
286779000000;102;286779000000;map;25.7850083737;-0.127377549783;0.0;0.0;0.0;-0.00328540745926;0.999994603034;0.116668522826;0.000672860286254;0.0;0.0;0.0;0.0;0.000672860286254;0.0017822183131;0.0;0.0;0.0;0.0;0.0;0.0;0.0;0.0;0.0;0.0;0.0;0.0;0.0;0.0;0.0;0.0;0.0;0.0;0.0;0.0;0.0;0.0;0.0;0.0;0.0;0.0;0.0;0.000185705907888
287282000000;103;287282000000;map;26.0388801334;-0.128684476692;0.0;0.0;0.0;-0.00318388529898;0.999994931424;0.11893245907;0.0011890963766;0.0;0.0;0.0;0.0;0.0011890963766;0.00181165430629;0.0;0.0;0.0;0.0;0.0;0.0;0.0;0.0;0.0;0.0;0.0;0.0;0.0;0.0;0.0;0.0;0.0;0.0;0.0;0.0;0.0;0.0;0.0;0.0;0.0;0.0;0.0;0.00019190970244
287785000000;104;287785000000;map;26.2889240336;-0.130950402585;0.0;0.0;0.0;-0.00318286299746;0.999994934679;0.116746197091;0.00104911926346;0.0;0.0;0.0;0.0;0.00104911926346;0.00180100608676;0.0;0.0;0.0;0.0;0.0;0.0;0.0;0.0;0.0;0.0;0.0;0.0;0.0;0.0;0.0;0.0;0.0;0.0;0.0;0.0;0.0;0.0;0.0;0.0;0.0;0.0;0.0;0.000189210989467
288287000000;105;288287000000;map;26.5393773709;-0.132384607531;0.0;0.0;0.0;-0.00313909229249;0.999995073038;0.111637502266;0.00102079805795;0.0;0.0;0.0;0.0;0.00102079805795;0.00178698699264;0.0;0.0;0.0;0.0;0.0;0.0;0.0;0.0;0.0;0.0;0.0;0.0;0.0;0.0;0.0;0.0;0.0;0.0;0.0;0.0;0.0;0.0;0.0;0.0;0.0;0.0;0.0;0.000185938780002
288808000000;106;288808000000;map;26.8060735076;-0.135034144101;0.0;0.0;0.0;-0.00327682838812;0.999994631183;0.110723139172;0.000885586361216;0.0;0.0;0.0;0.0;0.000885586361216;0.00182582808807;0.0;0.0;0.0;0.0;0.0;0.0;0.0;0.0;0.0;0.0;0.0;0.0;0.0;0.0;0.0;0.0;0.0;0.0;0.0;0.0;0.0;0.0;0.0;0.0;0.0;0.0;0.0;0.000193503141417
289327000000;107;289327000000;map;27.0596954114;-0.137089442769;0.0;0.0;0.0;-0.00331385245594;0.999994509176;0.11455025102;0.00129636166901;0.0;0.0;0.0;0.0;0.00129636166901;0.00187259806351;0.0;0.0;0.0;0.0;0.0;0.0;0.0;0.0;0.0;0.0;0.0;0.0;0.0;0.0;0.0;0.0;0.0;0.0;0.0;0.0;0.0;0.0;0.0;0.0;0.0;0.0;0.0;0.000194280553073
289832000000;108;289832000000;map;27.316784441;-0.138768159392;0.0;0.0;0.0;-0.00333295161509;0.999994445701;0.119734904599;0.00123162290542;0.0;0.0;0.0;0.0;0.00123162290542;0.00183792413193;0.0;0.0;0.0;0.0;0.0;0.0;0.0;0.0;0.0;0.0;0.0;0.0;0.0;0.0;0.0;0.0;0.0;0.0;0.0;0.0;0.0;0.0;0.0;0.0;0.0;0.0;0.0;0.000194882516215
290333000000;109;290333000000;map;27.5642781398;-0.140330471521;0.0;0.0;0.0;-0.00322050469931;0.999994814161;0.120355567853;0.000961939133359;0.0;0.0;0.0;0.0;0.000961939133358;0.00183290196097;0.0;0.0;0.0;0.0;0.0;0.0;0.0;0.0;0.0;0.0;0.0;0.0;0.0;0.0;0.0;0.0;0.0;0.0;0.0;0.0;0.0;0.0;0.0;0.0;0.0;0.0;0.0;0.000196596396749
290834000000;110;290834000000;map;27.8052497459;-0.142198622371;0.0;0.0;0.0;-0.00322449978877;0.999994801287;0.11712454566;0.00113428014701;0.0;0.0;0.0;0.0;0.00113428014701;0.00180664061556;0.0;0.0;0.0;0.0;0.0;0.0;0.0;0.0;0.0;0.0;0.0;0.0;0.0;0.0;0.0;0.0;0.0;0.0;0.0;0.0;0.0;0.0;0.0;0.0;0.0;0.0;0.0;0.000190762645098
291351000000;111;291351000000;map;28.0564230579;-0.14347456472;0.0;0.0;0.0;-0.00326715477001;0.999994662836;0.12032248563;0.00104723823502;0.0;0.0;0.0;0.0;0.00104723823502;0.00182619824571;0.0;0.0;0.0;0.0;0.0;0.0;0.0;0.0;0.0;0.0;0.0;0.0;0.0;0.0;0.0;0.0;0.0;0.0;0.0;0.0;0.0;0.0;0.0;0.0;0.0;0.0;0.0;0.00019344180727
291870000000;112;291870000000;map;28.325949792;-0.146124049319;0.0;0.0;0.0;-0.00334223748573;0.999994414709;0.120391613527;0.00104046758354;0.0;0.0;0.0;0.0;0.00104046758354;0.00182124925479;0.0;0.0;0.0;0.0;0.0;0.0;0.0;0.0;0.0;0.0;0.0;0.0;0.0;0.0;0.0;0.0;0.0;0.0;0.0;0.0;0.0;0.0;0.0;0.0;0.0;0.0;0.0;0.000193322046714
292376000000;113;292376000000;map;28.589294709;-0.147275628364;0.0;0.0;0.0;-0.00335436941571;0.999994374087;0.120615468843;0.000781189832872;0.0;0.0;0.0;0.0;0.000781189832872;0.0017964164127;0.0;0.0;0.0;0.0;0.0;0.0;0.0;0.0;0.0;0.0;0.0;0.0;0.0;0.0;0.0;0.0;0.0;0.0;0.0;0.0;0.0;0.0;0.0;0.0;0.0;0.0;0.0;0.000194944076466
292886000000;114;292886000000;map;28.8478757011;-0.149115331945;0.0;0.0;0.0;-0.00344810689892;0.999994055262;0.122654999933;0.000860664851253;0.0;0.0;0.0;0.0;0.000860664851253;0.0017784147583;0.0;0.0;0.0;0.0;0.0;0.0;0.0;0.0;0.0;0.0;0.0;0.0;0.0;0.0;0.0;0.0;0.0;0.0;0.0;0.0;0.0;0.0;0.0;0.0;0.0;0.0;0.0;0.000192230740697
293398000000;115;293398000000;map;29.0944632794;-0.150180934521;0.0;0.0;0.0;-0.00345368051192;0.999994036028;0.123645933491;0.000600066665664;0.0;0.0;0.0;0.0;0.000600066665664;0.00180504955065;0.0;0.0;0.0;0.0;0.0;0.0;0.0;0.0;0.0;0.0;0.0;0.0;0.0;0.0;0.0;0.0;0.0;0.0;0.0;0.0;0.0;0.0;0.0;0.0;0.0;0.0;0.0;0.000191830570085
293918000000;116;293918000000;map;29.3527530352;-0.152684275806;0.0;0.0;0.0;-0.00350324999774;0.999993863601;0.12678119865;0.000329934171391;0.0;0.0;0.0;0.0;0.000329934171391;0.0018605161188;0.0;0.0;0.0;0.0;0.0;0.0;0.0;0.0;0.0;0.0;0.0;0.0;0.0;0.0;0.0;0.0;0.0;0.0;0.0;0.0;0.0;0.0;0.0;0.0;0.0;0.0;0.0;0.000188285112217
294420000000;117;294420000000;map;29.5984403498;-0.154770319125;0.0;0.0;0.0;-0.00358443884786;0.999993575878;0.125381958241;0.00041382614425;0.0;0.0;0.0;0.0;0.00041382614425;0.00187657061425;0.0;0.0;0.0;0.0;0.0;0.0;0.0;0.0;0.0;0.0;0.0;0.0;0.0;0.0;0.0;0.0;0.0;0.0;0.0;0.0;0.0;0.0;0.0;0.0;0.0;0.0;0.0;0.000185891358139
294940000000;118;294940000000;map;29.8603816636;-0.158436450608;0.0;0.0;0.0;-0.00372841244475;0.999993049446;0.126450828665;0.000382121069456;0.0;0.0;0.0;0.0;0.000382121069456;0.00192664684615;0.0;0.0;0.0;0.0;0.0;0.0;0.0;0.0;0.0;0.0;0.0;0.0;0.0;0.0;0.0;0.0;0.0;0.0;0.0;0.0;0.0;0.0;0.0;0.0;0.0;0.0;0.0;0.000195846848922
295441000000;119;295441000000;map;30.1152668199;-0.161364706946;0.0;0.0;0.0;-0.00377363504536;0.999992879814;0.127054519513;0.000357895597221;0.0;0.0;0.0;0.0;0.000357895597221;0.00194980400516;0.0;0.0;0.0;0.0;0.0;0.0;0.0;0.0;0.0;0.0;0.0;0.0;0.0;0.0;0.0;0.0;0.0;0.0;0.0;0.0;0.0;0.0;0.0;0.0;0.0;0.0;0.0;0.000196743888442
295943000000;120;295943000000;map;30.3644948338;-0.163857179627;0.0;0.0;0.0;-0.0038460608041;0.999992603881;0.126081976667;0.000548367625341;0.0;0.0;0.0;0.0;0.000548367625341;0.00194372615777;0.0;0.0;0.0;0.0;0.0;0.0;0.0;0.0;0.0;0.0;0.0;0.0;0.0;0.0;0.0;0.0;0.0;0.0;0.0;0.0;0.0;0.0;0.0;0.0;0.0;0.0;0.0;0.000198960164804
296452000000;121;296452000000;map;30.6203661954;-0.166515201155;0.0;0.0;0.0;-0.0037478782997;0.999992976679;0.125369155662;0.000593413747676;0.0;0.0;0.0;0.0;0.000593413747676;0.0019408522982;0.0;0.0;0.0;0.0;0.0;0.0;0.0;0.0;0.0;0.0;0.0;0.0;0.0;0.0;0.0;0.0;0.0;0.0;0.0;0.0;0.0;0.0;0.0;0.0;0.0;0.0;0.0;0.000198675365126
296959000000;122;296959000000;map;30.8710804686;-0.168202268356;0.0;0.0;0.0;-0.00365586627933;0.999993317299;0.131000595931;0.000741592620119;0.0;0.0;0.0;0.0;0.000741592620119;0.0019574559801;0.0;0.0;0.0;0.0;0.0;0.0;0.0;0.0;0.0;0.0;0.0;0.0;0.0;0.0;0.0;0.0;0.0;0.0;0.0;0.0;0.0;0.0;0.0;0.0;0.0;0.0;0.0;0.000198023190967
297461000000;123;297461000000;map;31.1266963429;-0.169948135438;0.0;0.0;0.0;-0.00356227094742;0.999993655093;0.131555484983;0.000777122706097;0.0;0.0;0.0;0.0;0.000777122706097;0.00204066879356;0.0;0.0;0.0;0.0;0.0;0.0;0.0;0.0;0.0;0.0;0.0;0.0;0.0;0.0;0.0;0.0;0.0;0.0;0.0;0.0;0.0;0.0;0.0;0.0;0.0;0.0;0.0;0.000202613464013
297964000000;124;297964000000;map;31.3791962773;-0.170777964769;0.0;0.0;0.0;-0.00334529431545;0.999994404487;0.135774945096;0.000762597025261;0.0;0.0;0.0;0.0;0.00076259702526;0.00200798031686;0.0;0.0;0.0;0.0;0.0;0.0;0.0;0.0;0.0;0.0;0.0;0.0;0.0;0.0;0.0;0.0;0.0;0.0;0.0;0.0;0.0;0.0;0.0;0.0;0.0;0.0;0.0;0.000209317041959
298474000000;125;298474000000;map;31.6289687839;-0.172507957916;0.0;0.0;0.0;-0.00332962141511;0.999994456795;0.136200874811;0.00114520321142;0.0;0.0;0.0;0.0;0.00114520321142;0.00206987450827;0.0;0.0;0.0;0.0;0.0;0.0;0.0;0.0;0.0;0.0;0.0;0.0;0.0;0.0;0.0;0.0;0.0;0.0;0.0;0.0;0.0;0.0;0.0;0.0;0.0;0.0;0.0;0.00020578352424
298980000000;126;298980000000;map;31.8868354902;-0.173669479761;0.0;0.0;0.0;-0.00316742822665;0.999994983687;0.141828593833;0.00138733748653;0.0;0.0;0.0;0.0;0.00138733748653;0.00208430389403;0.0;0.0;0.0;0.0;0.0;0.0;0.0;0.0;0.0;0.0;0.0;0.0;0.0;0.0;0.0;0.0;0.0;0.0;0.0;0.0;0.0;0.0;0.0;0.0;0.0;0.0;0.0;0.000201450824659
299499000000;127;299499000000;map;32.1518851271;-0.174930908005;0.0;0.0;0.0;-0.0032482204601;0.999994724518;0.142276154245;0.00124815908519;0.0;0.0;0.0;0.0;0.00124815908519;0.00203789777182;0.0;0.0;0.0;0.0;0.0;0.0;0.0;0.0;0.0;0.0;0.0;0.0;0.0;0.0;0.0;0.0;0.0;0.0;0.0;0.0;0.0;0.0;0.0;0.0;0.0;0.0;0.0;0.000196706324873
300000000000;128;300000000000;map;32.3957977744;-0.177173897659;0.0;0.0;0.0;-0.00329867427894;0.999994559359;0.139401674377;0.00136436052462;0.0;0.0;0.0;0.0;0.00136436052462;0.00199392776956;0.0;0.0;0.0;0.0;0.0;0.0;0.0;0.0;0.0;0.0;0.0;0.0;0.0;0.0;0.0;0.0;0.0;0.0;0.0;0.0;0.0;0.0;0.0;0.0;0.0;0.0;0.0;0.00018770350764
300502000000;129;300502000000;map;32.6510597881;-0.178513297565;0.0;0.0;0.0;-0.00321252581955;0.999994839826;0.130079003251;0.00142466229173;0.0;0.0;0.0;0.0;0.00142466229173;0.0019804456101;0.0;0.0;0.0;0.0;0.0;0.0;0.0;0.0;0.0;0.0;0.0;0.0;0.0;0.0;0.0;0.0;0.0;0.0;0.0;0.0;0.0;0.0;0.0;0.0;0.0;0.0;0.0;0.00018544580263
301006000000;130;301006000000;map;32.8970342301;-0.179867763345;0.0;0.0;0.0;-0.00316355491066;0.999994995948;0.134730184945;0.0012857989288;0.0;0.0;0.0;0.0;0.0012857989288;0.00192642981192;0.0;0.0;0.0;0.0;0.0;0.0;0.0;0.0;0.0;0.0;0.0;0.0;0.0;0.0;0.0;0.0;0.0;0.0;0.0;0.0;0.0;0.0;0.0;0.0;0.0;0.0;0.0;0.000185918766523
301515000000;131;301515000000;map;33.1495866969;-0.18277960084;0.0;0.0;0.0;-0.00318338339244;0.999994933022;0.138085003316;0.00149648958511;0.0;0.0;0.0;0.0;0.00149648958511;0.00193192328153;0.0;0.0;0.0;0.0;0.0;0.0;0.0;0.0;0.0;0.0;0.0;0.0;0.0;0.0;0.0;0.0;0.0;0.0;0.0;0.0;0.0;0.0;0.0;0.0;0.0;0.0;0.0;0.000190388563436
302018000000;132;302018000000;map;33.4106067792;-0.184527086199;0.0;0.0;0.0;-0.00321915113045;0.99999481852;0.131034654285;0.00150935728748;0.0;0.0;0.0;0.0;0.00150935728748;0.00190940044791;0.0;0.0;0.0;0.0;0.0;0.0;0.0;0.0;0.0;0.0;0.0;0.0;0.0;0.0;0.0;0.0;0.0;0.0;0.0;0.0;0.0;0.0;0.0;0.0;0.0;0.0;0.0;0.000182198567069
302529000000;133;302529000000;map;33.6690455328;-0.186065174225;0.0;0.0;0.0;-0.00313394352722;0.999995089187;0.124396726848;0.00162875725637;0.0;0.0;0.0;0.0;0.00162875725637;0.001877482593;0.0;0.0;0.0;0.0;0.0;0.0;0.0;0.0;0.0;0.0;0.0;0.0;0.0;0.0;0.0;0.0;0.0;0.0;0.0;0.0;0.0;0.0;0.0;0.0;0.0;0.0;0.0;0.000185183538053
303031000000;134;303031000000;map;33.9197956687;-0.189237080205;0.0;0.0;0.0;-0.00340004505477;0.99999421983;0.121571552381;0.00146476255028;0.0;0.0;0.0;0.0;0.00146476255028;0.00187572372068;0.0;0.0;0.0;0.0;0.0;0.0;0.0;0.0;0.0;0.0;0.0;0.0;0.0;0.0;0.0;0.0;0.0;0.0;0.0;0.0;0.0;0.0;0.0;0.0;0.0;0.0;0.0;0.000179557037924
303533000000;135;303533000000;map;34.1680562029;-0.190819469254;0.0;0.0;0.0;-0.00321913546733;0.99999481857;0.121156543788;0.00155378575627;0.0;0.0;0.0;0.0;0.00155378575627;0.00184450914158;0.0;0.0;0.0;0.0;0.0;0.0;0.0;0.0;0.0;0.0;0.0;0.0;0.0;0.0;0.0;0.0;0.0;0.0;0.0;0.0;0.0;0.0;0.0;0.0;0.0;0.0;0.0;0.000180689633332
304033000000;136;304033000000;map;34.4281151154;-0.191852284503;0.0;0.0;0.0;-0.00313624286409;0.999995081978;0.117759822666;0.0017962343589;0.0;0.0;0.0;0.0;0.0017962343589;0.00185662175281;0.0;0.0;0.0;0.0;0.0;0.0;0.0;0.0;0.0;0.0;0.0;0.0;0.0;0.0;0.0;0.0;0.0;0.0;0.0;0.0;0.0;0.0;0.0;0.0;0.0;0.0;0.0;0.000184911683476
304537000000;137;304537000000;map;34.6747557872;-0.193638355395;0.0;0.0;0.0;-0.0031715229168;0.999994970709;0.124423468091;0.00175783229421;0.0;0.0;0.0;0.0;0.00175783229421;0.00185773197119;0.0;0.0;0.0;0.0;0.0;0.0;0.0;0.0;0.0;0.0;0.0;0.0;0.0;0.0;0.0;0.0;0.0;0.0;0.0;0.0;0.0;0.0;0.0;0.0;0.0;0.0;0.0;0.000186069965374
305043000000;138;305043000000;map;34.9182586371;-0.19650018129;0.0;0.0;0.0;-0.00331443758271;0.999994507237;0.125742693686;0.00208680545366;0.0;0.0;0.0;0.0;0.00208680545366;0.00185302496109;0.0;0.0;0.0;0.0;0.0;0.0;0.0;0.0;0.0;0.0;0.0;0.0;0.0;0.0;0.0;0.0;0.0;0.0;0.0;0.0;0.0;0.0;0.0;0.0;0.0;0.0;0.0;0.000188667150134
305545000000;139;305545000000;map;35.1745212513;-0.198216568191;0.0;0.0;0.0;-0.00336336553616;0.99999434387;0.12507704476;0.00160584984559;0.0;0.0;0.0;0.0;0.00160584984559;0.00189542989333;0.0;0.0;0.0;0.0;0.0;0.0;0.0;0.0;0.0;0.0;0.0;0.0;0.0;0.0;0.0;0.0;0.0;0.0;0.0;0.0;0.0;0.0;0.0;0.0;0.0;0.0;0.0;0.000188629262879
306048000000;140;306048000000;map;35.4243167116;-0.200359312443;0.0;0.0;0.0;-0.00338176686419;0.99999428181;0.126762612939;0.00126921794274;0.0;0.0;0.0;0.0;0.00126921794274;0.00188141923441;0.0;0.0;0.0;0.0;0.0;0.0;0.0;0.0;0.0;0.0;0.0;0.0;0.0;0.0;0.0;0.0;0.0;0.0;0.0;0.0;0.0;0.0;0.0;0.0;0.0;0.0;0.0;0.000189717832374
306549000000;141;306549000000;map;35.6725827201;-0.202134072936;0.0;0.0;0.0;-0.00327965260133;0.999994621925;0.122064468706;0.000897547522165;0.0;0.0;0.0;0.0;0.000897547522165;0.00188893038737;0.0;0.0;0.0;0.0;0.0;0.0;0.0;0.0;0.0;0.0;0.0;0.0;0.0;0.0;0.0;0.0;0.0;0.0;0.0;0.0;0.0;0.0;0.0;0.0;0.0;0.0;0.0;0.000192478154781
307055000000;142;307055000000;map;35.9234102483;-0.205390433482;0.0;0.0;0.0;-0.00333977942643;0.999994422921;0.121695081944;0.00101902785586;0.0;0.0;0.0;0.0;0.00101902785586;0.00185938519603;0.0;0.0;0.0;0.0;0.0;0.0;0.0;0.0;0.0;0.0;0.0;0.0;0.0;0.0;0.0;0.0;0.0;0.0;0.0;0.0;0.0;0.0;0.0;0.0;0.0;0.0;0.0;0.000192852464754
307556000000;143;307556000000;map;36.1696323678;-0.20826210348;0.0;0.0;0.0;-0.00333993831036;0.99999442239;0.121107879046;0.000944465747011;0.0;0.0;0.0;0.0;0.000944465747011;0.00184872242064;0.0;0.0;0.0;0.0;0.0;0.0;0.0;0.0;0.0;0.0;0.0;0.0;0.0;0.0;0.0;0.0;0.0;0.0;0.0;0.0;0.0;0.0;0.0;0.0;0.0;0.0;0.0;0.000195822680387
308056000000;144;308056000000;map;36.4123389408;-0.211673569989;0.0;0.0;0.0;-0.00342113878986;0.999994147888;0.123664509241;0.000700186834873;0.0;0.0;0.0;0.0;0.000700186834873;0.00190532096627;0.0;0.0;0.0;0.0;0.0;0.0;0.0;0.0;0.0;0.0;0.0;0.0;0.0;0.0;0.0;0.0;0.0;0.0;0.0;0.0;0.0;0.0;0.0;0.0;0.0;0.0;0.0;0.000194778493903
308564000000;145;308564000000;map;36.6640989578;-0.214197250816;0.0;0.0;0.0;-0.00349214260923;0.999993902451;0.124942692064;0.000549269419335;0.0;0.0;0.0;0.0;0.000549269419335;0.00188347614032;0.0;0.0;0.0;0.0;0.0;0.0;0.0;0.0;0.0;0.0;0.0;0.0;0.0;0.0;0.0;0.0;0.0;0.0;0.0;0.0;0.0;0.0;0.0;0.0;0.0;0.0;0.0;0.000188417154063
309073000000;146;309073000000;map;36.9164712211;-0.216820817193;0.0;0.0;0.0;-0.00358496352918;0.999993573998;0.126395841231;0.000395788890495;0.0;0.0;0.0;0.0;0.000395788890495;0.0018370677191;0.0;0.0;0.0;0.0;0.0;0.0;0.0;0.0;0.0;0.0;0.0;0.0;0.0;0.0;0.0;0.0;0.0;0.0;0.0;0.0;0.0;0.0;0.0;0.0;0.0;0.0;0.0;0.000189707789827
310040000000;147;310040000000;map;36.9688778567;-0.217075881163;0.0;0.0;0.0;0.0971464563207;0.995270097021;0.119399829784;0.000469507322554;0.0;0.0;0.0;0.0;0.000469507322554;0.00175785375029;0.0;0.0;0.0;0.0;0.0;0.0;0.0;0.0;0.0;0.0;0.0;0.0;0.0;0.0;0.0;0.0;0.0;0.0;0.0;0.0;0.0;0.0;0.0;0.0;0.0;0.0;0.0;0.000178875732891
310925000000;148;310925000000;map;36.9693579307;-0.217280342045;0.0;0.0;0.0;0.198405403591;0.980120041539;0.109971561101;0.00195601856731;0.0;0.0;0.0;0.0;0.00195601856731;0.00201206154681;0.0;0.0;0.0;0.0;0.0;0.0;0.0;0.0;0.0;0.0;0.0;0.0;0.0;0.0;0.0;0.0;0.0;0.0;0.0;0.0;0.0;0.0;0.0;0.0;0.0;0.0;0.0;0.000170279099829
311829000000;149;311829000000;map;36.9708385297;-0.217544842652;0.0;0.0;0.0;0.296889602493;0.954911809505;0.102591349853;0.00350058035245;0.0;0.0;0.0;0.0;0.00350058035245;0.00277753468163;0.0;0.0;0.0;0.0;0.0;0.0;0.0;0.0;0.0;0.0;0.0;0.0;0.0;0.0;0.0;0.0;0.0;0.0;0.0;0.0;0.0;0.0;0.0;0.0;0.0;0.0;0.0;0.000161493738843
312721000000;150;312721000000;map;36.9810532178;-0.217211368038;0.0;0.0;0.0;0.390724854261;0.920507516679;0.0883436997265;0.00505060377153;0.0;0.0;0.0;0.0;0.00505060377153;0.00430773861281;0.0;0.0;0.0;0.0;0.0;0.0;0.0;0.0;0.0;0.0;0.0;0.0;0.0;0.0;0.0;0.0;0.0;0.0;0.0;0.0;0.0;0.0;0.0;0.0;0.0;0.0;0.0;0.000147870259738
313619000000;151;313619000000;map;36.9897723051;-0.213801730009;0.0;0.0;0.0;0.481997501477;0.876172590629;0.0794856557486;0.00587332978169;0.0;0.0;0.0;0.0;0.00587332978169;0.00631356824825;0.0;0.0;0.0;0.0;0.0;0.0;0.0;0.0;0.0;0.0;0.0;0.0;0.0;0.0;0.0;0.0;0.0;0.0;0.0;0.0;0.0;0.0;0.0;0.0;0.0;0.0;0.0;0.000141995171157
314483000000;152;314483000000;map;37.0045906208;-0.211773888222;0.0;0.0;0.0;0.568699828493;0.822545138623;0.0683015159739;0.00557662839083;0.0;0.0;0.0;0.0;0.00557662839083;0.00824345201865;0.0;0.0;0.0;0.0;0.0;0.0;0.0;0.0;0.0;0.0;0.0;0.0;0.0;0.0;0.0;0.0;0.0;0.0;0.0;0.0;0.0;0.0;0.0;0.0;0.0;0.0;0.0;0.000137503282924
315346000000;153;315346000000;map;37.0186302228;-0.204483537593;0.0;0.0;0.0;0.649466704698;0.76039003116;0.057582353259;0.00500019147857;0.0;0.0;0.0;0.0;0.00500019147857;0.0108027636701;0.0;0.0;0.0;0.0;0.0;0.0;0.0;0.0;0.0;0.0;0.0;0.0;0.0;0.0;0.0;0.0;0.0;0.0;0.0;0.0;0.0;0.0;0.0;0.0;0.0;0.0;0.0;0.000130701518605
316210000000;154;316210000000;map;37.0356652339;-0.193531927484;0.0;0.0;0.0;0.723582306885;0.690238107585;0.0451812344493;0.00391263061929;0.0;0.0;0.0;0.0;0.00391263061929;0.0130262046979;0.0;0.0;0.0;0.0;0.0;0.0;0.0;0.0;0.0;0.0;0.0;0.0;0.0;0.0;0.0;0.0;0.0;0.0;0.0;0.0;0.0;0.0;0.0;0.0;0.0;0.0;0.0;0.000125907343273
317157000000;155;317157000000;map;37.0329265944;0.0799293278356;0.0;0.0;0.0;0.731679637305;0.681648669296;0.0366359730244;0.0016186261237;0.0;0.0;0.0;0.0;0.0016186261237;0.0190472965951;0.0;0.0;0.0;0.0;0.0;0.0;0.0;0.0;0.0;0.0;0.0;0.0;0.0;0.0;0.0;0.0;0.0;0.0;0.0;0.0;0.0;0.0;0.0;0.0;0.0;0.0;0.0;0.000145572536863
317666000000;156;317666000000;map;37.0231330406;0.341030576159;0.0;0.0;0.0;0.731730683641;0.681593872199;0.0323789740269;0.000625049055602;0.0;0.0;0.0;0.0;0.0006250490556;0.0225158108697;0.0;0.0;0.0;0.0;0.0;0.0;0.0;0.0;0.0;0.0;0.0;0.0;0.0;0.0;0.0;0.0;0.0;0.0;0.0;0.0;0.0;0.0;0.0;0.0;0.0;0.0;0.0;0.00016243636623
318168000000;157;318168000000;map;37.0124314146;0.59470539746;0.0;0.0;0.0;0.731772648117;0.68154881811;0.030738270817;-0.000323735782455;0.0;0.0;0.0;0.0;-0.000323735782455;0.0253089874553;0.0;0.0;0.0;0.0;0.0;0.0;0.0;0.0;0.0;0.0;0.0;0.0;0.0;0.0;0.0;0.0;0.0;0.0;0.0;0.0;0.0;0.0;0.0;0.0;0.0;0.0;0.0;0.000179975841869
318674000000;158;318674000000;map;37.0056440513;0.854400378134;0.0;0.0;0.0;0.731756229055;0.681566446679;0.0243991822922;-0.00144300783417;0.0;0.0;0.0;0.0;-0.00144300783417;0.0263900965239;0.0;0.0;0.0;0.0;0.0;0.0;0.0;0.0;0.0;0.0;0.0;0.0;0.0;0.0;0.0;0.0;0.0;0.0;0.0;0.0;0.0;0.0;0.0;0.0;0.0;0.0;0.0;0.00018270617916
319177000000;159;319177000000;map;36.9972840988;1.10408396423;0.0;0.0;0.0;0.731832740991;0.681484291245;0.0201217460926;-0.0010219280048;0.0;0.0;0.0;0.0;-0.0010219280048;0.0281229205654;0.0;0.0;0.0;0.0;0.0;0.0;0.0;0.0;0.0;0.0;0.0;0.0;0.0;0.0;0.0;0.0;0.0;0.0;0.0;0.0;0.0;0.0;0.0;0.0;0.0;0.0;0.0;0.000184047764135
319680000000;160;319680000000;map;36.9853145202;1.34970312385;0.0;0.0;0.0;0.731759866533;0.68156254132;0.0171406167808;-0.00164698153721;0.0;0.0;0.0;0.0;-0.00164698153721;0.0297205260348;0.0;0.0;0.0;0.0;0.0;0.0;0.0;0.0;0.0;0.0;0.0;0.0;0.0;0.0;0.0;0.0;0.0;0.0;0.0;0.0;0.0;0.0;0.0;0.0;0.0;0.0;0.0;0.000187993050783
320184000000;161;320184000000;map;36.973136681;1.60300101747;0.0;0.0;0.0;0.731647185774;0.68168350101;0.0143433490339;-0.00188114362384;0.0;0.0;0.0;0.0;-0.00188114362384;0.0311803566149;0.0;0.0;0.0;0.0;0.0;0.0;0.0;0.0;0.0;0.0;0.0;0.0;0.0;0.0;0.0;0.0;0.0;0.0;0.0;0.0;0.0;0.0;0.0;0.0;0.0;0.0;0.0;0.000201448678502
320687000000;162;320687000000;map;36.9601818658;1.85823081696;0.0;0.0;0.0;0.731557910749;0.681779306829;0.011429546782;-0.00158268482232;0.0;0.0;0.0;0.0;-0.00158268482232;0.0319517063698;0.0;0.0;0.0;0.0;0.0;0.0;0.0;0.0;0.0;0.0;0.0;0.0;0.0;0.0;0.0;0.0;0.0;0.0;0.0;0.0;0.0;0.0;0.0;0.0;0.0;0.0;0.0;0.000193531519307
322655000000;163;322655000000;map;36.9564650778;2.11210067161;0.0;0.0;0.0;0.69937621411;0.714753741605;0.010041951939;-0.0010316338996;0.0;0.0;0.0;0.0;-0.0010316338996;0.0342238975378;0.0;0.0;0.0;0.0;0.0;0.0;0.0;0.0;0.0;0.0;0.0;0.0;0.0;0.0;0.0;0.0;0.0;0.0;0.0;0.0;0.0;0.0;0.0;0.0;0.0;0.0;0.0;0.000197753172417
323163000000;164;323163000000;map;36.9638714635;2.36938568755;0.0;0.0;0.0;0.699441448697;0.714689904676;0.00891056851924;-0.000579699582971;0.0;0.0;0.0;0.0;-0.000579699582957;0.0331513594724;0.0;0.0;0.0;0.0;0.0;0.0;0.0;0.0;0.0;0.0;0.0;0.0;0.0;0.0;0.0;0.0;0.0;0.0;0.0;0.0;0.0;0.0;0.0;0.0;0.0;0.0;0.0;0.000202268599757
323682000000;165;323682000000;map;36.9725467481;2.63120359296;0.0;0.0;0.0;0.699419233661;0.714711645061;0.00772725751949;-0.000150970383615;0.0;0.0;0.0;0.0;-0.000150970383601;0.0340716778829;0.0;0.0;0.0;0.0;0.0;0.0;0.0;0.0;0.0;0.0;0.0;0.0;0.0;0.0;0.0;0.0;0.0;0.0;0.0;0.0;0.0;0.0;0.0;0.0;0.0;0.0;0.0;0.0002148817495
324185000000;166;324185000000;map;36.9803791923;2.88082802383;0.0;0.0;0.0;0.69940566128;0.714724926786;0.00672895793286;0.000119754449614;0.0;0.0;0.0;0.0;0.000119754449614;0.0336344572546;0.0;0.0;0.0;0.0;0.0;0.0;0.0;0.0;0.0;0.0;0.0;0.0;0.0;0.0;0.0;0.0;0.0;0.0;0.0;0.0;0.0;0.0;0.0;0.0;0.0;0.0;0.0;0.000222567309894
324687000000;167;324687000000;map;36.9873536975;3.13411296571;0.0;0.0;0.0;0.699387238227;0.714742954499;0.00593187589539;0.000701834376414;0.0;0.0;0.0;0.0;0.000701834376414;0.0331093659283;0.0;0.0;0.0;0.0;0.0;0.0;0.0;0.0;0.0;0.0;0.0;0.0;0.0;0.0;0.0;0.0;0.0;0.0;0.0;0.0;0.0;0.0;0.0;0.0;0.0;0.0;0.0;0.000221142055649
325208000000;168;325208000000;map;36.9930494601;3.38982026333;0.0;0.0;0.0;0.699350422464;0.714778977447;0.00564832040754;0.000541815199611;0.0;0.0;0.0;0.0;0.000541815199611;0.0344951803028;0.0;0.0;0.0;0.0;0.0;0.0;0.0;0.0;0.0;0.0;0.0;0.0;0.0;0.0;0.0;0.0;0.0;0.0;0.0;0.0;0.0;0.0;0.0;0.0;0.0;0.0;0.0;0.000220723712559
325727000000;169;325727000000;map;36.9987882331;3.64713262851;0.0;0.0;0.0;0.699416754122;0.714714071537;0.00524229730036;0.000427282253753;0.0;0.0;0.0;0.0;0.000427282253753;0.0348727842941;0.0;0.0;0.0;0.0;0.0;0.0;0.0;0.0;0.0;0.0;0.0;0.0;0.0;0.0;0.0;0.0;0.0;0.0;0.0;0.0;0.0;0.0;0.0;0.0;0.0;0.0;0.0;0.000223767426407
326229000000;170;326229000000;map;37.0041662903;3.9033652374;0.0;0.0;0.0;0.699448670327;0.714682837053;0.00477058553361;0.000533656547077;0.0;0.0;0.0;0.0;0.000533656547077;0.0332223158856;0.0;0.0;0.0;0.0;0.0;0.0;0.0;0.0;0.0;0.0;0.0;0.0;0.0;0.0;0.0;0.0;0.0;0.0;0.0;0.0;0.0;0.0;0.0;0.0;0.0;0.0;0.0;0.000236739698775
326738000000;171;326738000000;map;37.0077149828;4.15274863008;0.0;0.0;0.0;0.699442267414;0.714689103425;0.00458323827525;0.000641076553933;0.0;0.0;0.0;0.0;0.000641076553933;0.033244926014;0.0;0.0;0.0;0.0;0.0;0.0;0.0;0.0;0.0;0.0;0.0;0.0;0.0;0.0;0.0;0.0;0.0;0.0;0.0;0.0;0.0;0.0;0.0;0.0;0.0;0.0;0.0;0.000233981415372
327258000000;172;327258000000;map;37.0142881538;4.42137330098;0.0;0.0;0.0;0.699424211748;0.714706773453;0.00442037737935;0.000555292084329;0.0;0.0;0.0;0.0;0.000555292084329;0.0336121771883;0.0;0.0;0.0;0.0;0.0;0.0;0.0;0.0;0.0;0.0;0.0;0.0;0.0;0.0;0.0;0.0;0.0;0.0;0.0;0.0;0.0;0.0;0.0;0.0;0.0;0.0;0.0;0.000231046294685
327763000000;173;327763000000;map;37.0200771403;4.67084143687;0.0;0.0;0.0;0.699459460216;0.714672277001;0.00417413928244;0.000864443938326;0.0;0.0;0.0;0.0;0.000864443938326;0.0331055734381;0.0;0.0;0.0;0.0;0.0;0.0;0.0;0.0;0.0;0.0;0.0;0.0;0.0;0.0;0.0;0.0;0.0;0.0;0.0;0.0;0.0;0.0;0.0;0.0;0.0;0.0;0.0;0.000232573521059
328282000000;174;328282000000;map;37.0255709239;4.92925095827;0.0;0.0;0.0;0.699580383479;0.71455390773;0.00406156053918;0.000373098591751;0.0;0.0;0.0;0.0;0.000373098591751;0.0338130417237;0.0;0.0;0.0;0.0;0.0;0.0;0.0;0.0;0.0;0.0;0.0;0.0;0.0;0.0;0.0;0.0;0.0;0.0;0.0;0.0;0.0;0.0;0.0;0.0;0.0;0.0;0.0;0.0002366010026
328787000000;175;328787000000;map;37.0304431422;5.18348245576;0.0;0.0;0.0;0.699658268171;0.714477646802;0.00381576892642;0.000258331395827;0.0;0.0;0.0;0.0;0.000258331395827;0.033467326961;0.0;0.0;0.0;0.0;0.0;0.0;0.0;0.0;0.0;0.0;0.0;0.0;0.0;0.0;0.0;0.0;0.0;0.0;0.0;0.0;0.0;0.0;0.0;0.0;0.0;0.0;0.0;0.00023779517059
329288000000;176;329288000000;map;37.0356700999;5.43382124868;0.0;0.0;0.0;0.699624643193;0.714510572796;0.00378432395178;0.00057335843735;0.0;0.0;0.0;0.0;0.00057335843735;0.0352934871176;0.0;0.0;0.0;0.0;0.0;0.0;0.0;0.0;0.0;0.0;0.0;0.0;0.0;0.0;0.0;0.0;0.0;0.0;0.0;0.0;0.0;0.0;0.0;0.0;0.0;0.0;0.0;0.000244143693055
329789000000;177;329789000000;map;37.0418528285;5.6858987825;0.0;0.0;0.0;0.699471862116;0.714660138882;0.00382435353231;0.000467686624944;0.0;0.0;0.0;0.0;0.000467686624916;0.0368581485429;0.0;0.0;0.0;0.0;0.0;0.0;0.0;0.0;0.0;0.0;0.0;0.0;0.0;0.0;0.0;0.0;0.0;0.0;0.0;0.0;0.0;0.0;0.0;0.0;0.0;0.0;0.0;0.000251218302603
330294000000;178;330294000000;map;37.04819453;5.93635819966;0.0;0.0;0.0;0.6994953714;0.714637128471;0.00378663202832;0.000521848742778;0.0;0.0;0.0;0.0;0.000521848742778;0.0372957661603;0.0;0.0;0.0;0.0;0.0;0.0;0.0;0.0;0.0;0.0;0.0;0.0;0.0;0.0;0.0;0.0;0.0;0.0;0.0;0.0;0.0;0.0;0.0;0.0;0.0;0.0;0.0;0.000256824469347
330815000000;179;330815000000;map;37.0531934802;6.19684952241;0.0;0.0;0.0;0.699543734762;0.714589786629;0.00358893688986;0.000215650917795;0.0;0.0;0.0;0.0;0.000215650917823;0.0414613321133;0.0;0.0;0.0;0.0;0.0;0.0;0.0;0.0;0.0;0.0;0.0;0.0;0.0;0.0;0.0;0.0;0.0;0.0;0.0;0.0;0.0;0.0;0.0;0.0;0.0;0.0;0.0;0.000259964192023
331319000000;180;331319000000;map;37.0593337374;6.44868690365;0.0;0.0;0.0;0.699377100879;0.714752873913;0.00355138305986;0.000302818449626;0.0;0.0;0.0;0.0;0.000302818449626;0.0453584419915;0.0;0.0;0.0;0.0;0.0;0.0;0.0;0.0;0.0;0.0;0.0;0.0;0.0;0.0;0.0;0.0;0.0;0.0;0.0;0.0;0.0;0.0;0.0;0.0;0.0;0.0;0.0;0.000271721321049
331838000000;181;331838000000;map;37.0657280923;6.70313718812;0.0;0.0;0.0;0.699323291097;0.714805522173;0.00347121865684;0.000224541508231;0.0;0.0;0.0;0.0;0.000224541508231;0.0500642323985;0.0;0.0;0.0;0.0;0.0;0.0;0.0;0.0;0.0;0.0;0.0;0.0;0.0;0.0;0.0;0.0;0.0;0.0;0.0;0.0;0.0;0.0;0.0;0.0;0.0;0.0;0.0;0.000270649724313
332339000000;182;332339000000;map;37.0736718559;6.95435130243;0.0;0.0;0.0;0.699282533791;0.714845394428;0.00338189593754;0.000100841803032;0.0;0.0;0.0;0.0;0.000100841803032;0.0525333235289;0.0;0.0;0.0;0.0;0.0;0.0;0.0;0.0;0.0;0.0;0.0;0.0;0.0;0.0;0.0;0.0;0.0;0.0;0.0;0.0;0.0;0.0;0.0;0.0;0.0;0.0;0.0;0.000261730889716
332841000000;183;332841000000;map;37.0813065782;7.20418837367;0.0;0.0;0.0;0.699048103152;0.715074646089;0.00341311112379;0.000244032365231;0.0;0.0;0.0;0.0;0.000244032365174;0.0521467028857;0.0;0.0;0.0;0.0;0.0;0.0;0.0;0.0;0.0;0.0;0.0;0.0;0.0;0.0;0.0;0.0;0.0;0.0;0.0;0.0;0.0;0.0;0.0;0.0;0.0;0.0;0.0;0.000265805125062
333350000000;184;333350000000;map;37.0879688188;7.44906855576;0.0;0.0;0.0;0.699072180374;0.715051107703;0.00330412123208;0.000224194332588;0.0;0.0;0.0;0.0;0.000224194332588;0.0533219027584;0.0;0.0;0.0;0.0;0.0;0.0;0.0;0.0;0.0;0.0;0.0;0.0;0.0;0.0;0.0;0.0;0.0;0.0;0.0;0.0;0.0;0.0;0.0;0.0;0.0;0.0;0.0;0.000270694484288
333851000000;185;333851000000;map;37.0950934239;7.69996410098;0.0;0.0;0.0;0.699009016403;0.715112854721;0.0032040592132;0.000394177218084;0.0;0.0;0.0;0.0;0.000394177218084;0.05332020297;0.0;0.0;0.0;0.0;0.0;0.0;0.0;0.0;0.0;0.0;0.0;0.0;0.0;0.0;0.0;0.0;0.0;0.0;0.0;0.0;0.0;0.0;0.0;0.0;0.0;0.0;0.0;0.000265150822423
334352000000;186;334352000000;map;37.0994124032;7.94880443154;0.0;0.0;0.0;0.699103866171;0.715020128601;0.00314474147012;0.000512886252636;0.0;0.0;0.0;0.0;0.000512886252523;0.0531935355169;0.0;0.0;0.0;0.0;0.0;0.0;0.0;0.0;0.0;0.0;0.0;0.0;0.0;0.0;0.0;0.0;0.0;0.0;0.0;0.0;0.0;0.0;0.0;0.0;0.0;0.0;0.0;0.000257070264052
334857000000;187;334857000000;map;37.1038843177;8.20471048667;0.0;0.0;0.0;0.698965459337;0.715155428319;0.00318138673038;0.000810187969591;0.0;0.0;0.0;0.0;0.000810187969591;0.0500616574528;0.0;0.0;0.0;0.0;0.0;0.0;0.0;0.0;0.0;0.0;0.0;0.0;0.0;0.0;0.0;0.0;0.0;0.0;0.0;0.0;0.0;0.0;0.0;0.0;0.0;0.0;0.0;0.000248504375104
335361000000;188;335361000000;map;37.108493935;8.4539903086;0.0;0.0;0.0;0.698959510443;0.715161242491;0.00319342932698;0.000540854336407;0.0;0.0;0.0;0.0;0.000540854336407;0.0500785738991;0.0;0.0;0.0;0.0;0.0;0.0;0.0;0.0;0.0;0.0;0.0;0.0;0.0;0.0;0.0;0.0;0.0;0.0;0.0;0.0;0.0;0.0;0.0;0.0;0.0;0.0;0.0;0.000246226266075
335864000000;189;335864000000;map;37.1133918098;8.71062164534;0.0;0.0;0.0;0.699062122323;0.715060940853;0.00313150117199;0.000497393858836;0.0;0.0;0.0;0.0;0.000497393858836;0.0476695650197;0.0;0.0;0.0;0.0;0.0;0.0;0.0;0.0;0.0;0.0;0.0;0.0;0.0;0.0;0.0;0.0;0.0;0.0;0.0;0.0;0.0;0.0;0.0;0.0;0.0;0.0;0.0;0.000242083517106
336367000000;190;336367000000;map;37.1187567056;8.95649808806;0.0;0.0;0.0;0.699030874161;0.715091488531;0.00308754153411;0.000273942110482;0.0;0.0;0.0;0.0;0.000273942110425;0.0452337575534;0.0;0.0;0.0;0.0;0.0;0.0;0.0;0.0;0.0;0.0;0.0;0.0;0.0;0.0;0.0;0.0;0.0;0.0;0.0;0.0;0.0;0.0;0.0;0.0;0.0;0.0;0.0;0.000244224812012
336871000000;191;336871000000;map;37.1246715949;9.2050174966;0.0;0.0;0.0;0.698936317991;0.715183908791;0.00302377545586;0.000142077813223;0.0;0.0;0.0;0.0;0.000142077813223;0.0423018084777;0.0;0.0;0.0;0.0;0.0;0.0;0.0;0.0;0.0;0.0;0.0;0.0;0.0;0.0;0.0;0.0;0.0;0.0;0.0;0.0;0.0;0.0;0.0;0.0;0.0;0.0;0.0;0.000231468101386
337391000000;192;337391000000;map;37.1292264901;9.46798401697;0.0;0.0;0.0;0.69888435279;0.715234689752;0.0030656500719;7.77459983965e-05;0.0;0.0;0.0;0.0;7.77459983397e-05;0.0424568898943;0.0;0.0;0.0;0.0;0.0;0.0;0.0;0.0;0.0;0.0;0.0;0.0;0.0;0.0;0.0;0.0;0.0;0.0;0.0;0.0;0.0;0.0;0.0;0.0;0.0;0.0;0.0;0.000225987770917
337892000000;193;337892000000;map;37.1343817818;9.72161685612;0.0;0.0;0.0;0.698874045523;0.715244761249;0.00303651960098;0.000133009409524;0.0;0.0;0.0;0.0;0.000133009409581;0.0422147559688;0.0;0.0;0.0;0.0;0.0;0.0;0.0;0.0;0.0;0.0;0.0;0.0;0.0;0.0;0.0;0.0;0.0;0.0;0.0;0.0;0.0;0.0;0.0;0.0;0.0;0.0;0.0;0.000222365320921
338393000000;194;338393000000;map;37.1408184903;9.97198535062;0.0;0.0;0.0;0.698686966224;0.715427510813;0.00297477957565;0.000122438065091;0.0;0.0;0.0;0.0;0.000122438065091;0.0437615785736;0.0;0.0;0.0;0.0;0.0;0.0;0.0;0.0;0.0;0.0;0.0;0.0;0.0;0.0;0.0;0.0;0.0;0.0;0.0;0.0;0.0;0.0;0.0;0.0;0.0;0.0;0.0;0.00021091283714
338895000000;195;338895000000;map;37.1462902991;10.2201258751;0.0;0.0;0.0;0.69878482749;0.71533192636;0.00295264649208;0.000443833290944;0.0;0.0;0.0;0.0;0.000443833290944;0.0430637813323;0.0;0.0;0.0;0.0;0.0;0.0;0.0;0.0;0.0;0.0;0.0;0.0;0.0;0.0;0.0;0.0;0.0;0.0;0.0;0.0;0.0;0.0;0.0;0.0;0.0;0.0;0.0;0.000209013170508
339397000000;196;339397000000;map;37.1529995366;10.4758440457;0.0;0.0;0.0;0.698717177272;0.715398005438;0.00292142307489;0.000322204686142;0.0;0.0;0.0;0.0;0.000322204686142;0.0395907221208;0.0;0.0;0.0;0.0;0.0;0.0;0.0;0.0;0.0;0.0;0.0;0.0;0.0;0.0;0.0;0.0;0.0;0.0;0.0;0.0;0.0;0.0;0.0;0.0;0.0;0.0;0.0;0.000206943621691
339908000000;197;339908000000;map;37.1595287379;10.7305912273;0.0;0.0;0.0;0.698696172788;0.715418519561;0.00298064541744;0.000410809613868;0.0;0.0;0.0;0.0;0.000410809613868;0.039985792705;0.0;0.0;0.0;0.0;0.0;0.0;0.0;0.0;0.0;0.0;0.0;0.0;0.0;0.0;0.0;0.0;0.0;0.0;0.0;0.0;0.0;0.0;0.0;0.0;0.0;0.0;0.0;0.000207588030276
340411000000;198;340411000000;map;37.1650557859;10.987664453;0.0;0.0;0.0;0.698740558525;0.715375168616;0.00290327590392;0.000398271959909;0.0;0.0;0.0;0.0;0.000398271959909;0.0398276011086;0.0;0.0;0.0;0.0;0.0;0.0;0.0;0.0;0.0;0.0;0.0;0.0;0.0;0.0;0.0;0.0;0.0;0.0;0.0;0.0;0.0;0.0;0.0;0.0;0.0;0.0;0.0;0.000196773153891
340916000000;199;340916000000;map;37.1717490878;11.2395008936;0.0;0.0;0.0;0.698762975713;0.715353272008;0.00288108683662;0.000477346958007;0.0;0.0;0.0;0.0;0.000477346958007;0.040202298284;0.0;0.0;0.0;0.0;0.0;0.0;0.0;0.0;0.0;0.0;0.0;0.0;0.0;0.0;0.0;0.0;0.0;0.0;0.0;0.0;0.0;0.0;0.0;0.0;0.0;0.0;0.0;0.000188978363358
341418000000;200;341418000000;map;37.1780569915;11.488618307;0.0;0.0;0.0;0.698777091166;0.715339483645;0.00288931033424;0.00040688633834;0.0;0.0;0.0;0.0;0.00040688633834;0.0442090728575;0.0;0.0;0.0;0.0;0.0;0.0;0.0;0.0;0.0;0.0;0.0;0.0;0.0;0.0;0.0;0.0;0.0;0.0;0.0;0.0;0.0;0.0;0.0;0.0;0.0;0.0;0.0;0.000189849823062
341925000000;201;341925000000;map;37.1846600779;11.7397269738;0.0;0.0;0.0;0.698764765072;0.715351524143;0.00293088927947;6.88208828592e-05;0.0;0.0;0.0;0.0;6.88208828024e-05;0.0471768219147;0.0;0.0;0.0;0.0;0.0;0.0;0.0;0.0;0.0;0.0;0.0;0.0;0.0;0.0;0.0;0.0;0.0;0.0;0.0;0.0;0.0;0.0;0.0;0.0;0.0;0.0;0.0;0.000183782085174
342444000000;202;342444000000;map;37.1901507938;11.995885541;0.0;0.0;0.0;0.698941916817;0.715178437116;0.00293355995223;3.24112675685e-05;0.0;0.0;0.0;0.0;3.24112675685e-05;0.0462541959715;0.0;0.0;0.0;0.0;0.0;0.0;0.0;0.0;0.0;0.0;0.0;0.0;0.0;0.0;0.0;0.0;0.0;0.0;0.0;0.0;0.0;0.0;0.0;0.0;0.0;0.0;0.0;0.000183506510182
342945000000;203;342945000000;map;37.1960222781;12.2479297426;0.0;0.0;0.0;0.698979038103;0.715142156702;0.00278019567986;-7.35742827374e-05;0.0;0.0;0.0;0.0;-7.35742827942e-05;0.0447600359956;0.0;0.0;0.0;0.0;0.0;0.0;0.0;0.0;0.0;0.0;0.0;0.0;0.0;0.0;0.0;0.0;0.0;0.0;0.0;0.0;0.0;0.0;0.0;0.0;0.0;0.0;0.0;0.000176188423901
343447000000;204;343447000000;map;37.2015871255;12.4986848488;0.0;0.0;0.0;0.69903945384;0.715083101447;0.00283844044179;-8.80938204091e-05;0.0;0.0;0.0;0.0;-8.80938204091e-05;0.0438557545967;0.0;0.0;0.0;0.0;0.0;0.0;0.0;0.0;0.0;0.0;0.0;0.0;0.0;0.0;0.0;0.0;0.0;0.0;0.0;0.0;0.0;0.0;0.0;0.0;0.0;0.0;0.0;0.000165839645134
343950000000;205;343950000000;map;37.2062996035;12.7483163602;0.0;0.0;0.0;0.699159921038;0.714965317211;0.00282246630627;-0.000294153617574;0.0;0.0;0.0;0.0;-0.000294153617517;0.0443723328931;0.0;0.0;0.0;0.0;0.0;0.0;0.0;0.0;0.0;0.0;0.0;0.0;0.0;0.0;0.0;0.0;0.0;0.0;0.0;0.0;0.0;0.0;0.0;0.0;0.0;0.0;0.0;0.000168981831193
345787000000;206;345787000000;map;37.2097742868;12.898267144;0.0;0.0;0.0;0.767205317247;0.641401591196;0.0028817862476;1.10695106059e-06;0.0;0.0;0.0;0.0;1.10695106059e-06;0.0412434503034;0.0;0.0;0.0;0.0;0.0;0.0;0.0;0.0;0.0;0.0;0.0;0.0;0.0;0.0;0.0;0.0;0.0;0.0;0.0;0.0;0.0;0.0;0.0;0.0;0.0;0.0;0.0;0.000170679863019
346660000000;207;346660000000;map;37.2105975949;12.9069052722;0.0;0.0;0.0;0.827671599136;0.561212726142;0.00289970638437;-0.0010152326609;0.0;0.0;0.0;0.0;-0.0010152326609;0.0364484734206;0.0;0.0;0.0;0.0;0.0;0.0;0.0;0.0;0.0;0.0;0.0;0.0;0.0;0.0;0.0;0.0;0.0;0.0;0.0;0.0;0.0;0.0;0.0;0.0;0.0;0.0;0.0;0.000155766097282
347548000000;208;347548000000;map;37.210537071;12.9185504348;0.0;0.0;0.0;0.880237417861;0.474533548021;0.0035532911636;-0.0024934749236;0.0;0.0;0.0;0.0;-0.0024934749236;0.0301907185795;0.0;0.0;0.0;0.0;0.0;0.0;0.0;0.0;0.0;0.0;0.0;0.0;0.0;0.0;0.0;0.0;0.0;0.0;0.0;0.0;0.0;0.0;0.0;0.0;0.0;0.0;0.0;0.000138307281346
348470000000;209;348470000000;map;37.206709544;12.9391340218;0.0;0.0;0.0;0.924490358143;0.381205427167;0.00490349446841;-0.00418901957897;0.0;0.0;0.0;0.0;-0.00418901957897;0.0267347310817;0.0;0.0;0.0;0.0;0.0;0.0;0.0;0.0;0.0;0.0;0.0;0.0;0.0;0.0;0.0;0.0;0.0;0.0;0.0;0.0;0.0;0.0;0.0;0.0;0.0;0.0;0.0;0.000131436481241
349393000000;210;349393000000;map;37.2006768803;12.9615775203;0.0;0.0;0.0;0.9585304335;0.2849901894;0.00746806997108;-0.00544924303699;0.0;0.0;0.0;0.0;-0.00544924303699;0.0210761753609;0.0;0.0;0.0;0.0;0.0;0.0;0.0;0.0;0.0;0.0;0.0;0.0;0.0;0.0;0.0;0.0;0.0;0.0;0.0;0.0;0.0;0.0;0.0;0.0;0.0;0.0;0.0;0.000122391074517
350260000000;211;350260000000;map;37.1906910602;12.9819573955;0.0;0.0;0.0;0.98241803319;0.186694424295;0.0102082958397;-0.00601611319911;0.0;0.0;0.0;0.0;-0.00601611319911;0.0165963358681;0.0;0.0;0.0;0.0;0.0;0.0;0.0;0.0;0.0;0.0;0.0;0.0;0.0;0.0;0.0;0.0;0.0;0.0;0.0;0.0;0.0;0.0;0.0;0.0;0.0;0.0;0.0;0.000116347426835
351120000000;212;351120000000;map;37.1814198263;12.9975210233;0.0;0.0;0.0;0.996345458493;0.0854150299459;0.0131466317209;-0.0060992864598;0.0;0.0;0.0;0.0;-0.0060992864598;0.0141533273488;0.0;0.0;0.0;0.0;0.0;0.0;0.0;0.0;0.0;0.0;0.0;0.0;0.0;0.0;0.0;0.0;0.0;0.0;0.0;0.0;0.0;0.0;0.0;0.0;0.0;0.0;0.0;0.000109230686803
351962000000;213;351962000000;map;37.1696479202;13.0136832138;0.0;0.0;0.0;-0.999886315694;0.0150783184952;0.0158169365839;-0.00487964985359;0.0;0.0;0.0;0.0;-0.00487964985359;0.0113454783883;0.0;0.0;0.0;0.0;0.0;0.0;0.0;0.0;0.0;0.0;0.0;0.0;0.0;0.0;0.0;0.0;0.0;0.0;0.0;0.0;0.0;0.0;0.0;0.0;0.0;0.0;0.0;0.000103708026998
