%time;field.header.seq;field.header.stamp;field.header.frame_id;field.pose.pose.position.x;field.pose.pose.position.y;field.pose.pose.position.z;field.pose.pose.orientation.x;field.pose.pose.orientation.y;field.pose.pose.orientation.z;field.pose.pose.orientation.w;field.pose.covariance0;field.pose.covariance1;field.pose.covariance2;field.pose.covariance3;field.pose.covariance4;field.pose.covariance5;field.pose.covariance6;field.pose.covariance7;field.pose.covariance8;field.pose.covariance9;field.pose.covariance10;field.pose.covariance11;field.pose.covariance12;field.pose.covariance13;field.pose.covariance14;field.pose.covariance15;field.pose.covariance16;field.pose.covariance17;field.pose.covariance18;field.pose.covariance19;field.pose.covariance20;field.pose.covariance21;field.pose.covariance22;field.pose.covariance23;field.pose.covariance24;field.pose.covariance25;field.pose.covariance26;field.pose.covariance27;field.pose.covariance28;field.pose.covariance29;field.pose.covariance30;field.pose.covariance31;field.pose.covariance32;field.pose.covariance33;field.pose.covariance34;field.pose.covariance35
242374000000;18;242374000000;map;3.35228349484;-0.0625403372994;0.0;0.0;0.0;-0.00173208692896;0.999998499936;0.000111767575762;1.86906926508e-05;0.0;0.0;0.0;0.0;1.86906926508e-05;0.000210023757897;0.0;0.0;0.0;0.0;0.0;0.0;0.0;0.0;0.0;0.0;0.0;0.0;0.0;0.0;0.0;0.0;0.0;0.0;0.0;0.0;0.0;0.0;0.0;0.0;0.0;0.0;0.0;0.000273244769571
242777000000;19;242777000000;map;3.55734986387;-0.05860950537;0.0;0.0;0.0;-0.000833585962819;0.999999652567;0.000132108400416;-1.75114146458e-05;0.0;0.0;0.0;0.0;-1.75114146457e-05;5.82295416988e-05;0.0;0.0;0.0;0.0;0.0;0.0;0.0;0.0;0.0;0.0;0.0;0.0;0.0;0.0;0.0;0.0;0.0;0.0;0.0;0.0;0.0;0.0;0.0;0.0;0.0;0.0;0.0;0.000462610481525
243183000000;20;243183000000;map;3.76378788678;-0.0576635034896;0.0;0.0;0.0;0.00210055487026;0.999997793832;0.000120067660182;-8.17914080017e-05;0.0;0.0;0.0;0.0;-8.17914080017e-05;0.000100174089644;0.0;0.0;0.0;0.0;0.0;0.0;0.0;0.0;0.0;0.0;0.0;0.0;0.0;0.0;0.0;0.0;0.0;0.0;0.0;0.0;0.0;0.0;0.0;0.0;0.0;0.0;0.0;0.000810111564636
243587000000;21;243587000000;map;3.96825898159;-0.0601892580265;0.0;0.0;0.0;0.000870469473577;0.999999621141;7.1108334307e-05;-4.05116521414e-05;0.0;0.0;0.0;0.0;-4.05116521414e-05;0.000142734334071;0.0;0.0;0.0;0.0;0.0;0.0;0.0;0.0;0.0;0.0;0.0;0.0;0.0;0.0;0.0;0.0;0.0;0.0;0.0;0.0;0.0;0.0;0.0;0.0;0.0;0.0;0.0;0.00154238838419
243990000000;22;243990000000;map;4.16755652528;-0.0571202712007;0.0;0.0;0.0;0.00108167568722;0.999999414989;7.22584703823e-05;-5.28787196197e-05;0.0;0.0;0.0;0.0;-5.28787196197e-05;0.000353291671912;0.0;0.0;0.0;0.0;0.0;0.0;0.0;0.0;0.0;0.0;0.0;0.0;0.0;0.0;0.0;0.0;0.0;0.0;0.0;0.0;0.0;0.0;0.0;0.0;0.0;0.0;0.0;0.00146396817677
244398000000;23;244398000000;map;4.37218131039;-0.053776574554;0.0;0.0;0.0;0.00239967420958;0.999997120778;0.000109667798611;-6.42993891177e-05;0.0;0.0;0.0;0.0;-6.42993891177e-05;0.000610420040415;0.0;0.0;0.0;0.0;0.0;0.0;0.0;0.0;0.0;0.0;0.0;0.0;0.0;0.0;0.0;0.0;0.0;0.0;0.0;0.0;0.0;0.0;0.0;0.0;0.0;0.0;0.0;0.00111570408056
244799000000;24;244799000000;map;4.56835490747;-0.0414994389915;0.0;0.0;0.0;0.00473095186839;0.999988808985;0.000156875748239;-0.00010064534179;0.0;0.0;0.0;0.0;-0.00010064534179;0.000896209514718;0.0;0.0;0.0;0.0;0.0;0.0;0.0;0.0;0.0;0.0;0.0;0.0;0.0;0.0;0.0;0.0;0.0;0.0;0.0;0.0;0.0;0.0;0.0;0.0;0.0;0.0;0.0;0.00106225651669
245202000000;25;245202000000;map;4.77075721766;-0.0287483214468;0.0;0.0;0.0;0.00705370163223;0.999975122337;0.000246174486275;-0.000305766290949;0.0;0.0;0.0;0.0;-0.000305766290949;0.000860260422712;0.0;0.0;0.0;0.0;0.0;0.0;0.0;0.0;0.0;0.0;0.0;0.0;0.0;0.0;0.0;0.0;0.0;0.0;0.0;0.0;0.0;0.0;0.0;0.0;0.0;0.0;0.0;0.000712252776046
245605000000;26;245605000000;map;4.96998258724;-0.0242591851543;0.0;0.0;0.0;0.00726301662022;0.999973623947;0.000236347338269;-0.000252046981387;0.0;0.0;0.0;0.0;-0.000252046981387;0.00102014202541;0.0;0.0;0.0;0.0;0.0;0.0;0.0;0.0;0.0;0.0;0.0;0.0;0.0;0.0;0.0;0.0;0.0;0.0;0.0;0.0;0.0;0.0;0.0;0.0;0.0;0.0;0.0;0.00063140552811
246024000000;27;246024000000;map;5.17872971372;-0.0201989793915;0.0;0.0;0.0;0.0061594888275;0.999981030169;0.000260382395378;-0.000313082131786;0.0;0.0;0.0;0.0;-0.000313082131786;0.00136808224183;0.0;0.0;0.0;0.0;0.0;0.0;0.0;0.0;0.0;0.0;0.0;0.0;0.0;0.0;0.0;0.0;0.0;0.0;0.0;0.0;0.0;0.0;0.0;0.0;0.0;0.0;0.0;0.000872411676809
246427000000;28;246427000000;map;5.3811467815;-0.0103208059778;0.0;0.0;0.0;0.00677781170177;0.99997703037;0.00028893128998;-0.000341916036389;0.0;0.0;0.0;0.0;-0.000341916036389;0.00168029656135;0.0;0.0;0.0;0.0;0.0;0.0;0.0;0.0;0.0;0.0;0.0;0.0;0.0;0.0;0.0;0.0;0.0;0.0;0.0;0.0;0.0;0.0;0.0;0.0;0.0;0.0;0.0;0.00102180479849
246828000000;29;246828000000;map;5.57961566371;-0.00618565050107;0.0;0.0;0.0;0.0036027282307;0.999993510154;0.000284625299699;-0.000340924506351;0.0;0.0;0.0;0.0;-0.000340924506351;0.00174832704348;0.0;0.0;0.0;0.0;0.0;0.0;0.0;0.0;0.0;0.0;0.0;0.0;0.0;0.0;0.0;0.0;0.0;0.0;0.0;0.0;0.0;0.0;0.0;0.0;0.0;0.0;0.0;0.000905733988756
247229000000;30;247229000000;map;5.77938348179;-0.0169591799077;0.0;0.0;0.0;-0.000231954380628;0.999999973099;0.000349636011912;-0.000494389954356;0.0;0.0;0.0;0.0;-0.000494389954356;0.00217512848879;0.0;0.0;0.0;0.0;0.0;0.0;0.0;0.0;0.0;0.0;0.0;0.0;0.0;0.0;0.0;0.0;0.0;0.0;0.0;0.0;0.0;0.0;0.0;0.0;0.0;0.0;0.0;0.000755791591037
247633000000;31;247633000000;map;5.98326758031;-0.0111729127892;0.0;0.0;0.0;0.00131875938473;0.999999130436;0.000337140155679;-0.000331811045666;0.0;0.0;0.0;0.0;-0.000331811045666;0.00178573873757;0.0;0.0;0.0;0.0;0.0;0.0;0.0;0.0;0.0;0.0;0.0;0.0;0.0;0.0;0.0;0.0;0.0;0.0;0.0;0.0;0.0;0.0;0.0;0.0;0.0;0.0;0.0;0.00056736481262
248037000000;32;248037000000;map;6.18245707251;-0.0098558798804;0.0;0.0;0.0;0.000535652155763;0.999999856538;0.000314823914742;-7.51131678779e-05;0.0;0.0;0.0;0.0;-7.51131678779e-05;0.00151093485288;0.0;0.0;0.0;0.0;0.0;0.0;0.0;0.0;0.0;0.0;0.0;0.0;0.0;0.0;0.0;0.0;0.0;0.0;0.0;0.0;0.0;0.0;0.0;0.0;0.0;0.0;0.0;0.000473706776042
248441000000;33;248441000000;map;6.38185685653;-0.00643420856547;0.0;0.0;0.0;-0.000793772816026;0.999999684962;0.000317444409696;-7.23107478674e-05;0.0;0.0;0.0;0.0;-7.23107478674e-05;0.00134141783096;0.0;0.0;0.0;0.0;0.0;0.0;0.0;0.0;0.0;0.0;0.0;0.0;0.0;0.0;0.0;0.0;0.0;0.0;0.0;0.0;0.0;0.0;0.0;0.0;0.0;0.0;0.0;0.000350693247404
248842000000;34;248842000000;map;6.5821379669;-0.0103102278941;0.0;0.0;0.0;6.66415017411e-06;0.999999999978;0.00035605774066;-2.67331753239e-05;0.0;0.0;0.0;0.0;-2.67331753239e-05;0.00161594239909;0.0;0.0;0.0;0.0;0.0;0.0;0.0;0.0;0.0;0.0;0.0;0.0;0.0;0.0;0.0;0.0;0.0;0.0;0.0;0.0;0.0;0.0;0.0;0.0;0.0;0.0;0.0;0.000340622824832
249262000000;35;249262000000;map;6.79169406897;-0.0133826606663;0.0;0.0;0.0;0.00145361462768;0.999998943502;0.000390718377211;-3.38272090032e-05;0.0;0.0;0.0;0.0;-3.38272090032e-05;0.00208595319441;0.0;0.0;0.0;0.0;0.0;0.0;0.0;0.0;0.0;0.0;0.0;0.0;0.0;0.0;0.0;0.0;0.0;0.0;0.0;0.0;0.0;0.0;0.0;0.0;0.0;0.0;0.0;0.000482242350359
249668000000;36;249668000000;map;6.9993063486;-0.0186505359627;0.0;0.0;0.0;0.00206219767116;0.999997873668;0.000502307069702;1.78673023761e-05;0.0;0.0;0.0;0.0;1.78673023761e-05;0.0020701369444;0.0;0.0;0.0;0.0;0.0;0.0;0.0;0.0;0.0;0.0;0.0;0.0;0.0;0.0;0.0;0.0;0.0;0.0;0.0;0.0;0.0;0.0;0.0;0.0;0.0;0.0;0.0;0.00042118333173
250087000000;37;250087000000;map;7.21220304969;-0.0191997681029;0.0;0.0;0.0;0.0046805611987;0.999989046113;0.000501425385536;0.000134979615771;0.0;0.0;0.0;0.0;0.000134979615771;0.00212913547528;0.0;0.0;0.0;0.0;0.0;0.0;0.0;0.0;0.0;0.0;0.0;0.0;0.0;0.0;0.0;0.0;0.0;0.0;0.0;0.0;0.0;0.0;0.0;0.0;0.0;0.0;0.0;0.000345047091041
250493000000;38;250493000000;map;7.41550568854;-0.0194381041535;0.0;0.0;0.0;0.00210437028696;0.99999778581;0.00053576024834;0.000254749559942;0.0;0.0;0.0;0.0;0.000254749559942;0.00246305007425;0.0;0.0;0.0;0.0;0.0;0.0;0.0;0.0;0.0;0.0;0.0;0.0;0.0;0.0;0.0;0.0;0.0;0.0;0.0;0.0;0.0;0.0;0.0;0.0;0.0;0.0;0.0;0.000446272164261
250911000000;39;250911000000;map;7.6270916523;-0.0213561761286;0.0;0.0;0.0;0.00300964832554;0.999995470998;0.000626216139992;0.000297590984063;0.0;0.0;0.0;0.0;0.000297590984063;0.00262735944721;0.0;0.0;0.0;0.0;0.0;0.0;0.0;0.0;0.0;0.0;0.0;0.0;0.0;0.0;0.0;0.0;0.0;0.0;0.0;0.0;0.0;0.0;0.0;0.0;0.0;0.0;0.0;0.000376146668515
251331000000;40;251331000000;map;7.83833238264;-0.0105970647829;0.0;0.0;0.0;0.00237822400432;0.999997172021;0.000661956517554;0.00019258878329;0.0;0.0;0.0;0.0;0.00019258878329;0.00212019922301;0.0;0.0;0.0;0.0;0.0;0.0;0.0;0.0;0.0;0.0;0.0;0.0;0.0;0.0;0.0;0.0;0.0;0.0;0.0;0.0;0.0;0.0;0.0;0.0;0.0;0.0;0.0;0.000318398298209
251732000000;41;251732000000;map;8.03740057411;-0.0135822478554;0.0;0.0;0.0;0.000792509131806;0.999999685965;0.000615164200639;0.000139566631087;0.0;0.0;0.0;0.0;0.000139566631087;0.00221730232525;0.0;0.0;0.0;0.0;0.0;0.0;0.0;0.0;0.0;0.0;0.0;0.0;0.0;0.0;0.0;0.0;0.0;0.0;0.0;0.0;0.0;0.0;0.0;0.0;0.0;0.0;0.0;0.000381079395783
252134000000;42;252134000000;map;8.24511530284;-0.0109612018509;0.0;0.0;0.0;0.00153233049902;0.999998825981;0.000443218795183;0.00014740833099;0.0;0.0;0.0;0.0;0.00014740833099;0.0022533218114;0.0;0.0;0.0;0.0;0.0;0.0;0.0;0.0;0.0;0.0;0.0;0.0;0.0;0.0;0.0;0.0;0.0;0.0;0.0;0.0;0.0;0.0;0.0;0.0;0.0;0.0;0.0;0.000328396976704
252554000000;43;252554000000;map;8.45661820416;-0.0159445409806;0.0;0.0;0.0;0.00154734803287;0.999998802856;0.000453084056687;0.000101174708678;0.0;0.0;0.0;0.0;0.000101174708678;0.00214540615405;0.0;0.0;0.0;0.0;0.0;0.0;0.0;0.0;0.0;0.0;0.0;0.0;0.0;0.0;0.0;0.0;0.0;0.0;0.0;0.0;0.0;0.0;0.0;0.0;0.0;0.0;0.0;0.000444458924638
252957000000;44;252957000000;map;8.66293279004;-0.0172653240098;0.0;0.0;0.0;-0.00149803901564;0.999998877939;0.000414697829285;0.000176310115133;0.0;0.0;0.0;0.0;0.000176310115133;0.0018865704048;0.0;0.0;0.0;0.0;0.0;0.0;0.0;0.0;0.0;0.0;0.0;0.0;0.0;0.0;0.0;0.0;0.0;0.0;0.0;0.0;0.0;0.0;0.0;0.0;0.0;0.0;0.0;0.000497252526001
253377000000;45;253377000000;map;8.87040712408;-0.0328376129497;0.0;0.0;0.0;-0.000113214012288;0.999999993591;0.000326427136443;0.000303517623074;0.0;0.0;0.0;0.0;0.000303517623074;0.00273986087621;0.0;0.0;0.0;0.0;0.0;0.0;0.0;0.0;0.0;0.0;0.0;0.0;0.0;0.0;0.0;0.0;0.0;0.0;0.0;0.0;0.0;0.0;0.0;0.0;0.0;0.0;0.0;0.000475814668992
253780000000;46;253780000000;map;9.06843248578;-0.0286816693753;0.0;0.0;0.0;0.000762071555978;0.999999709623;0.000373094031332;0.000193768598554;0.0;0.0;0.0;0.0;0.000193768598554;0.00278019767035;0.0;0.0;0.0;0.0;0.0;0.0;0.0;0.0;0.0;0.0;0.0;0.0;0.0;0.0;0.0;0.0;0.0;0.0;0.0;0.0;0.0;0.0;0.0;0.0;0.0;0.0;0.0;0.00057209887907
254184000000;47;254184000000;map;9.27368127345;-0.0356032129711;0.0;0.0;0.0;-0.00163323072706;0.999998666278;0.000411324809221;0.000437232521914;0.0;0.0;0.0;0.0;0.000437232521914;0.00242790264899;0.0;0.0;0.0;0.0;0.0;0.0;0.0;0.0;0.0;0.0;0.0;0.0;0.0;0.0;0.0;0.0;0.0;0.0;0.0;0.0;0.0;0.0;0.0;0.0;0.0;0.0;0.0;0.000665869237363
254604000000;48;254604000000;map;9.47571849658;-0.0416082046835;0.0;0.0;0.0;-0.0031725900304;0.999994967324;0.000325566190824;0.000307816959406;0.0;0.0;0.0;0.0;0.000307816959406;0.0022354643435;0.0;0.0;0.0;0.0;0.0;0.0;0.0;0.0;0.0;0.0;0.0;0.0;0.0;0.0;0.0;0.0;0.0;0.0;0.0;0.0;0.0;0.0;0.0;0.0;0.0;0.0;0.0;0.000731151778567
255025000000;49;255025000000;map;9.68902491174;-0.0398264890116;0.0;0.0;0.0;-0.00423335954952;0.999991039293;0.000583067936901;0.000546475834004;0.0;0.0;0.0;0.0;0.000546475834004;0.00169086058242;0.0;0.0;0.0;0.0;0.0;0.0;0.0;0.0;0.0;0.0;0.0;0.0;0.0;0.0;0.0;0.0;0.0;0.0;0.0;0.0;0.0;0.0;0.0;0.0;0.0;0.0;0.0;0.000528507101086
255429000000;50;255429000000;map;9.89254921874;-0.042625799189;0.0;0.0;0.0;-0.00313215101005;0.999995094803;0.000490738604796;0.000564774034815;0.0;0.0;0.0;0.0;0.000564774034815;0.00179096784961;0.0;0.0;0.0;0.0;0.0;0.0;0.0;0.0;0.0;0.0;0.0;0.0;0.0;0.0;0.0;0.0;0.0;0.0;0.0;0.0;0.0;0.0;0.0;0.0;0.0;0.0;0.0;0.000524110887604
255834000000;51;255834000000;map;10.0962131348;-0.0430678952614;0.0;0.0;0.0;-0.00276584929037;0.999996175032;0.000426809716288;0.000568267674963;0.0;0.0;0.0;0.0;0.000568267674963;0.00158315045159;0.0;0.0;0.0;0.0;0.0;0.0;0.0;0.0;0.0;0.0;0.0;0.0;0.0;0.0;0.0;0.0;0.0;0.0;0.0;0.0;0.0;0.0;0.0;0.0;0.0;0.0;0.0;0.000549689159197
256242000000;52;256242000000;map;10.2990104709;-0.0482533792878;0.0;0.0;0.0;0.000209672167396;0.999999978019;0.000376192597244;0.000494848567844;0.0;0.0;0.0;0.0;0.000494848567844;0.00147478716308;0.0;0.0;0.0;0.0;0.0;0.0;0.0;0.0;0.0;0.0;0.0;0.0;0.0;0.0;0.0;0.0;0.0;0.0;0.0;0.0;0.0;0.0;0.0;0.0;0.0;0.0;0.0;0.000633317198403
256643000000;53;256643000000;map;10.4995308114;-0.0495253749532;0.0;0.0;0.0;-0.000388409129291;0.999999924569;0.000370707975918;0.000500795488249;0.0;0.0;0.0;0.0;0.000500795488249;0.00145198720061;0.0;0.0;0.0;0.0;0.0;0.0;0.0;0.0;0.0;0.0;0.0;0.0;0.0;0.0;0.0;0.0;0.0;0.0;0.0;0.0;0.0;0.0;0.0;0.0;0.0;0.0;0.0;0.000577292924361
257046000000;54;257046000000;map;10.6996593611;-0.052884322234;0.0;0.0;0.0;-0.00317916564146;0.99999494644;0.000300719262626;0.000514781741569;0.0;0.0;0.0;0.0;0.000514781741569;0.00151413607022;0.0;0.0;0.0;0.0;0.0;0.0;0.0;0.0;0.0;0.0;0.0;0.0;0.0;0.0;0.0;0.0;0.0;0.0;0.0;0.0;0.0;0.0;0.0;0.0;0.0;0.0;0.0;0.000655573816988
257449000000;55;257449000000;map;10.9061238861;-0.042518571259;0.0;0.0;0.0;-0.00338676772701;0.999994264886;0.000354814269443;0.000611539427144;0.0;0.0;0.0;0.0;0.000611539427144;0.00186713797245;0.0;0.0;0.0;0.0;0.0;0.0;0.0;0.0;0.0;0.0;0.0;0.0;0.0;0.0;0.0;0.0;0.0;0.0;0.0;0.0;0.0;0.0;0.0;0.0;0.0;0.0;0.0;0.000625629111436
257856000000;56;257856000000;map;11.1106119812;-0.0400635734396;0.0;0.0;0.0;-0.000213670107675;0.999999977173;0.000344491589431;0.000622072161432;0.0;0.0;0.0;0.0;0.000622072161432;0.00193788707272;0.0;0.0;0.0;0.0;0.0;0.0;0.0;0.0;0.0;0.0;0.0;0.0;0.0;0.0;0.0;0.0;0.0;0.0;0.0;0.0;0.0;0.0;0.0;0.0;0.0;0.0;0.0;0.000394830825234
258257000000;57;258257000000;map;11.3052227274;-0.0501560520042;0.0;0.0;0.0;-0.00131773166407;0.999999131791;0.000362174387348;0.000492504396623;0.0;0.0;0.0;0.0;0.000492504396623;0.00153922268075;0.0;0.0;0.0;0.0;0.0;0.0;0.0;0.0;0.0;0.0;0.0;0.0;0.0;0.0;0.0;0.0;0.0;0.0;0.0;0.0;0.0;0.0;0.0;0.0;0.0;0.0;0.0;0.000626077559478
258660000000;58;258660000000;map;11.5080236425;-0.046092473253;0.0;0.0;0.0;-0.00027010064524;0.999999963523;0.000399019973486;0.000624310157702;0.0;0.0;0.0;0.0;0.000624310157702;0.00183874168889;0.0;0.0;0.0;0.0;0.0;0.0;0.0;0.0;0.0;0.0;0.0;0.0;0.0;0.0;0.0;0.0;0.0;0.0;0.0;0.0;0.0;0.0;0.0;0.0;0.0;0.0;0.0;0.000660589105389
259065000000;59;259065000000;map;11.7102965714;-0.0559593424295;0.0;0.0;0.0;0.000466138425346;0.999999891357;0.000529130251579;0.000695782934546;0.0;0.0;0.0;0.0;0.000695782934546;0.00130868306703;0.0;0.0;0.0;0.0;0.0;0.0;0.0;0.0;0.0;0.0;0.0;0.0;0.0;0.0;0.0;0.0;0.0;0.0;0.0;0.0;0.0;0.0;0.0;0.0;0.0;0.0;0.0;0.000613289604276
259468000000;60;259468000000;map;11.9108556671;-0.0504372910545;0.0;0.0;0.0;0.00267450988513;0.999996423492;0.000340522504814;0.000452644088681;0.0;0.0;0.0;0.0;0.000452644088681;0.00121616759942;0.0;0.0;0.0;0.0;0.0;0.0;0.0;0.0;0.0;0.0;0.0;0.0;0.0;0.0;0.0;0.0;0.0;0.0;0.0;0.0;0.0;0.0;0.0;0.0;0.0;0.0;0.0;0.000583424755527
259870000000;61;259870000000;map;12.1098825197;-0.0537895456818;0.0;0.0;0.0;0.00341226870352;0.999994178194;0.000362020274707;0.000559886650237;0.0;0.0;0.0;0.0;0.000559886650237;0.0016446279993;0.0;0.0;0.0;0.0;0.0;0.0;0.0;0.0;0.0;0.0;0.0;0.0;0.0;0.0;0.0;0.0;0.0;0.0;0.0;0.0;0.0;0.0;0.0;0.0;0.0;0.0;0.0;0.000565687301297
260270000000;62;260270000000;map;12.3078758711;-0.0562545359901;0.0;0.0;0.0;-0.000686753438899;0.999999764185;0.000334507144203;0.00046446497051;0.0;0.0;0.0;0.0;0.00046446497051;0.00153023392623;0.0;0.0;0.0;0.0;0.0;0.0;0.0;0.0;0.0;0.0;0.0;0.0;0.0;0.0;0.0;0.0;0.0;0.0;0.0;0.0;0.0;0.0;0.0;0.0;0.0;0.0;0.0;0.0005524676686
260677000000;63;260677000000;map;12.5117356667;-0.0545407397061;0.0;0.0;0.0;-0.00157402961572;0.999998761215;0.000360318643743;0.000519348600251;0.0;0.0;0.0;0.0;0.000519348600251;0.00173520988353;0.0;0.0;0.0;0.0;0.0;0.0;0.0;0.0;0.0;0.0;0.0;0.0;0.0;0.0;0.0;0.0;0.0;0.0;0.0;0.0;0.0;0.0;0.0;0.0;0.0;0.0;0.0;0.000799305849187
261085000000;64;261085000000;map;12.7161476369;-0.0442343075915;0.0;0.0;0.0;-0.00123459808588;0.999999237883;0.000402548427161;0.000499522690319;0.0;0.0;0.0;0.0;0.000499522690319;0.00179406273534;0.0;0.0;0.0;0.0;0.0;0.0;0.0;0.0;0.0;0.0;0.0;0.0;0.0;0.0;0.0;0.0;0.0;0.0;0.0;0.0;0.0;0.0;0.0;0.0;0.0;0.0;0.0;0.000719186289473
261486000000;65;261486000000;map;12.9142912511;-0.0556418803558;0.0;0.0;0.0;-0.00475067417303;0.999988715484;0.000407517900499;0.000564549303934;0.0;0.0;0.0;0.0;0.000564549303934;0.00249345490531;0.0;0.0;0.0;0.0;0.0;0.0;0.0;0.0;0.0;0.0;0.0;0.0;0.0;0.0;0.0;0.0;0.0;0.0;0.0;0.0;0.0;0.0;0.0;0.0;0.0;0.0;0.0;0.000998326597091
261904000000;66;261904000000;map;13.1256905708;-0.0478638090579;0.0;0.0;0.0;-0.0011909227206;0.999999290851;0.000481875977101;0.000739980082288;0.0;0.0;0.0;0.0;0.000739980082288;0.00354080088753;0.0;0.0;0.0;0.0;0.0;0.0;0.0;0.0;0.0;0.0;0.0;0.0;0.0;0.0;0.0;0.0;0.0;0.0;0.0;0.0;0.0;0.0;0.0;0.0;0.0;0.0;0.0;0.00138630251378
262309000000;67;262309000000;map;13.3291291178;-0.0587266874389;0.0;0.0;0.0;-0.00429462838182;0.999990778041;0.000343050626356;0.000662701077263;0.0;0.0;0.0;0.0;0.000662701077263;0.0037989381203;0.0;0.0;0.0;0.0;0.0;0.0;0.0;0.0;0.0;0.0;0.0;0.0;0.0;0.0;0.0;0.0;0.0;0.0;0.0;0.0;0.0;0.0;0.0;0.0;0.0;0.0;0.0;0.00143979756391
262712000000;68;262712000000;map;13.5336377621;-0.0355654154552;0.0;0.0;0.0;-0.000591116944755;0.99999982529;0.000425670034161;0.000821810653838;0.0;0.0;0.0;0.0;0.000821810653838;0.00416776425816;0.0;0.0;0.0;0.0;0.0;0.0;0.0;0.0;0.0;0.0;0.0;0.0;0.0;0.0;0.0;0.0;0.0;0.0;0.0;0.0;0.0;0.0;0.0;0.0;0.0;0.0;0.0;0.000796520031082
263133000000;69;263133000000;map;13.7483498018;-0.0475731699622;0.0;0.0;0.0;-0.00226396677196;0.999997437224;0.000395365853336;0.000666696668566;0.0;0.0;0.0;0.0;0.000666696668566;0.00446234485406;0.0;0.0;0.0;0.0;0.0;0.0;0.0;0.0;0.0;0.0;0.0;0.0;0.0;0.0;0.0;0.0;0.0;0.0;0.0;0.0;0.0;0.0;0.0;0.0;0.0;0.0;0.0;0.00100348600653
263534000000;70;263534000000;map;13.9487866721;-0.0458573206882;0.0;0.0;0.0;-0.00249744039895;0.999996881391;0.000416286543157;0.000573291240912;0.0;0.0;0.0;0.0;0.000573291240912;0.00394617006899;0.0;0.0;0.0;0.0;0.0;0.0;0.0;0.0;0.0;0.0;0.0;0.0;0.0;0.0;0.0;0.0;0.0;0.0;0.0;0.0;0.0;0.0;0.0;0.0;0.0;0.0;0.0;0.000972516949023
263937000000;71;263937000000;map;14.1548637433;-0.0325321858873;0.0;0.0;0.0;-0.00204741683891;0.99999790404;0.000428771716912;0.000647225720737;0.0;0.0;0.0;0.0;0.000647225720737;0.00665524468254;0.0;0.0;0.0;0.0;0.0;0.0;0.0;0.0;0.0;0.0;0.0;0.0;0.0;0.0;0.0;0.0;0.0;0.0;0.0;0.0;0.0;0.0;0.0;0.0;0.0;0.0;0.0;0.00149523753939
264341000000;72;264341000000;map;14.3509198783;-0.066020403981;0.0;0.0;0.0;-0.0072688205217;0.999973581775;0.000521164014231;0.000419467787721;0.0;0.0;0.0;0.0;0.000419467787721;0.00492619558844;0.0;0.0;0.0;0.0;0.0;0.0;0.0;0.0;0.0;0.0;0.0;0.0;0.0;0.0;0.0;0.0;0.0;0.0;0.0;0.0;0.0;0.0;0.0;0.0;0.0;0.0;0.0;0.000428847608029
264759000000;73;264759000000;map;14.5586725126;-0.0771665202445;0.0;0.0;0.0;-0.00683761725191;0.999976623222;0.000500764789138;6.82120676423e-05;0.0;0.0;0.0;0.0;6.82120676423e-05;0.00379394104908;0.0;0.0;0.0;0.0;0.0;0.0;0.0;0.0;0.0;0.0;0.0;0.0;0.0;0.0;0.0;0.0;0.0;0.0;0.0;0.0;0.0;0.0;0.0;0.0;0.0;0.0;0.0;0.000354612065834
265161000000;74;265161000000;map;14.7635808175;-0.0703163522326;0.0;0.0;0.0;-0.00455310600897;0.999989634559;0.000513426916001;0.000333445552305;0.0;0.0;0.0;0.0;0.000333445552305;0.00604845092089;0.0;0.0;0.0;0.0;0.0;0.0;0.0;0.0;0.0;0.0;0.0;0.0;0.0;0.0;0.0;0.0;0.0;0.0;0.0;0.0;0.0;0.0;0.0;0.0;0.0;0.0;0.0;0.000586887332623
265564000000;75;265564000000;map;14.9677030214;-0.0695921139329;0.0;0.0;0.0;-0.00322194320556;0.999994809528;0.000521123440649;0.000446466735151;0.0;0.0;0.0;0.0;0.000446466735152;0.00694097428597;0.0;0.0;0.0;0.0;0.0;0.0;0.0;0.0;0.0;0.0;0.0;0.0;0.0;0.0;0.0;0.0;0.0;0.0;0.0;0.0;0.0;0.0;0.0;0.0;0.0;0.0;0.0;0.00067599058715
265976000000;76;265976000000;map;15.174570188;-0.0841240743111;0.0;0.0;0.0;-0.00356451114349;0.99999364711;0.000458072320185;0.000421151588048;0.0;0.0;0.0;0.0;0.000421151588048;0.00711050114419;0.0;0.0;0.0;0.0;0.0;0.0;0.0;0.0;0.0;0.0;0.0;0.0;0.0;0.0;0.0;0.0;0.0;0.0;0.0;0.0;0.0;0.0;0.0;0.0;0.0;0.0;0.0;0.000893210508546
266385000000;77;266385000000;map;15.3818451865;-0.0898192030876;0.0;0.0;0.0;-0.00189110888374;0.999998211852;0.000550305202495;0.000324086449309;0.0;0.0;0.0;0.0;0.000324086449309;0.0034862701956;0.0;0.0;0.0;0.0;0.0;0.0;0.0;0.0;0.0;0.0;0.0;0.0;0.0;0.0;0.0;0.0;0.0;0.0;0.0;0.0;0.0;0.0;0.0;0.0;0.0;0.0;0.0;0.000774310516725
266786000000;78;266786000000;map;15.5876718681;-0.0798782772775;0.0;0.0;0.0;0.00419073509778;0.999991218831;0.000406136881708;-0.000106722017616;0.0;0.0;0.0;0.0;-0.000106722017616;0.00149092697071;0.0;0.0;0.0;0.0;0.0;0.0;0.0;0.0;0.0;0.0;0.0;0.0;0.0;0.0;0.0;0.0;0.0;0.0;0.0;0.0;0.0;0.0;0.0;0.0;0.0;0.0;0.0;0.000711072227076
267206000000;79;267206000000;map;15.7947748569;-0.0670489571914;0.0;0.0;0.0;0.00490281771911;0.999987981117;0.000478939446964;0.000108350898576;0.0;0.0;0.0;0.0;0.000108350898576;0.000916971997759;0.0;0.0;0.0;0.0;0.0;0.0;0.0;0.0;0.0;0.0;0.0;0.0;0.0;0.0;0.0;0.0;0.0;0.0;0.0;0.0;0.0;0.0;0.0;0.0;0.0;0.0;0.0;0.000693944843975
267612000000;80;267612000000;map;15.9979795385;-0.0569543365504;0.0;0.0;0.0;0.00755839149011;0.999971434951;0.000582098427401;0.000224156197781;0.0;0.0;0.0;0.0;0.000224156197781;0.000857015598087;0.0;0.0;0.0;0.0;0.0;0.0;0.0;0.0;0.0;0.0;0.0;0.0;0.0;0.0;0.0;0.0;0.0;0.0;0.0;0.0;0.0;0.0;0.0;0.0;0.0;0.0;0.0;0.000372787132743
268013000000;81;268013000000;map;16.2000809931;-0.0610235725013;0.0;0.0;0.0;0.00611425004661;0.999981307798;0.000603141066051;0.000456395193656;0.0;0.0;0.0;0.0;0.000456395193656;0.00129703212816;0.0;0.0;0.0;0.0;0.0;0.0;0.0;0.0;0.0;0.0;0.0;0.0;0.0;0.0;0.0;0.0;0.0;0.0;0.0;0.0;0.0;0.0;0.0;0.0;0.0;0.0;0.0;0.000355231426828
268413000000;82;268413000000;map;16.3969708594;-0.0691628271539;0.0;0.0;0.0;0.00197127586064;0.999998057034;0.000785212219625;0.000632362723535;0.0;0.0;0.0;0.0;0.000632362723535;0.0018853507736;0.0;0.0;0.0;0.0;0.0;0.0;0.0;0.0;0.0;0.0;0.0;0.0;0.0;0.0;0.0;0.0;0.0;0.0;0.0;0.0;0.0;0.0;0.0;0.0;0.0;0.0;0.0;0.000643127583673
268820000000;83;268820000000;map;16.5956344191;-0.0674778889674;0.0;0.0;0.0;0.00296629079174;0.99999560055;0.000738518318656;0.000499797922947;0.0;0.0;0.0;0.0;0.000499797922947;0.00251841841261;0.0;0.0;0.0;0.0;0.0;0.0;0.0;0.0;0.0;0.0;0.0;0.0;0.0;0.0;0.0;0.0;0.0;0.0;0.0;0.0;0.0;0.0;0.0;0.0;0.0;0.0;0.0;0.0010324211539
269224000000;84;269224000000;map;16.8011888568;-0.0684002603309;0.0;0.0;0.0;0.00299897970838;0.99999550305;0.000865698982579;0.00100284378856;0.0;0.0;0.0;0.0;0.00100284378856;0.00236006117697;0.0;0.0;0.0;0.0;0.0;0.0;0.0;0.0;0.0;0.0;0.0;0.0;0.0;0.0;0.0;0.0;0.0;0.0;0.0;0.0;0.0;0.0;0.0;0.0;0.0;0.0;0.0;0.00072721345469
269634000000;85;269634000000;map;17.002985451;-0.0740026568778;0.0;0.0;0.0;0.00277811299176;0.999996141037;0.000875495416665;0.00118073891379;0.0;0.0;0.0;0.0;0.00118073891379;0.00257250028457;0.0;0.0;0.0;0.0;0.0;0.0;0.0;0.0;0.0;0.0;0.0;0.0;0.0;0.0;0.0;0.0;0.0;0.0;0.0;0.0;0.0;0.0;0.0;0.0;0.0;0.0;0.0;0.000677706012751
270054000000;86;270054000000;map;17.2075764378;-0.0865723370051;0.0;0.0;0.0;-0.00208773566177;0.999997820678;0.000819111590602;0.00133235218656;0.0;0.0;0.0;0.0;0.00133235218656;0.00272761792693;0.0;0.0;0.0;0.0;0.0;0.0;0.0;0.0;0.0;0.0;0.0;0.0;0.0;0.0;0.0;0.0;0.0;0.0;0.0;0.0;0.0;0.0;0.0;0.0;0.0;0.0;0.0;0.00118568129733
270455000000;87;270455000000;map;17.4021428365;-0.103653190807;0.0;0.0;0.0;-0.00635679463187;0.999979795377;0.000660949436622;0.00109151452791;0.0;0.0;0.0;0.0;0.00109151452791;0.00208480228386;0.0;0.0;0.0;0.0;0.0;0.0;0.0;0.0;0.0;0.0;0.0;0.0;0.0;0.0;0.0;0.0;0.0;0.0;0.0;0.0;0.0;0.0;0.0;0.0;0.0;0.0;0.0;0.00106364457292
270870000000;88;270870000000;map;17.6065391857;-0.112959095652;0.0;0.0;0.0;-0.00889629646692;0.999960427172;0.000514516375517;0.000863135283802;0.0;0.0;0.0;0.0;0.000863135283802;0.00177054043532;0.0;0.0;0.0;0.0;0.0;0.0;0.0;0.0;0.0;0.0;0.0;0.0;0.0;0.0;0.0;0.0;0.0;0.0;0.0;0.0;0.0;0.0;0.0;0.0;0.0;0.0;0.0;0.000765958008908
271271000000;89;271271000000;map;17.8041781392;-0.122164266976;0.0;0.0;0.0;-0.00955073179196;0.999954390721;0.000473666002335;0.00075791050117;0.0;0.0;0.0;0.0;0.00075791050117;0.00154960450566;0.0;0.0;0.0;0.0;0.0;0.0;0.0;0.0;0.0;0.0;0.0;0.0;0.0;0.0;0.0;0.0;0.0;0.0;0.0;0.0;0.0;0.0;0.0;0.0;0.0;0.0;0.0;0.00032161169508
271685000000;90;271685000000;map;18.0193398879;-0.114990976201;0.0;0.0;0.0;-0.00391661822039;0.999992330021;0.000471056335073;0.000699051334223;0.0;0.0;0.0;0.0;0.000699051334223;0.00134318676679;0.0;0.0;0.0;0.0;0.0;0.0;0.0;0.0;0.0;0.0;0.0;0.0;0.0;0.0;0.0;0.0;0.0;0.0;0.0;0.0;0.0;0.0;0.0;0.0;0.0;0.0;0.0;0.000278129225646
272095000000;91;272095000000;map;18.2232069975;-0.119744111677;0.0;0.0;0.0;-0.00529554811455;0.999985978487;0.00028595719499;0.000589293099985;0.0;0.0;0.0;0.0;0.000589293099985;0.00168102198223;0.0;0.0;0.0;0.0;0.0;0.0;0.0;0.0;0.0;0.0;0.0;0.0;0.0;0.0;0.0;0.0;0.0;0.0;0.0;0.0;0.0;0.0;0.0;0.0;0.0;0.0;0.0;0.000554366439615
272500000000;92;272500000000;map;18.418416688;-0.137335123368;0.0;0.0;0.0;-0.00507262379049;0.999987134161;6.77680118883e-05;0.000174733602835;0.0;0.0;0.0;0.0;0.000174733602834;0.00054570711835;0.0;0.0;0.0;0.0;0.0;0.0;0.0;0.0;0.0;0.0;0.0;0.0;0.0;0.0;0.0;0.0;0.0;0.0;0.0;0.0;0.0;0.0;0.0;0.0;0.0;0.0;0.0;0.00107250149054
272906000000;93;272906000000;map;18.6226007173;-0.144107500873;0.0;0.0;0.0;-0.00762357173865;0.999970940155;0.00011928639816;0.000254951421471;0.0;0.0;0.0;0.0;0.000254951421471;0.000856039802049;0.0;0.0;0.0;0.0;0.0;0.0;0.0;0.0;0.0;0.0;0.0;0.0;0.0;0.0;0.0;0.0;0.0;0.0;0.0;0.0;0.0;0.0;0.0;0.0;0.0;0.0;0.0;0.00104850033643
273309000000;94;273309000000;map;18.8287370005;-0.138893172608;0.0;0.0;0.0;-0.00377444442506;0.999992876759;0.000109607435206;0.000201763212574;0.0;0.0;0.0;0.0;0.000201763212574;0.000814007797525;0.0;0.0;0.0;0.0;0.0;0.0;0.0;0.0;0.0;0.0;0.0;0.0;0.0;0.0;0.0;0.0;0.0;0.0;0.0;0.0;0.0;0.0;0.0;0.0;0.0;0.0;0.0;0.00074743148933
273710000000;95;273710000000;map;19.0313758676;-0.140889161809;0.0;0.0;0.0;-0.00467796295229;0.999989058271;0.000151177702548;0.000340861162014;0.0;0.0;0.0;0.0;0.000340861162014;0.00121373011913;0.0;0.0;0.0;0.0;0.0;0.0;0.0;0.0;0.0;0.0;0.0;0.0;0.0;0.0;0.0;0.0;0.0;0.0;0.0;0.0;0.0;0.0;0.0;0.0;0.0;0.0;0.0;0.000423838868481
274111000000;96;274111000000;map;19.2368169851;-0.139657122057;0.0;0.0;0.0;-0.0025578950442;0.999996728581;0.000129253490741;0.000226674609421;0.0;0.0;0.0;0.0;0.000226674609421;0.000690740257774;0.0;0.0;0.0;0.0;0.0;0.0;0.0;0.0;0.0;0.0;0.0;0.0;0.0;0.0;0.0;0.0;0.0;0.0;0.0;0.0;0.0;0.0;0.0;0.0;0.0;0.0;0.0;0.000292338360636
274518000000;97;274518000000;map;19.4378290004;-0.136149601197;0.0;0.0;0.0;-0.00107993298231;0.999999416872;0.000151287973267;0.000365060313931;0.0;0.0;0.0;0.0;0.000365060313931;0.00136310399877;0.0;0.0;0.0;0.0;0.0;0.0;0.0;0.0;0.0;0.0;0.0;0.0;0.0;0.0;0.0;0.0;0.0;0.0;0.0;0.0;0.0;0.0;0.0;0.0;0.0;0.0;0.0;0.000430189615991
274919000000;98;274919000000;map;19.6399774199;-0.139886378123;0.0;0.0;0.0;-0.00258098232754;0.99999666926;0.000119783234936;0.000265384705351;0.0;0.0;0.0;0.0;0.000265384705351;0.000937319058191;0.0;0.0;0.0;0.0;0.0;0.0;0.0;0.0;0.0;0.0;0.0;0.0;0.0;0.0;0.0;0.0;0.0;0.0;0.0;0.0;0.0;0.0;0.0;0.0;0.0;0.0;0.0;0.000438061069991
275323000000;99;275323000000;map;19.8415113909;-0.132319621302;0.0;0.0;0.0;-0.00261112927846;0.999996590996;0.000136291426998;0.000442121929405;0.0;0.0;0.0;0.0;0.000442121929406;0.00181576993492;0.0;0.0;0.0;0.0;0.0;0.0;0.0;0.0;0.0;0.0;0.0;0.0;0.0;0.0;0.0;0.0;0.0;0.0;0.0;0.0;0.0;0.0;0.0;0.0;0.0;0.0;0.0;0.000258478166282
275724000000;100;275724000000;map;20.0377063075;-0.140110148411;0.0;0.0;0.0;-0.00364351753725;0.999993362368;0.000122187144825;0.000436150740823;0.0;0.0;0.0;0.0;0.000436150740823;0.00225077672321;0.0;0.0;0.0;0.0;0.0;0.0;0.0;0.0;0.0;0.0;0.0;0.0;0.0;0.0;0.0;0.0;0.0;0.0;0.0;0.0;0.0;0.0;0.0;0.0;0.0;0.0;0.0;0.000463216230536
276131000000;101;276131000000;map;20.2410515339;-0.143022089033;0.0;0.0;0.0;-0.00310104180185;0.999995191758;0.00013535423011;0.000318347989482;0.0;0.0;0.0;0.0;0.000318347989481;0.00189560243489;0.0;0.0;0.0;0.0;0.0;0.0;0.0;0.0;0.0;0.0;0.0;0.0;0.0;0.0;0.0;0.0;0.0;0.0;0.0;0.0;0.0;0.0;0.0;0.0;0.0;0.0;0.0;0.000345051039734
276550000000;102;276550000000;map;20.4562249274;-0.130552647647;0.0;0.0;0.0;-0.00324833429074;0.999994724148;0.000145014712984;0.000353626594976;0.0;0.0;0.0;0.0;0.000353626594976;0.00188689298118;0.0;0.0;0.0;0.0;0.0;0.0;0.0;0.0;0.0;0.0;0.0;0.0;0.0;0.0;0.0;0.0;0.0;0.0;0.0;0.0;0.0;0.0;0.0;0.0;0.0;0.0;0.0;0.000388427847474
276960000000;103;276960000000;map;20.6614737775;-0.129321432736;0.0;0.0;0.0;-0.00773549410424;0.999970080618;0.000116275111964;0.000323045904413;0.0;0.0;0.0;0.0;0.000323045904413;0.00202592398683;0.0;0.0;0.0;0.0;0.0;0.0;0.0;0.0;0.0;0.0;0.0;0.0;0.0;0.0;0.0;0.0;0.0;0.0;0.0;0.0;0.0;0.0;0.0;0.0;0.0;0.0;0.0;0.000635902519166
277361000000;104;277361000000;map;20.858259275;-0.147007186237;0.0;0.0;0.0;-0.0103923165198;0.999945998421;0.000120026326329;0.000323638845686;0.0;0.0;0.0;0.0;0.000323638845686;0.00221571013468;0.0;0.0;0.0;0.0;0.0;0.0;0.0;0.0;0.0;0.0;0.0;0.0;0.0;0.0;0.0;0.0;0.0;0.0;0.0;0.0;0.0;0.0;0.0;0.0;0.0;0.0;0.0;0.000655872813869
277781000000;105;277781000000;map;21.0677757687;-0.146571290277;0.0;0.0;0.0;-0.00158200264391;0.999998748633;0.000170709402425;0.000273207597752;0.0;0.0;0.0;0.0;0.000273207597752;0.00150538255036;0.0;0.0;0.0;0.0;0.0;0.0;0.0;0.0;0.0;0.0;0.0;0.0;0.0;0.0;0.0;0.0;0.0;0.0;0.0;0.0;0.0;0.0;0.0;0.0;0.0;0.0;0.0;0.000460949182168
278185000000;106;278185000000;map;21.2697232306;-0.143328519036;0.0;0.0;0.0;0.000495795401196;0.999999877093;0.000136619513398;0.000298359704143;0.0;0.0;0.0;0.0;0.000298359704143;0.00148965784273;0.0;0.0;0.0;0.0;0.0;0.0;0.0;0.0;0.0;0.0;0.0;0.0;0.0;0.0;0.0;0.0;0.0;0.0;0.0;0.0;0.0;0.0;0.0;0.0;0.0;0.0;0.0;0.00063308832645
278586000000;107;278586000000;map;21.4690504703;-0.137415031957;0.0;0.0;0.0;0.00273414675957;0.999996262214;0.000205905681071;0.000369813503233;0.0;0.0;0.0;0.0;0.000369813503233;0.00110871489867;0.0;0.0;0.0;0.0;0.0;0.0;0.0;0.0;0.0;0.0;0.0;0.0;0.0;0.0;0.0;0.0;0.0;0.0;0.0;0.0;0.0;0.0;0.0;0.0;0.0;0.0;0.0;0.000639626274243
278987000000;108;278987000000;map;21.6674252042;-0.129192121198;0.0;0.0;0.0;0.00486686467983;0.999988156744;0.000194126893859;0.00036826156154;0.0;0.0;0.0;0.0;0.00036826156154;0.00098083873653;0.0;0.0;0.0;0.0;0.0;0.0;0.0;0.0;0.0;0.0;0.0;0.0;0.0;0.0;0.0;0.0;0.0;0.0;0.0;0.0;0.0;0.0;0.0;0.0;0.0;0.0;0.0;0.00057798610698
279396000000;109;279396000000;map;21.8723112004;-0.120431586195;0.0;0.0;0.0;0.00251818391281;0.99999682937;0.000142663903944;0.000224972336496;0.0;0.0;0.0;0.0;0.000224972336496;0.000670153234812;0.0;0.0;0.0;0.0;0.0;0.0;0.0;0.0;0.0;0.0;0.0;0.0;0.0;0.0;0.0;0.0;0.0;0.0;0.0;0.0;0.0;0.0;0.0;0.0;0.0;0.0;0.0;0.000960163894826
279803000000;110;279803000000;map;22.0736111818;-0.129218202807;0.0;0.0;0.0;-0.00245401594869;0.999996988898;0.000169898381955;0.000254411564023;0.0;0.0;0.0;0.0;0.000254411564023;0.000735949393704;0.0;0.0;0.0;0.0;0.0;0.0;0.0;0.0;0.0;0.0;0.0;0.0;0.0;0.0;0.0;0.0;0.0;0.0;0.0;0.0;0.0;0.0;0.0;0.0;0.0;0.0;0.0;0.000282727100153
280223000000;111;280223000000;map;22.2813755393;-0.135065288281;0.0;0.0;0.0;-0.00476582670929;0.999988643383;0.000234730269995;0.000278365848374;0.0;0.0;0.0;0.0;0.000278365848374;0.000669556517832;0.0;0.0;0.0;0.0;0.0;0.0;0.0;0.0;0.0;0.0;0.0;0.0;0.0;0.0;0.0;0.0;0.0;0.0;0.0;0.0;0.0;0.0;0.0;0.0;0.0;0.0;0.0;0.000383844490751
280624000000;112;280624000000;map;22.483796791;-0.135732654351;0.0;0.0;0.0;-0.00717531041635;0.999974257129;0.000247851193592;0.000280694560677;0.0;0.0;0.0;0.0;0.000280694560677;0.000743560384431;0.0;0.0;0.0;0.0;0.0;0.0;0.0;0.0;0.0;0.0;0.0;0.0;0.0;0.0;0.0;0.0;0.0;0.0;0.0;0.0;0.0;0.0;0.0;0.0;0.0;0.0;0.0;0.000250760804338
281032000000;113;281032000000;map;22.6913278867;-0.138709211613;0.0;0.0;0.0;-0.00654428767422;0.99997858592;0.000146269633433;0.000154550007694;0.0;0.0;0.0;0.0;0.000154550007694;0.000688904193989;0.0;0.0;0.0;0.0;0.0;0.0;0.0;0.0;0.0;0.0;0.0;0.0;0.0;0.0;0.0;0.0;0.0;0.0;0.0;0.0;0.0;0.0;0.0;0.0;0.0;0.0;0.0;0.000364756979868
281434000000;114;281434000000;map;22.8946811844;-0.149740200317;0.0;0.0;0.0;-0.0140001084652;0.999901993679;6.61541803311e-05;9.91528979548e-05;0.0;0.0;0.0;0.0;9.91528979544e-05;0.000614300486534;0.0;0.0;0.0;0.0;0.0;0.0;0.0;0.0;0.0;0.0;0.0;0.0;0.0;0.0;0.0;0.0;0.0;0.0;0.0;0.0;0.0;0.0;0.0;0.0;0.0;0.0;0.0;0.000389675461782
281844000000;115;281844000000;map;23.1015169898;-0.145885712417;0.0;0.0;0.0;-0.0115093302229;0.999933765465;9.4955088116e-05;0.000165155132905;0.0;0.0;0.0;0.0;0.000165155132905;0.000673749770818;0.0;0.0;0.0;0.0;0.0;0.0;0.0;0.0;0.0;0.0;0.0;0.0;0.0;0.0;0.0;0.0;0.0;0.0;0.0;0.0;0.0;0.0;0.0;0.0;0.0;0.0;0.0;0.000527772389303
282248000000;116;282248000000;map;23.3058566557;-0.151540097474;0.0;0.0;0.0;-0.0130356455628;0.999915032363;6.78119913573e-05;0.0001694734945;0.0;0.0;0.0;0.0;0.000169473494501;0.000834383038537;0.0;0.0;0.0;0.0;0.0;0.0;0.0;0.0;0.0;0.0;0.0;0.0;0.0;0.0;0.0;0.0;0.0;0.0;0.0;0.0;0.0;0.0;0.0;0.0;0.0;0.0;0.0;0.000337905487877
282649000000;117;282649000000;map;23.5053514821;-0.165310817922;0.0;0.0;0.0;-0.0159292860008;0.999873120875;6.40780282311e-05;0.000155592852346;0.0;0.0;0.0;0.0;0.000155592852346;0.00104233944669;0.0;0.0;0.0;0.0;0.0;0.0;0.0;0.0;0.0;0.0;0.0;0.0;0.0;0.0;0.0;0.0;0.0;0.0;0.0;0.0;0.0;0.0;0.0;0.0;0.0;0.0;0.0;0.000396738984296
283057000000;118;283057000000;map;23.7083626418;-0.173322806028;0.0;0.0;0.0;-0.012086096203;0.999926960472;9.35481322131e-05;0.000219498420776;0.0;0.0;0.0;0.0;0.000219498420777;0.00153655373404;0.0;0.0;0.0;0.0;0.0;0.0;0.0;0.0;0.0;0.0;0.0;0.0;0.0;0.0;0.0;0.0;0.0;0.0;0.0;0.0;0.0;0.0;0.0;0.0;0.0;0.0;0.0;0.000532806995073
283477000000;119;283477000000;map;23.9215767328;-0.171420098887;0.0;0.0;0.0;-0.00844745069544;0.999964319652;9.58816206094e-05;0.000219314063549;0.0;0.0;0.0;0.0;0.000219314063549;0.00150287663005;0.0;0.0;0.0;0.0;0.0;0.0;0.0;0.0;0.0;0.0;0.0;0.0;0.0;0.0;0.0;0.0;0.0;0.0;0.0;0.0;0.0;0.0;0.0;0.0;0.0;0.0;0.0;0.00041931967696
283879000000;120;283879000000;map;24.1246779229;-0.174180166704;0.0;0.0;0.0;-0.00849096630348;0.999963951096;9.93907337943e-05;8.66251292173e-05;0.0;0.0;0.0;0.0;8.66251292173e-05;0.00137087895282;0.0;0.0;0.0;0.0;0.0;0.0;0.0;0.0;0.0;0.0;0.0;0.0;0.0;0.0;0.0;0.0;0.0;0.0;0.0;0.0;0.0;0.0;0.0;0.0;0.0;0.0;0.0;0.000285960174888
284298000000;121;284298000000;map;24.3350861892;-0.178165581801;0.0;0.0;0.0;-0.00714806837277;0.999974452233;0.000178096370973;0.000288803293779;0.0;0.0;0.0;0.0;0.000288803293779;0.00169866699005;0.0;0.0;0.0;0.0;0.0;0.0;0.0;0.0;0.0;0.0;0.0;0.0;0.0;0.0;0.0;0.0;0.0;0.0;0.0;0.0;0.0;0.0;0.0;0.0;0.0;0.0;0.0;0.000511539390958
284703000000;122;284703000000;map;24.530886231;-0.197910875392;0.0;0.0;0.0;-0.0120845843426;0.999926978745;0.000179792473205;0.000297102265542;0.0;0.0;0.0;0.0;0.000297102265542;0.00121431774528;0.0;0.0;0.0;0.0;0.0;0.0;0.0;0.0;0.0;0.0;0.0;0.0;0.0;0.0;0.0;0.0;0.0;0.0;0.0;0.0;0.0;0.0;0.0;0.0;0.0;0.0;0.0;0.000577831796887
285121000000;123;285121000000;map;24.7417464654;-0.195751749838;0.0;0.0;0.0;-0.0133889105696;0.99991036452;0.000212100976228;0.000355583485242;0.0;0.0;0.0;0.0;0.000355583485242;0.00205575665806;0.0;0.0;0.0;0.0;0.0;0.0;0.0;0.0;0.0;0.0;0.0;0.0;0.0;0.0;0.0;0.0;0.0;0.0;0.0;0.0;0.0;0.0;0.0;0.0;0.0;0.0;0.0;0.000642931546024
285525000000;124;285525000000;map;24.942619837;-0.191341269998;0.0;0.0;0.0;-0.0120775744991;0.999927063437;0.0001470362605;0.000154856209788;0.0;0.0;0.0;0.0;0.000154856209788;0.00169266357614;0.0;0.0;0.0;0.0;0.0;0.0;0.0;0.0;0.0;0.0;0.0;0.0;0.0;0.0;0.0;0.0;0.0;0.0;0.0;0.0;0.0;0.0;0.0;0.0;0.0;0.0;0.0;0.000808686410419
285935000000;125;285935000000;map;25.1443554577;-0.204485009086;0.0;0.0;0.0;-0.0125269622173;0.99992153453;0.000239023386143;0.000121479375793;0.0;0.0;0.0;0.0;0.000121479375792;0.0014832767993;0.0;0.0;0.0;0.0;0.0;0.0;0.0;0.0;0.0;0.0;0.0;0.0;0.0;0.0;0.0;0.0;0.0;0.0;0.0;0.0;0.0;0.0;0.0;0.0;0.0;0.0;0.0;0.00116981674569
286338000000;126;286338000000;map;25.3411329073;-0.225003796463;0.0;0.0;0.0;-0.0151148056912;0.9998857648;0.000218790018266;-9.35629192611e-06;0.0;0.0;0.0;0.0;-9.35629192611e-06;0.000684623911931;0.0;0.0;0.0;0.0;0.0;0.0;0.0;0.0;0.0;0.0;0.0;0.0;0.0;0.0;0.0;0.0;0.0;0.0;0.0;0.0;0.0;0.0;0.0;0.0;0.0;0.0;0.0;0.000867689559303
286739000000;127;286739000000;map;25.5471550527;-0.233226884796;0.0;0.0;0.0;-0.0177832761195;0.999841865042;0.000269628765636;-9.41712197244e-05;0.0;0.0;0.0;0.0;-9.41712197244e-05;0.000892539359744;0.0;0.0;0.0;0.0;0.0;0.0;0.0;0.0;0.0;0.0;0.0;0.0;0.0;0.0;0.0;0.0;0.0;0.0;0.0;0.0;0.0;0.0;0.0;0.0;0.0;0.0;0.0;0.000436008911625
287142000000;128;287142000000;map;25.7469955815;-0.23435134096;0.0;0.0;0.0;-0.0163211739276;0.99986680077;0.000322667637533;-3.84095221708e-05;0.0;0.0;0.0;0.0;-3.8409522169e-05;0.00151112937566;0.0;0.0;0.0;0.0;0.0;0.0;0.0;0.0;0.0;0.0;0.0;0.0;0.0;0.0;0.0;0.0;0.0;0.0;0.0;0.0;0.0;0.0;0.0;0.0;0.0;0.0;0.0;0.000552402759123
287545000000;129;287545000000;map;25.9529032445;-0.232719491898;0.0;0.0;0.0;-0.0109597789078;0.99993993982;0.000314894465646;-0.000180210228271;0.0;0.0;0.0;0.0;-0.000180210228271;0.00279074505114;0.0;0.0;0.0;0.0;0.0;0.0;0.0;0.0;0.0;0.0;0.0;0.0;0.0;0.0;0.0;0.0;0.0;0.0;0.0;0.0;0.0;0.0;0.0;0.0;0.0;0.0;0.0;0.00081086618321
287966000000;130;287966000000;map;26.1659530358;-0.227012653215;0.0;0.0;0.0;-0.00684258824151;0.999976589219;0.000298586736449;-0.000194322756467;0.0;0.0;0.0;0.0;-0.000194322756467;0.00409040054283;0.0;0.0;0.0;0.0;0.0;0.0;0.0;0.0;0.0;0.0;0.0;0.0;0.0;0.0;0.0;0.0;0.0;0.0;0.0;0.0;0.0;0.0;0.0;0.0;0.0;0.0;0.0;0.000702719715679
288367000000;131;288367000000;map;26.3734130126;-0.239394523351;0.0;0.0;0.0;-0.0113185294162;0.999935943394;0.000164632265069;-0.00035049269794;0.0;0.0;0.0;0.0;-0.00035049269794;0.0044484889197;0.0;0.0;0.0;0.0;0.0;0.0;0.0;0.0;0.0;0.0;0.0;0.0;0.0;0.0;0.0;0.0;0.0;0.0;0.0;0.0;0.0;0.0;0.0;0.0;0.0;0.0;0.0;0.000691241069071
288787000000;132;288787000000;map;26.5818122491;-0.25129754392;0.0;0.0;0.0;-0.0114981441289;0.999933894156;0.000252645593378;-0.000386284903726;0.0;0.0;0.0;0.0;-0.000386284903726;0.0047152304841;0.0;0.0;0.0;0.0;0.0;0.0;0.0;0.0;0.0;0.0;0.0;0.0;0.0;0.0;0.0;0.0;0.0;0.0;0.0;0.0;0.0;0.0;0.0;0.0;0.0;0.0;0.0;0.000782270021027
289188000000;133;289188000000;map;26.7774933888;-0.235702261194;0.0;0.0;0.0;-0.00745378331351;0.999972220171;0.000270968651989;-0.000454107053537;0.0;0.0;0.0;0.0;-0.000454107053537;0.00557454104009;0.0;0.0;0.0;0.0;0.0;0.0;0.0;0.0;0.0;0.0;0.0;0.0;0.0;0.0;0.0;0.0;0.0;0.0;0.0;0.0;0.0;0.0;0.0;0.0;0.0;0.0;0.0;0.000336316509787
289591000000;134;289591000000;map;26.976507662;-0.221404897517;0.0;0.0;0.0;-0.00563861351081;0.999984102892;0.000196209524802;-0.00018930054847;0.0;0.0;0.0;0.0;-0.00018930054847;0.00599224720038;0.0;0.0;0.0;0.0;0.0;0.0;0.0;0.0;0.0;0.0;0.0;0.0;0.0;0.0;0.0;0.0;0.0;0.0;0.0;0.0;0.0;0.0;0.0;0.0;0.0;0.0;0.0;0.000276674517153
290010000000;135;290010000000;map;27.1866359804;-0.191866747225;0.0;0.0;0.0;-0.00544219471152;0.999985191149;0.000130348629455;0.000172852813352;0.0;0.0;0.0;0.0;0.000172852813352;0.00582312830045;0.0;0.0;0.0;0.0;0.0;0.0;0.0;0.0;0.0;0.0;0.0;0.0;0.0;0.0;0.0;0.0;0.0;0.0;0.0;0.0;0.0;0.0;0.0;0.0;0.0;0.0;0.0;0.000277561904615
290415000000;136;290415000000;map;27.3908603571;-0.178058080623;0.0;0.0;0.0;-0.00488861589444;0.999988050646;0.000168024793993;0.00037674266484;0.0;0.0;0.0;0.0;0.000376742664838;0.00559080551664;0.0;0.0;0.0;0.0;0.0;0.0;0.0;0.0;0.0;0.0;0.0;0.0;0.0;0.0;0.0;0.0;0.0;0.0;0.0;0.0;0.0;0.0;0.0;0.0;0.0;0.0;0.0;0.000403563769477
290834000000;137;290834000000;map;27.5982823162;-0.180023509493;0.0;0.0;0.0;-0.00807585479878;0.999967389753;0.000183190344842;0.00085076151028;0.0;0.0;0.0;0.0;0.000850761510279;0.00658077221447;0.0;0.0;0.0;0.0;0.0;0.0;0.0;0.0;0.0;0.0;0.0;0.0;0.0;0.0;0.0;0.0;0.0;0.0;0.0;0.0;0.0;0.0;0.0;0.0;0.0;0.0;0.0;0.000944515682409
291250000000;138;291250000000;map;27.8056591889;-0.181573459255;0.0;0.0;0.0;-0.00660127182478;0.999978211368;0.00018322262963;0.000938551121322;0.0;0.0;0.0;0.0;0.000938551121321;0.00795337874119;0.0;0.0;0.0;0.0;0.0;0.0;0.0;0.0;0.0;0.0;0.0;0.0;0.0;0.0;0.0;0.0;0.0;0.0;0.0;0.0;0.0;0.0;0.0;0.0;0.0;0.0;0.0;0.000940769130503
291655000000;139;291655000000;map;28.0125076518;-0.162877781598;0.0;0.0;0.0;-0.00337771230162;0.999994295514;0.000153676010882;0.000395105786032;0.0;0.0;0.0;0.0;0.000395105786032;0.00620793565682;0.0;0.0;0.0;0.0;0.0;0.0;0.0;0.0;0.0;0.0;0.0;0.0;0.0;0.0;0.0;0.0;0.0;0.0;0.0;0.0;0.0;0.0;0.0;0.0;0.0;0.0;0.0;0.000704233949952
292074000000;140;292074000000;map;28.2198970367;-0.154743910266;0.0;0.0;0.0;-0.00857442863775;0.999963238911;0.000169026358094;0.000419366187064;0.0;0.0;0.0;0.0;0.000419366187064;0.0044152700419;0.0;0.0;0.0;0.0;0.0;0.0;0.0;0.0;0.0;0.0;0.0;0.0;0.0;0.0;0.0;0.0;0.0;0.0;0.0;0.0;0.0;0.0;0.0;0.0;0.0;0.0;0.0;0.000582694457858
292478000000;141;292478000000;map;28.4199519427;-0.1500049617;0.0;0.0;0.0;-0.00769058062544;0.999970427048;0.000204411164532;0.000343741962123;0.0;0.0;0.0;0.0;0.000343741962123;0.00270410558324;0.0;0.0;0.0;0.0;0.0;0.0;0.0;0.0;0.0;0.0;0.0;0.0;0.0;0.0;0.0;0.0;0.0;0.0;0.0;0.0;0.0;0.0;0.0;0.0;0.0;0.0;0.0;0.000323039171804
292886000000;142;292886000000;map;28.621892827;-0.142948590397;0.0;0.0;0.0;-0.00802084715501;0.999967832488;0.000170939355939;-8.73389034739e-05;0.0;0.0;0.0;0.0;-8.73389034739e-05;0.000118083428991;0.0;0.0;0.0;0.0;0.0;0.0;0.0;0.0;0.0;0.0;0.0;0.0;0.0;0.0;0.0;0.0;0.0;0.0;0.0;0.0;0.0;0.0;0.0;0.0;0.0;0.0;0.0;0.000119438356577
293297000000;143;293297000000;map;28.8286555301;-0.143073931485;0.0;0.0;0.0;-0.00833828559991;0.999965235892;0.000333092660867;-0.000119809975759;0.0;0.0;0.0;0.0;-0.000119809975758;7.31693762642e-05;0.0;0.0;0.0;0.0;0.0;0.0;0.0;0.0;0.0;0.0;0.0;0.0;0.0;0.0;0.0;0.0;0.0;0.0;0.0;0.0;0.0;0.0;0.0;0.0;0.0;0.0;0.0;0.000185520490051
293717000000;144;293717000000;map;29.0448744844;-0.149157757356;0.0;0.0;0.0;-0.00855751515324;0.999963383797;0.000383797467407;-0.000158663160373;0.0;0.0;0.0;0.0;-0.000158663160373;0.000103234399223;0.0;0.0;0.0;0.0;0.0;0.0;0.0;0.0;0.0;0.0;0.0;0.0;0.0;0.0;0.0;0.0;0.0;0.0;0.0;0.0;0.0;0.0;0.0;0.0;0.0;0.0;0.0;0.000362338512158
294120000000;145;294120000000;map;29.2505533406;-0.157761342526;0.0;0.0;0.0;-0.0120011080518;0.99992798411;0.000401281993618;-0.000113687591703;0.0;0.0;0.0;0.0;-0.000113687591703;9.65968559053e-05;0.0;0.0;0.0;0.0;0.0;0.0;0.0;0.0;0.0;0.0;0.0;0.0;0.0;0.0;0.0;0.0;0.0;0.0;0.0;0.0;0.0;0.0;0.0;0.0;0.0;0.0;0.0;0.000343823124142
294521000000;146;294521000000;map;29.4511388571;-0.165354284121;0.0;0.0;0.0;-0.012524929793;0.99992155999;0.0004312923827;-3.34298635618e-05;0.0;0.0;0.0;0.0;-3.34298635618e-05;4.65678846861e-05;0.0;0.0;0.0;0.0;0.0;0.0;0.0;0.0;0.0;0.0;0.0;0.0;0.0;0.0;0.0;0.0;0.0;0.0;0.0;0.0;0.0;0.0;0.0;0.0;0.0;0.0;0.0;0.000264178628936
294940000000;147;294940000000;map;29.663493264;-0.171927037227;0.0;0.0;0.0;-0.0133767511654;0.999910527261;0.000533487628331;4.68375501699e-05;0.0;0.0;0.0;0.0;4.68375501717e-05;5.71056642984e-05;0.0;0.0;0.0;0.0;0.0;0.0;0.0;0.0;0.0;0.0;0.0;0.0;0.0;0.0;0.0;0.0;0.0;0.0;0.0;0.0;0.0;0.0;0.0;0.0;0.0;0.0;0.0;0.000287356537002
295341000000;148;295341000000;map;29.8641471495;-0.174464338872;0.0;0.0;0.0;-0.0124078750481;0.999923019355;0.000432569641248;6.0487323486e-05;0.0;0.0;0.0;0.0;6.0487323486e-05;7.80880766922e-05;0.0;0.0;0.0;0.0;0.0;0.0;0.0;0.0;0.0;0.0;0.0;0.0;0.0;0.0;0.0;0.0;0.0;0.0;0.0;0.0;0.0;0.0;0.0;0.0;0.0;0.0;0.0;0.000278750886042
295743000000;149;295743000000;map;30.0665868836;-0.177837793212;0.0;0.0;0.0;-0.0107187090176;0.999942552988;0.000652364078633;0.000117138585975;0.0;0.0;0.0;0.0;0.000117138585976;9.54482459446e-05;0.0;0.0;0.0;0.0;0.0;0.0;0.0;0.0;0.0;0.0;0.0;0.0;0.0;0.0;0.0;0.0;0.0;0.0;0.0;0.0;0.0;0.0;0.0;0.0;0.0;0.0;0.0;0.000129549145222
296145000000;150;296145000000;map;30.2631815418;-0.185840075002;0.0;0.0;0.0;-0.0102126975221;0.999947849045;0.000692234978374;0.000164983559004;0.0;0.0;0.0;0.0;0.000164983559004;8.71180708114e-05;0.0;0.0;0.0;0.0;0.0;0.0;0.0;0.0;0.0;0.0;0.0;0.0;0.0;0.0;0.0;0.0;0.0;0.0;0.0;0.0;0.0;0.0;0.0;0.0;0.0;0.0;0.0;0.000149867692062
296551000000;151;296551000000;map;30.4595175217;-0.19320368704;0.0;0.0;0.0;-0.00916684733869;0.999957983572;0.000465550236186;0.000167120364403;0.0;0.0;0.0;0.0;0.000167120364403;9.72164561155e-05;0.0;0.0;0.0;0.0;0.0;0.0;0.0;0.0;0.0;0.0;0.0;0.0;0.0;0.0;0.0;0.0;0.0;0.0;0.0;0.0;0.0;0.0;0.0;0.0;0.0;0.0;0.0;0.000244745783213
296959000000;152;296959000000;map;30.6623374122;-0.201033312559;0.0;0.0;0.0;-0.0102419723337;0.999947549626;0.000445485546265;4.62790569502e-05;0.0;0.0;0.0;0.0;4.62790569502e-05;3.05460773594e-05;0.0;0.0;0.0;0.0;0.0;0.0;0.0;0.0;0.0;0.0;0.0;0.0;0.0;0.0;0.0;0.0;0.0;0.0;0.0;0.0;0.0;0.0;0.0;0.0;0.0;0.0;0.0;0.00020009986448
297362000000;153;297362000000;map;30.8556119933;-0.202053186097;0.0;0.0;0.0;-0.00539478868399;0.999985448022;0.000432564800349;2.37599327981e-05;0.0;0.0;0.0;0.0;2.37599327972e-05;6.10369612048e-05;0.0;0.0;0.0;0.0;0.0;0.0;0.0;0.0;0.0;0.0;0.0;0.0;0.0;0.0;0.0;0.0;0.0;0.0;0.0;0.0;0.0;0.0;0.0;0.0;0.0;0.0;0.0;0.000300203629008
297765000000;154;297765000000;map;31.0547156703;-0.205054733576;0.0;0.0;0.0;-0.00586735507503;0.999982786924;0.000484637762042;4.37577947539e-05;0.0;0.0;0.0;0.0;4.37577947539e-05;6.58853881653e-05;0.0;0.0;0.0;0.0;0.0;0.0;0.0;0.0;0.0;0.0;0.0;0.0;0.0;0.0;0.0;0.0;0.0;0.0;0.0;0.0;0.0;0.0;0.0;0.0;0.0;0.0;0.0;0.000190186649016
298170000000;155;298170000000;map;31.2574975244;-0.206322400982;0.0;0.0;0.0;-0.00591341364979;0.999982515617;0.000414832113961;5.14062378105e-05;0.0;0.0;0.0;0.0;5.14062378105e-05;5.30902511424e-05;0.0;0.0;0.0;0.0;0.0;0.0;0.0;0.0;0.0;0.0;0.0;0.0;0.0;0.0;0.0;0.0;0.0;0.0;0.0;0.0;0.0;0.0;0.0;0.0;0.0;0.0;0.0;0.000185630391702
298574000000;156;298574000000;map;31.4538855675;-0.209787418951;0.0;0.0;0.0;-0.00436586133586;0.999990469582;0.00033778605075;6.28877553766e-05;0.0;0.0;0.0;0.0;6.28877553757e-05;8.18412000015e-05;0.0;0.0;0.0;0.0;0.0;0.0;0.0;0.0;0.0;0.0;0.0;0.0;0.0;0.0;0.0;0.0;0.0;0.0;0.0;0.0;0.0;0.0;0.0;0.0;0.0;0.0;0.0;0.000268340861175
298980000000;157;298980000000;map;31.6529333383;-0.214260945356;0.0;0.0;0.0;-0.00611609556706;0.999981296513;0.000236919384065;-1.83472402453e-05;0.0;0.0;0.0;0.0;-1.83472402453e-05;0.000123688196987;0.0;0.0;0.0;0.0;0.0;0.0;0.0;0.0;0.0;0.0;0.0;0.0;0.0;0.0;0.0;0.0;0.0;0.0;0.0;0.0;0.0;0.0;0.0;0.0;0.0;0.0;0.0;0.000327288037588
299380000000;158;299380000000;map;31.8527736242;-0.213893462929;0.0;0.0;0.0;-0.00727218187039;0.999973557336;0.000200432977863;-1.4865756774e-05;0.0;0.0;0.0;0.0;-1.48657567731e-05;0.000179766710787;0.0;0.0;0.0;0.0;0.0;0.0;0.0;0.0;0.0;0.0;0.0;0.0;0.0;0.0;0.0;0.0;0.0;0.0;0.0;0.0;0.0;0.0;0.0;0.0;0.0;0.0;0.0;0.000351251339798
299781000000;159;299781000000;map;32.0567089391;-0.219868218336;0.0;0.0;0.0;-0.00843569021497;0.999964418932;0.000276476558611;-2.82253348773e-05;0.0;0.0;0.0;0.0;-2.82253348773e-05;0.00028213724893;0.0;0.0;0.0;0.0;0.0;0.0;0.0;0.0;0.0;0.0;0.0;0.0;0.0;0.0;0.0;0.0;0.0;0.0;0.0;0.0;0.0;0.0;0.0;0.0;0.0;0.0;0.0;0.00051110925033
300200000000;160;300200000000;map;32.2779045691;-0.229511709733;0.0;0.0;0.0;-0.00891418944393;0.999960267824;0.000459471073782;-0.000157371078946;0.0;0.0;0.0;0.0;-0.000157371078946;0.00040119673116;0.0;0.0;0.0;0.0;0.0;0.0;0.0;0.0;0.0;0.0;0.0;0.0;0.0;0.0;0.0;0.0;0.0;0.0;0.0;0.0;0.0;0.0;0.0;0.0;0.0;0.0;0.0;0.000370154925558
300606000000;161;300606000000;map;32.4899603182;-0.236816036662;0.0;0.0;0.0;-0.0119215634358;0.999928935638;0.000558738951213;-0.000184023662833;0.0;0.0;0.0;0.0;-0.000184023662833;0.000415642900149;0.0;0.0;0.0;0.0;0.0;0.0;0.0;0.0;0.0;0.0;0.0;0.0;0.0;0.0;0.0;0.0;0.0;0.0;0.0;0.0;0.0;0.0;0.0;0.0;0.0;0.0;0.0;0.00029029493068
301026000000;162;301026000000;map;32.6910889785;-0.232478271481;0.0;0.0;0.0;-0.00980546295682;0.999951925293;0.00060210048764;-0.000231385858579;0.0;0.0;0.0;0.0;-0.000231385858579;0.000941671088219;0.0;0.0;0.0;0.0;0.0;0.0;0.0;0.0;0.0;0.0;0.0;0.0;0.0;0.0;0.0;0.0;0.0;0.0;0.0;0.0;0.0;0.0;0.0;0.0;0.0;0.0;0.0;0.000715569520958
301433000000;163;301433000000;map;32.8920400704;-0.230569998068;0.0;0.0;0.0;-0.0104085448971;0.999945829629;0.000694083232474;-0.000323638977449;0.0;0.0;0.0;0.0;-0.00032363897745;0.000899018148796;0.0;0.0;0.0;0.0;0.0;0.0;0.0;0.0;0.0;0.0;0.0;0.0;0.0;0.0;0.0;0.0;0.0;0.0;0.0;0.0;0.0;0.0;0.0;0.0;0.0;0.0;0.0;0.000819817817904
301834000000;164;301834000000;map;33.0938267815;-0.243169606761;0.0;0.0;0.0;-0.0140157066706;0.999901775159;0.000815661981278;-0.000291595843018;0.0;0.0;0.0;0.0;-0.000291595843018;0.000770058928477;0.0;0.0;0.0;0.0;0.0;0.0;0.0;0.0;0.0;0.0;0.0;0.0;0.0;0.0;0.0;0.0;0.0;0.0;0.0;0.0;0.0;0.0;0.0;0.0;0.0;0.0;0.0;0.000856964343329
302263000000;165;302263000000;map;33.3065307839;-0.245278061282;0.0;0.0;0.0;-0.0112683228486;0.999936510435;0.000708370384928;-0.00040758303207;0.0;0.0;0.0;0.0;-0.00040758303207;0.000880409569751;0.0;0.0;0.0;0.0;0.0;0.0;0.0;0.0;0.0;0.0;0.0;0.0;0.0;0.0;0.0;0.0;0.0;0.0;0.0;0.0;0.0;0.0;0.0;0.0;0.0;0.0;0.0;0.000550953428148
302670000000;166;302670000000;map;33.504259801;-0.239613063202;0.0;0.0;0.0;-0.00872810786328;0.999961909341;0.000529627831838;-0.000447653979004;0.0;0.0;0.0;0.0;-0.000447653979002;0.000582206128903;0.0;0.0;0.0;0.0;0.0;0.0;0.0;0.0;0.0;0.0;0.0;0.0;0.0;0.0;0.0;0.0;0.0;0.0;0.0;0.0;0.0;0.0;0.0;0.0;0.0;0.0;0.0;0.000136046554902
303071000000;167;303071000000;map;33.6974128719;-0.237261965988;0.0;0.0;0.0;-0.00657004362354;0.99997841703;0.00032966379149;-0.000258547388016;0.0;0.0;0.0;0.0;-0.000258547388016;0.000411047902579;0.0;0.0;0.0;0.0;0.0;0.0;0.0;0.0;0.0;0.0;0.0;0.0;0.0;0.0;0.0;0.0;0.0;0.0;0.0;0.0;0.0;0.0;0.0;0.0;0.0;0.0;0.0;0.000137903180203
303492000000;168;303492000000;map;33.9065153591;-0.239966162422;0.0;0.0;0.0;-0.0057691519753;0.999983358304;0.000366433874206;-0.000249270800705;0.0;0.0;0.0;0.0;-0.000249270800705;0.000425951695208;0.0;0.0;0.0;0.0;0.0;0.0;0.0;0.0;0.0;0.0;0.0;0.0;0.0;0.0;0.0;0.0;0.0;0.0;0.0;0.0;0.0;0.0;0.0;0.0;0.0;0.0;0.0;0.000283982083592
303893000000;169;303893000000;map;34.1066299434;-0.243706532293;0.0;0.0;0.0;-0.00445588256845;0.999990072506;0.000312175965291;-9.78877528546e-05;0.0;0.0;0.0;0.0;-9.78877528546e-05;0.000465807495917;0.0;0.0;0.0;0.0;0.0;0.0;0.0;0.0;0.0;0.0;0.0;0.0;0.0;0.0;0.0;0.0;0.0;0.0;0.0;0.0;0.0;0.0;0.0;0.0;0.0;0.0;0.0;0.000537500343286
304313000000;170;304313000000;map;34.3190934416;-0.246773882983;0.0;0.0;0.0;-0.0038110639752;0.999992737869;0.000347243485749;4.44115517091e-05;0.0;0.0;0.0;0.0;4.44115517091e-05;0.000481398800027;0.0;0.0;0.0;0.0;0.0;0.0;0.0;0.0;0.0;0.0;0.0;0.0;0.0;0.0;0.0;0.0;0.0;0.0;0.0;0.0;0.0;0.0;0.0;0.0;0.0;0.0;0.0;0.000585360147844
304714000000;171;304714000000;map;34.5247790126;-0.245808164772;0.0;0.0;0.0;-0.00345339787155;0.999994037004;0.000393375181375;0.000296599255138;0.0;0.0;0.0;0.0;0.000296599255142;0.0006616986987;0.0;0.0;0.0;0.0;0.0;0.0;0.0;0.0;0.0;0.0;0.0;0.0;0.0;0.0;0.0;0.0;0.0;0.0;0.0;0.0;0.0;0.0;0.0;0.0;0.0;0.0;0.0;0.000590324295653
305124000000;172;305124000000;map;34.7302343132;-0.248249020689;0.0;0.0;0.0;-0.00260890279108;0.999996596807;0.000323373440096;0.000416811215326;0.0;0.0;0.0;0.0;0.000416811215326;0.00123930917439;0.0;0.0;0.0;0.0;0.0;0.0;0.0;0.0;0.0;0.0;0.0;0.0;0.0;0.0;0.0;0.0;0.0;0.0;0.0;0.0;0.0;0.0;0.0;0.0;0.0;0.0;0.0;0.000736200452606
305525000000;173;305525000000;map;34.9255077534;-0.256348398878;0.0;0.0;0.0;-0.00401485603138;0.999991940433;0.000342110153724;0.000589146362895;0.0;0.0;0.0;0.0;0.000589146362895;0.00158202198906;0.0;0.0;0.0;0.0;0.0;0.0;0.0;0.0;0.0;0.0;0.0;0.0;0.0;0.0;0.0;0.0;0.0;0.0;0.0;0.0;0.0;0.0;0.0;0.0;0.0;0.0;0.0;0.000757540416654
305928000000;174;305928000000;map;35.1284896278;-0.253043614156;0.0;0.0;0.0;-0.00180480215113;0.999998371343;0.000322498968444;0.000597189140151;0.0;0.0;0.0;0.0;0.000597189140151;0.00166747532985;0.0;0.0;0.0;0.0;0.0;0.0;0.0;0.0;0.0;0.0;0.0;0.0;0.0;0.0;0.0;0.0;0.0;0.0;0.0;0.0;0.0;0.0;0.0;0.0;0.0;0.0;0.0;0.000550518877481
306329000000;175;306329000000;map;35.3274893152;-0.260438127026;0.0;0.0;0.0;-0.00364895986535;0.999993342524;0.000326375890381;0.000527376063364;0.0;0.0;0.0;0.0;0.000527376063364;0.00123439854871;0.0;0.0;0.0;0.0;0.0;0.0;0.0;0.0;0.0;0.0;0.0;0.0;0.0;0.0;0.0;0.0;0.0;0.0;0.0;0.0;0.0;0.0;0.0;0.0;0.0;0.0;0.0;0.000378696660108
306756000000;176;306756000000;map;35.5374956991;-0.256546927697;0.0;0.0;0.0;-0.00215480075772;0.999997678414;0.000410026919326;0.000654244508899;0.0;0.0;0.0;0.0;0.000654244508901;0.00167868683337;0.0;0.0;0.0;0.0;0.0;0.0;0.0;0.0;0.0;0.0;0.0;0.0;0.0;0.0;0.0;0.0;0.0;0.0;0.0;0.0;0.0;0.0;0.0;0.0;0.0;0.0;0.0;0.000732241341361
307197000000;177;307197000000;map;35.75884652;-0.258217566824;0.0;0.0;0.0;-0.00410492480708;0.999991574761;0.000578562416649;0.000772185261397;0.0;0.0;0.0;0.0;0.000772185261397;0.00170258158711;0.0;0.0;0.0;0.0;0.0;0.0;0.0;0.0;0.0;0.0;0.0;0.0;0.0;0.0;0.0;0.0;0.0;0.0;0.0;0.0;0.0;0.0;0.0;0.0;0.0;0.0;0.0;0.000573216343856
307615000000;178;307615000000;map;35.9742658669;-0.251170538269;0.0;0.0;0.0;-0.00477117005152;0.999988617903;0.000572352692643;0.000550007378996;0.0;0.0;0.0;0.0;0.000550007378996;0.00154786144544;0.0;0.0;0.0;0.0;0.0;0.0;0.0;0.0;0.0;0.0;0.0;0.0;0.0;0.0;0.0;0.0;0.0;0.0;0.0;0.0;0.0;0.0;0.0;0.0;0.0;0.0;0.0;0.000692160482226
308016000000;179;308016000000;map;36.1812968948;-0.249129683416;0.0;0.0;0.0;-0.00545312163031;0.999985131622;0.000533649123781;0.000320324796878;0.0;0.0;0.0;0.0;0.000320324796878;0.00142459582238;0.0;0.0;0.0;0.0;0.0;0.0;0.0;0.0;0.0;0.0;0.0;0.0;0.0;0.0;0.0;0.0;0.0;0.0;0.0;0.0;0.0;0.0;0.0;0.0;0.0;0.0;0.0;0.000436081584807
308424000000;180;308424000000;map;36.3946007614;-0.241529041048;0.0;0.0;0.0;-0.00678141510846;0.99997700594;0.000369684624275;-0.000282989956498;0.0;0.0;0.0;0.0;-0.000282989956498;0.00114005795139;0.0;0.0;0.0;0.0;0.0;0.0;0.0;0.0;0.0;0.0;0.0;0.0;0.0;0.0;0.0;0.0;0.0;0.0;0.0;0.0;0.0;0.0;0.0;0.0;0.0;0.0;0.0;0.000457803379773
308825000000;181;308825000000;map;36.5918349752;-0.244024708619;0.0;0.0;0.0;-0.00803806764588;0.999967694212;0.000411044653674;-0.000192138342948;0.0;0.0;0.0;0.0;-0.000192138342948;0.00140727535925;0.0;0.0;0.0;0.0;0.0;0.0;0.0;0.0;0.0;0.0;0.0;0.0;0.0;0.0;0.0;0.0;0.0;0.0;0.0;0.0;0.0;0.0;0.0;0.0;0.0;0.0;0.0;0.000542134644206
310240000000;182;310240000000;map;36.765875709;-0.247073238496;0.0;0.0;0.0;0.117108208203;0.993119160812;0.000415639073026;-0.000181229801843;0.0;0.0;0.0;0.0;-0.000181229801843;0.00154955565959;0.0;0.0;0.0;0.0;0.0;0.0;0.0;0.0;0.0;0.0;0.0;0.0;0.0;0.0;0.0;0.0;0.0;0.0;0.0;0.0;0.0;0.0;0.0;0.0;0.0;0.0;0.0;0.000842358923378
311366000000;183;311366000000;map;36.762976464;-0.242796188787;0.0;0.0;0.0;0.244054963444;0.969761400974;0.000322256969866;-0.000329480177122;0.0;0.0;0.0;0.0;-0.000329480177122;0.00120671096292;0.0;0.0;0.0;0.0;0.0;0.0;0.0;0.0;0.0;0.0;0.0;0.0;0.0;0.0;0.0;0.0;0.0;0.0;0.0;0.0;0.0;0.0;0.0;0.0;0.0;0.0;0.0;0.00105723817783
312476000000;184;312476000000;map;36.7595561682;-0.246202544103;0.0;0.0;0.0;0.36010825033;0.932910525208;0.000460307543563;-0.000186510342218;0.0;0.0;0.0;0.0;-0.000186510342218;0.00135522278514;0.0;0.0;0.0;0.0;0.0;0.0;0.0;0.0;0.0;0.0;0.0;0.0;0.0;0.0;0.0;0.0;0.0;0.0;0.0;0.0;0.0;0.0;0.0;0.0;0.0;0.0;0.0;0.00116472045835
313600000000;185;313600000000;map;36.7603481536;-0.243994485197;0.0;0.0;0.0;0.475022585808;0.879973603565;0.000509172901275;-0.000194518176279;0.0;0.0;0.0;0.0;-0.000194518176279;0.0012730969067;0.0;0.0;0.0;0.0;0.0;0.0;0.0;0.0;0.0;0.0;0.0;0.0;0.0;0.0;0.0;0.0;0.0;0.0;0.0;0.0;0.0;0.0;0.0;0.0;0.0;0.0;0.0;0.00138163491838
314663000000;186;314663000000;map;36.7569945392;-0.24238584518;0.0;0.0;0.0;0.583355648287;0.812216835341;0.000553997995212;-0.000136143698299;0.0;0.0;0.0;0.0;-0.000136143698301;0.00101799328954;0.0;0.0;0.0;0.0;0.0;0.0;0.0;0.0;0.0;0.0;0.0;0.0;0.0;0.0;0.0;0.0;0.0;0.0;0.0;0.0;0.0;0.0;0.0;0.0;0.0;0.0;0.0;0.00159897381356
315729000000;187;315729000000;map;36.7580312542;-0.238335552572;0.0;0.0;0.0;0.677976228596;0.735083827505;0.000526848159097;-5.61583474692e-05;0.0;0.0;0.0;0.0;-5.61583474692e-05;0.000867299885092;0.0;0.0;0.0;0.0;0.0;0.0;0.0;0.0;0.0;0.0;0.0;0.0;0.0;0.0;0.0;0.0;0.0;0.0;0.0;0.0;0.0;0.0;0.0;0.0;0.0;0.0;0.0;0.00195145726274
317058000000;188;317058000000;map;36.7509571743;-0.0260968423594;0.0;0.0;0.0;0.727328558565;0.686289419921;0.000606785554055;-0.000288477636454;0.0;0.0;0.0;0.0;-0.000288477636454;0.00056935734841;0.0;0.0;0.0;0.0;0.0;0.0;0.0;0.0;0.0;0.0;0.0;0.0;0.0;0.0;0.0;0.0;0.0;0.0;0.0;0.0;0.0;0.0;0.0;0.0;0.0;0.0;0.0;0.0016071152156
317479000000;189;317479000000;map;36.7309894697;0.189300055708;0.0;0.0;0.0;0.726105428308;0.687583381839;0.000519498669973;-0.000206728868234;0.0;0.0;0.0;0.0;-0.000206728868234;0.000374195764741;0.0;0.0;0.0;0.0;0.0;0.0;0.0;0.0;0.0;0.0;0.0;0.0;0.0;0.0;0.0;0.0;0.0;0.0;0.0;0.0;0.0;0.0;0.0;0.0;0.0;0.0;0.0;0.00134091443248
317886000000;190;317886000000;map;36.7225038628;0.395531002098;0.0;0.0;0.0;0.725983791953;0.687711810152;0.000844626783191;-0.000404151083448;0.0;0.0;0.0;0.0;-0.000404151083448;0.000584730866549;0.0;0.0;0.0;0.0;0.0;0.0;0.0;0.0;0.0;0.0;0.0;0.0;0.0;0.0;0.0;0.0;0.0;0.0;0.0;0.0;0.0;0.0;0.0;0.0;0.0;0.0;0.0;0.00177460728594
318288000000;191;318288000000;map;36.7034317141;0.602410446758;0.0;0.0;0.0;0.727006233109;0.686630859357;0.000752676139655;-0.000305949802918;0.0;0.0;0.0;0.0;-0.000305949802925;0.000638255083028;0.0;0.0;0.0;0.0;0.0;0.0;0.0;0.0;0.0;0.0;0.0;0.0;0.0;0.0;0.0;0.0;0.0;0.0;0.0;0.0;0.0;0.0;0.0;0.0;0.0;0.0;0.0;0.000954298442979
318692000000;192;318692000000;map;36.6981541651;0.80742016398;0.0;0.0;0.0;0.724752945307;0.689008830327;0.000688639607688;-0.000559802126979;0.0;0.0;0.0;0.0;-0.000559802126975;0.00082368118159;0.0;0.0;0.0;0.0;0.0;0.0;0.0;0.0;0.0;0.0;0.0;0.0;0.0;0.0;0.0;0.0;0.0;0.0;0.0;0.0;0.0;0.0;0.0;0.0;0.0;0.0;0.0;0.000497904322042
319114000000;193;319114000000;map;36.6841366292;1.01509315106;0.0;0.0;0.0;0.724552780217;0.689219318272;0.000551907694444;-0.000280796832733;0.0;0.0;0.0;0.0;-0.000280796832733;0.000492183869728;0.0;0.0;0.0;0.0;0.0;0.0;0.0;0.0;0.0;0.0;0.0;0.0;0.0;0.0;0.0;0.0;0.0;0.0;0.0;0.0;0.0;0.0;0.0;0.0;0.0;0.0;0.0;0.000457495876216
319521000000;194;319521000000;map;36.6730342317;1.21873320254;0.0;0.0;0.0;0.725899466702;0.687800817273;0.000660400065499;-0.000309862874104;0.0;0.0;0.0;0.0;-0.000309862874104;0.000540824487822;0.0;0.0;0.0;0.0;0.0;0.0;0.0;0.0;0.0;0.0;0.0;0.0;0.0;0.0;0.0;0.0;0.0;0.0;0.0;0.0;0.0;0.0;0.0;0.0;0.0;0.0;0.0;0.000536520987599
319924000000;195;319924000000;map;36.6549712051;1.43262185098;0.0;0.0;0.0;0.727413809621;0.686199059729;0.000546951131582;-0.000436300724147;0.0;0.0;0.0;0.0;-0.000436300724154;0.000833538779142;0.0;0.0;0.0;0.0;0.0;0.0;0.0;0.0;0.0;0.0;0.0;0.0;0.0;0.0;0.0;0.0;0.0;0.0;0.0;0.0;0.0;0.0;0.0;0.0;0.0;0.0;0.0;0.000866426531358
320326000000;196;320326000000;map;36.6481436259;1.62582849618;0.0;0.0;0.0;0.726121922167;0.687565963489;0.000533152719527;-0.000231904635385;0.0;0.0;0.0;0.0;-0.000231904635392;0.000524089856473;0.0;0.0;0.0;0.0;0.0;0.0;0.0;0.0;0.0;0.0;0.0;0.0;0.0;0.0;0.0;0.0;0.0;0.0;0.0;0.0;0.0;0.0;0.0;0.0;0.0;0.0;0.0;0.000733034189869
320747000000;197;320747000000;map;36.6318094587;1.83436016608;0.0;0.0;0.0;0.72729973161;0.686319969402;0.000482375116235;-0.000124918414173;0.0;0.0;0.0;0.0;-0.000124918414173;0.000342535378011;0.0;0.0;0.0;0.0;0.0;0.0;0.0;0.0;0.0;0.0;0.0;0.0;0.0;0.0;0.0;0.0;0.0;0.0;0.0;0.0;0.0;0.0;0.0;0.0;0.0;0.0;0.0;0.000625053733495
322615000000;198;322615000000;map;36.6254639229;2.0397216451;0.0;0.0;0.0;0.694674498671;0.719324225156;0.000599597036626;-0.000224166045541;0.0;0.0;0.0;0.0;-0.000224166045541;0.000386156870232;0.0;0.0;0.0;0.0;0.0;0.0;0.0;0.0;0.0;0.0;0.0;0.0;0.0;0.0;0.0;0.0;0.0;0.0;0.0;0.0;0.0;0.0;0.0;0.0;0.0;0.0;0.0;0.000767802228095
323017000000;199;323017000000;map;36.637419574;2.24276103546;0.0;0.0;0.0;0.690953810236;0.722898908645;0.000845201654556;-0.000262208277576;0.0;0.0;0.0;0.0;-0.00026220827759;0.000406088582037;0.0;0.0;0.0;0.0;0.0;0.0;0.0;0.0;0.0;0.0;0.0;0.0;0.0;0.0;0.0;0.0;0.0;0.0;0.0;0.0;0.0;0.0;0.0;0.0;0.0;0.0;0.0;0.000804192502914
323422000000;200;323422000000;map;36.6530485203;2.44474078625;0.0;0.0;0.0;0.688008510612;0.725702617692;0.00115117796531;-0.000285672128257;0.0;0.0;0.0;0.0;-0.000285672128257;0.000459213254816;0.0;0.0;0.0;0.0;0.0;0.0;0.0;0.0;0.0;0.0;0.0;0.0;0.0;0.0;0.0;0.0;0.0;0.0;0.0;0.0;0.0;0.0;0.0;0.0;0.0;0.0;0.0;0.000872301844203
