%time;field.header.seq;field.header.stamp;field.header.frame_id;field.child_frame_id;field.pose.pose.position.x;field.pose.pose.position.y;field.pose.pose.position.z;field.pose.pose.orientation.x;field.pose.pose.orientation.y;field.pose.pose.orientation.z;field.pose.pose.orientation.w;field.pose.covariance0;field.pose.covariance1;field.pose.covariance2;field.pose.covariance3;field.pose.covariance4;field.pose.covariance5;field.pose.covariance6;field.pose.covariance7;field.pose.covariance8;field.pose.covariance9;field.pose.covariance10;field.pose.covariance11;field.pose.covariance12;field.pose.covariance13;field.pose.covariance14;field.pose.covariance15;field.pose.covariance16;field.pose.covariance17;field.pose.covariance18;field.pose.covariance19;field.pose.covariance20;field.pose.covariance21;field.pose.covariance22;field.pose.covariance23;field.pose.covariance24;field.pose.covariance25;field.pose.covariance26;field.pose.covariance27;field.pose.covariance28;field.pose.covariance29;field.pose.covariance30;field.pose.covariance31;field.pose.covariance32;field.pose.covariance33;field.pose.covariance34;field.pose.covariance35;field.twist.twist.linear.x;field.twist.twist.linear.y;field.twist.twist.linear.z;field.twist.twist.angular.x;field.twist.twist.angular.y;field.twist.twist.angular.z;field.twist.covariance0;field.twist.covariance1;field.twist.covariance2;field.twist.covariance3;field.twist.covariance4;field.twist.covariance5;field.twist.covariance6;field.twist.covariance7;field.twist.covariance8;field.twist.covariance9;field.twist.covariance10;field.twist.covariance11;field.twist.covariance12;field.twist.covariance13;field.twist.covariance14;field.twist.covariance15;field.twist.covariance16;field.twist.covariance17;field.twist.covariance18;field.twist.covariance19;field.twist.covariance20;field.twist.covariance21;field.twist.covariance22;field.twist.covariance23;field.twist.covariance24;field.twist.covariance25;field.twist.covariance26;field.twist.covariance27;field.twist.covariance28;field.twist.covariance29;field.twist.covariance30;field.twist.covariance31;field.twist.covariance32;field.twist.covariance33;field.twist.covariance34;field.twist.covariance35
257691000000;12498;257691000000;odom;base_link;0.000721459049309;1.68028326629e-07;0.0;0.0;0.0;0.000147417086888;0.999999989134;12.8761613936;-6.01118217827e-10;0.0;0.0;0.0;-1.34534532875e-06;-6.01118217827e-10;12.8761637919;0.0;0.0;0.0;0.00526028632042;0.0;0.0;9.98488283285e-07;-1.73355614652e-28;-6.59716973161e-20;0.0;0.0;0.0;-1.73355614652e-28;9.96983400914e-07;-2.1523590646e-35;0.0;0.0;0.0;-6.59716973161e-20;2.15086982454e-35;9.96983400914e-07;0.0;-1.34534532875e-06;0.00526028632042;0.0;0.0;0.0;15.4447572866;2.63515582837e-06;0.0;0.0;0.0;0.0;2.37150725539e-07;0.000506230346676;0.0;0.0;0.0;0.0;0.0;0.0;0.000506230346676;0.0;0.0;0.0;0.0;0.0;0.0;9.97734991098e-07;-1.17433491157e-32;-3.98303412233e-29;0.0;0.0;0.0;-1.17433491157e-32;9.9103117033e-07;-1.31921639619e-39;0.0;0.0;0.0;-3.98303412233e-29;1.31921639618e-39;9.9103117033e-07;0.0;0.0;0.0;0.0;0.0;0.0;0.000218399397098
257700000000;12499;257700000000;odom;base_link;0.00072148276571;1.68035319035e-07;0.0;0.0;0.0;0.000147418677378;0.999999989134;12.8766117142;-6.01186909194e-10;0.0;0.0;0.0;-1.34545332476e-06;-6.01186909194e-10;12.8766141128;0.0;0.0;0.0;0.00526065261449;0.0;0.0;4.99538318263e-07;-8.5819098887e-29;-4.02082814551e-20;0.0;0.0;0.0;-8.5819098887e-29;4.99079179725e-07;-1.35709828562e-36;0.0;0.0;0.0;-4.02082814551e-20;1.34206640498e-36;4.99079179725e-07;0.0;-1.34545332476e-06;0.00526065261449;0.0;0.0;0.0;15.4452972946;2.63515582668e-06;0.0;0.0;0.0;0.0;4.49285466166e-07;0.000738187953395;0.0;0.0;0.0;0.0;0.0;0.0;0.000738187953395;0.0;0.0;0.0;0.0;0.0;0.0;4.99308432887e-07;-2.85800286671e-32;-9.69352310412e-29;0.0;0.0;0.0;-2.85800286671e-32;4.97267491714e-07;-2.63774925618e-37;0.0;0.0;0.0;-9.69352310412e-29;2.63774925618e-37;4.97267491714e-07;0.0;0.0;0.0;0.0;0.0;0.0;9.99957491763e-10
257731000000;12500;257731000000;odom;base_link;0.000721564455537;1.68059404633e-07;0.0;0.0;0.0;0.000147426031297;0.999999989133;12.878162249;-6.01423555396e-10;0.0;0.0;0.0;-1.34582534885e-06;-6.01423555396e-10;12.8781646485;0.0;0.0;0.0;0.00526191438859;0.0;0.0;9.98488283285e-07;-3.62170325621e-28;-6.59716971963e-20;0.0;0.0;0.0;-3.62170325621e-28;9.96983400914e-07;-1.30401245028e-38;0.0;0.0;0.0;-6.59716971963e-20;-1.86180694674e-38;9.96983400914e-07;0.0;-1.34582534885e-06;0.00526191438859;0.0;0.0;0.0;15.4471573026;2.63515582229e-06;0.0;0.0;0.0;0.0;4.95444178011e-07;0.000506230335272;0.0;0.0;0.0;0.0;0.0;0.0;0.000506230335272;0.0;0.0;0.0;0.0;0.0;0.0;9.97734991098e-07;-1.17440628918e-32;-3.98303411508e-29;0.0;0.0;0.0;-1.17440628918e-32;9.9103117033e-07;-5.99654688625e-37;0.0;0.0;0.0;-3.98303411508e-29;5.99654688625e-37;9.9103117033e-07;0.0;0.0;0.0;0.0;0.0;0.0;0.000218399397098
257751000000;12501;257751000000;odom;base_link;0.000721617158651;1.6807494438e-07;0.0;0.0;0.0;0.000147430749164;0.999999989132;12.8791626767;-6.01576266055e-10;0.0;0.0;0.0;-1.34606539838e-06;-6.01576266055e-10;12.8791650767;0.0;0.0;0.0;0.00526272851753;0.0;0.0;9.98488283285e-07;-3.37989887534e-28;-6.59716971151e-20;0.0;0.0;0.0;-3.37989887534e-28;9.96983400914e-07;-1.08971099791e-35;0.0;0.0;0.0;-6.59716971151e-20;1.08675654564e-35;9.96983400914e-07;0.0;-1.34606539838e-06;0.00526272851753;0.0;0.0;0.0;15.4483573106;2.63515581698e-06;0.0;0.0;0.0;0.0;4.6236596191e-07;0.000506230329783;0.0;0.0;0.0;0.0;0.0;0.0;0.000506230329783;0.0;0.0;0.0;0.0;0.0;0.0;9.97734991098e-07;-1.17444385635e-32;-3.98303411016e-29;0.0;0.0;0.0;-1.17444385635e-32;9.9103117033e-07;-4.92488460125e-37;0.0;0.0;0.0;-3.98303411016e-29;4.92488460125e-37;9.9103117033e-07;0.0;0.0;0.0;0.0;0.0;0.0;0.000218399397098
257771000000;12502;257771000000;odom;base_link;0.000721669861765;1.68090484674e-07;0.0;0.0;0.0;0.000147438375292;0.999999989131;12.8801631045;-6.01729004895e-10;0.0;0.0;0.0;-1.34630547502e-06;-6.01729004895e-10;12.880165505;0.0;0.0;0.0;0.00526354270972;0.0;0.0;9.98488283285e-07;-6.09023808264e-28;-6.59716969815e-20;0.0;0.0;0.0;-6.09023808264e-28;9.96983400914e-07;7.28985933399e-36;0.0;0.0;0.0;-6.59716969815e-20;-7.34309559446e-36;9.96983400914e-07;0.0;-1.34630547502e-06;0.00526354270972;0.0;0.0;0.0;15.4495573186;2.63515581435e-06;0.0;0.0;0.0;0.0;8.33132213141e-07;0.000506230324431;0.0;0.0;0.0;0.0;0.0;0.0;0.000506230324431;0.0;0.0;0.0;0.0;0.0;0.0;9.97734991098e-07;-1.17450485754e-32;-3.98303410208e-29;0.0;0.0;0.0;-1.17450485754e-32;9.9103117033e-07;-6.96330198046e-37;0.0;0.0;0.0;-3.98303410208e-29;6.96330198046e-37;9.9103117033e-07;0.0;0.0;0.0;0.0;0.0;0.0;0.0002183993971
257791000000;12503;257791000000;odom;base_link;0.000721722564879;1.68106025774e-07;0.0;0.0;0.0;0.000147444407806;0.99999998913;12.8811635322;-6.01881773282e-10;0.0;0.0;0.0;-1.34654558274e-06;-6.01881773282e-10;12.8811659333;0.0;0.0;0.0;0.00526435696516;0.0;0.0;9.98488283285e-07;-3.95201796283e-28;-6.59716969157e-20;0.0;0.0;0.0;-3.95201796283e-28;9.96983400914e-07;-1.0673551296e-35;0.0;0.0;0.0;-6.59716969157e-20;1.06390057405e-35;9.96983400914e-07;0.0;-1.34654558274e-06;0.00526435696516;0.0;0.0;0.0;15.4507573266;2.63515581491e-06;0.0;0.0;0.0;0.0;5.40629355715e-07;0.000506230319212;0.0;0.0;0.0;0.0;0.0;0.0;0.000506230319212;0.0;0.0;0.0;0.0;0.0;0.0;9.97734991098e-07;-1.17455277397e-32;-3.9830340981e-29;0.0;0.0;0.0;-1.17455277397e-32;9.9103117033e-07;-6.41635533184e-38;0.0;0.0;0.0;-3.9830340981e-29;6.41635533184e-38;9.9103117033e-07;0.0;0.0;0.0;0.0;0.0;0.0;0.0002183993971
257811000000;12504;257811000000;odom;base_link;0.000721775267993;1.68121567498e-07;0.0;0.0;0.0;0.000147451118067;0.999999989129;12.8821639599;-6.02034570265e-10;0.0;0.0;0.0;-1.34678571876e-06;-6.02034570265e-10;12.8821663616;0.0;0.0;0.0;0.00526517128383;0.0;0.0;9.98488283285e-07;-5.11105428453e-28;-6.59716969311e-20;0.0;0.0;0.0;-5.11105428453e-28;9.96983400914e-07;1.43129196698e-35;0.0;0.0;0.0;-6.59716969311e-20;-1.43575966452e-35;9.96983400914e-07;0.0;-1.34678571876e-06;0.00526517128383;0.0;0.0;0.0;15.4519573346;2.6351558115e-06;0.0;0.0;0.0;0.0;6.99182666089e-07;0.000506230314124;0.0;0.0;0.0;0.0;0.0;0.0;0.000506230314124;0.0;0.0;0.0;0.0;0.0;0.0;9.97734991098e-07;-1.17460628687e-32;-3.98303409901e-29;0.0;0.0;0.0;-1.17460628687e-32;9.9103117033e-07;3.88623606228e-37;0.0;0.0;0.0;-3.98303409901e-29;-3.88623606228e-37;9.9103117033e-07;0.0;0.0;0.0;0.0;0.0;0.0;0.000218399397098
257831000000;12505;257831000000;odom;base_link;0.000721827971107;1.68137109878e-07;0.0;0.0;0.0;0.000147454255642;0.999999989129;12.8831643877;-6.02187396016e-10;0.0;0.0;0.0;-1.34702588357e-06;-6.02187396016e-10;12.8831667899;0.0;0.0;0.0;0.00526598566576;0.0;0.0;9.98488283285e-07;-1.56313534161e-28;-6.59716968454e-20;0.0;0.0;0.0;-1.56313534161e-28;9.96983400914e-07;-4.13835226769e-35;0.0;0.0;0.0;-6.59716968454e-20;4.13698589286e-35;9.96983400914e-07;0.0;-1.34702588357e-06;0.00526598566576;0.0;0.0;0.0;15.4531573426;2.63515580426e-06;0.0;0.0;0.0;0.0;2.13837767427e-07;0.000506230309164;0.0;0.0;0.0;0.0;0.0;0.0;0.000506230309164;0.0;0.0;0.0;0.0;0.0;0.0;9.97734991098e-07;-1.17463096865e-32;-3.98303409383e-29;0.0;0.0;0.0;-1.17463096865e-32;9.9103117033e-07;2.21477591478e-37;0.0;0.0;0.0;-3.98303409383e-29;-2.21477591478e-37;9.9103117033e-07;0.0;0.0;0.0;0.0;0.0;0.0;0.0002183993971
257851000000;12506;257851000000;odom;base_link;0.000721880674221;1.68152652545e-07;0.0;0.0;0.0;0.000147457198789;0.999999989128;12.8841648154;-6.02340248597e-10;0.0;0.0;0.0;-1.34726607147e-06;-6.02340248597e-10;12.8841672182;0.0;0.0;0.0;0.00526680011092;0.0;0.0;9.98488283285e-07;-2.28484886233e-28;-6.59716966632e-20;0.0;0.0;0.0;-2.28484886233e-28;9.96983400914e-07;-7.38062800056e-36;0.0;0.0;0.0;-6.59716966632e-20;7.36065557798e-36;9.96983400914e-07;0.0;-1.34726607147e-06;0.00526680011092;0.0;0.0;0.0;15.4543573506;2.6351557988e-06;0.0;0.0;0.0;0.0;3.12567082642e-07;0.000506230304326;0.0;0.0;0.0;0.0;0.0;0.0;0.000506230304326;0.0;0.0;0.0;0.0;0.0;0.0;9.97734991098e-07;-1.17465439241e-32;-3.98303408282e-29;0.0;0.0;0.0;-1.17465439241e-32;9.9103117033e-07;1.06783380877e-37;0.0;0.0;0.0;-3.98303408282e-29;-1.06783380877e-37;9.9103117033e-07;0.0;0.0;0.0;0.0;0.0;0.0;0.0002183993971
257871000000;12507;257871000000;odom;base_link;0.000721933377335;1.68168195562e-07;0.0;0.0;0.0;0.00014746188083;0.999999989127;12.8851652431;-6.02493128337e-10;0.0;0.0;0.0;-1.34750628343e-06;-6.02493128337e-10;12.8851676465;0.0;0.0;0.0;0.00526761461932;0.0;0.0;9.98488283285e-07;-3.68593842074e-28;-6.59716965267e-20;0.0;0.0;0.0;-3.68593842074e-28;9.96983400914e-07;3.59144119554e-36;0.0;0.0;0.0;-6.59716965267e-20;-3.62392192223e-36;9.96983400914e-07;0.0;-1.34750628343e-06;0.00526761461932;0.0;0.0;0.0;15.4555573585;2.63515579609e-06;0.0;0.0;0.0;0.0;5.04231659941e-07;0.00050623029961;0.0;0.0;0.0;0.0;0.0;0.0;0.00050623029961;0.0;0.0;0.0;0.0;0.0;0.0;9.97734991098e-07;-1.17469183923e-32;-3.98303407457e-29;0.0;0.0;0.0;-1.17469183923e-32;9.9103117033e-07;8.56109417205e-38;0.0;0.0;0.0;-3.98303407457e-29;-8.56109417205e-38;9.9103117033e-07;0.0;0.0;0.0;0.0;0.0;0.0;0.000218399397098
257891000000;12508;257891000000;odom;base_link;0.000721986080448;1.68183739053e-07;0.0;0.0;0.0;0.000147464586634;0.999999989127;12.8861656709;-6.02646035894e-10;0.0;0.0;0.0;-1.34774652135e-06;-6.02646035894e-10;12.8861680747;0.0;0.0;0.0;0.00526842919097;0.0;0.0;9.98488283285e-07;-1.53087405136e-28;-6.59716964587e-20;0.0;0.0;0.0;-1.53087405136e-28;9.96983400914e-07;7.20043236527e-36;0.0;0.0;0.0;-6.59716964587e-20;-7.21381410963e-36;9.96983400914e-07;0.0;-1.34774652135e-06;0.00526842919097;0.0;0.0;0.0;15.4567573665;2.63515579291e-06;0.0;0.0;0.0;0.0;2.09424962133e-07;0.000506230295012;0.0;0.0;0.0;0.0;0.0;0.0;0.000506230295012;0.0;0.0;0.0;0.0;0.0;0.0;9.97734991098e-07;-1.17471322098e-32;-3.98303407046e-29;0.0;0.0;0.0;-1.17471322098e-32;9.9103117033e-07;-2.27185630441e-37;0.0;0.0;0.0;-3.98303407046e-29;2.27185630441e-37;9.9103117033e-07;0.0;0.0;0.0;0.0;0.0;0.0;0.0002183993971
257911000000;12509;257911000000;odom;base_link;0.000722038783562;1.68199282827e-07;0.0;0.0;0.0;0.000147468546106;0.999999989127;12.8871660986;-6.02798970268e-10;0.0;0.0;0.0;-1.34798678232e-06;-6.02798970268e-10;12.887168503;0.0;0.0;0.0;0.00526924382586;0.0;0.0;9.98488283285e-07;-3.21877326373e-28;-6.59716963792e-20;0.0;0.0;0.0;-3.21877326373e-28;9.96983400914e-07;-1.09696138436e-35;0.0;0.0;0.0;-6.59716963792e-20;1.09414777596e-35;9.96983400914e-07;0.0;-1.34798678232e-06;0.00526924382586;0.0;0.0;0.0;15.4579573745;2.63515579134e-06;0.0;0.0;0.0;0.0;4.40325118018e-07;0.000506230290529;0.0;0.0;0.0;0.0;0.0;0.0;0.000506230290529;0.0;0.0;0.0;0.0;0.0;0.0;9.97734991098e-07;-1.1747448694e-32;-3.98303406564e-29;0.0;0.0;0.0;-1.1747448694e-32;9.9103117033e-07;2.30056543368e-37;0.0;0.0;0.0;-3.98303406564e-29;-2.30056543368e-37;9.9103117033e-07;0.0;0.0;0.0;0.0;0.0;0.0;0.0002183993971
257931000000;12510;257931000000;odom;base_link;0.000722091486675;1.68214827019e-07;0.0;0.0;0.0;0.000147471456737;0.999999989126;12.8881665263;-6.02951932168e-10;0.0;0.0;0.0;-1.34822706839e-06;-6.02951932168e-10;12.8881689313;0.0;0.0;0.0;0.005270058524;0.0;0.0;9.98488283285e-07;-1.83579664654e-28;-6.59716963407e-20;0.0;0.0;0.0;-1.83579664654e-28;9.96983400914e-07;-1.97858674075e-35;0.0;0.0;0.0;-6.59716963407e-20;1.97698202602e-35;9.96983400914e-07;0.0;-1.34822706839e-06;0.005270058524;0.0;0.0;0.0;15.4591573825;2.63515578872e-06;0.0;0.0;0.0;0.0;2.5113759234e-07;0.000506230286157;0.0;0.0;0.0;0.0;0.0;0.0;0.000506230286157;0.0;0.0;0.0;0.0;0.0;0.0;9.97734991098e-07;-1.17476796426e-32;-3.98303406332e-29;0.0;0.0;0.0;-1.17476796426e-32;9.9103117033e-07;-2.10111561251e-37;0.0;0.0;0.0;-3.98303406332e-29;2.10111561251e-37;9.9103117033e-07;0.0;0.0;0.0;0.0;0.0;0.0;0.000218399397098
257951000000;12511;257951000000;odom;base_link;0.000722144189789;1.68230371498e-07;0.0;0.0;0.0;0.000147474182937;0.999999989126;12.8891669541;-6.03104920915e-10;0.0;0.0;0.0;-1.34846737756e-06;-6.03104920915e-10;12.8891693596;0.0;0.0;0.0;0.00527087328538;0.0;0.0;9.98488283285e-07;-2.01816054491e-28;-6.59716962751e-20;0.0;0.0;0.0;-2.01816054491e-28;9.96983400914e-07;-1.06737287299e-35;0.0;0.0;0.0;-6.59716962751e-20;1.06560874953e-35;9.96983400914e-07;0.0;-1.34846737756e-06;0.00527087328538;0.0;0.0;0.0;15.4603573905;2.63515578743e-06;0.0;0.0;0.0;0.0;2.76084847592e-07;0.000506230281896;0.0;0.0;0.0;0.0;0.0;0.0;0.000506230281896;0.0;0.0;0.0;0.0;0.0;0.0;9.97734991098e-07;-1.17478966359e-32;-3.98303405935e-29;0.0;0.0;0.0;-1.17478966359e-32;9.9103117033e-07;1.35651520801e-37;0.0;0.0;0.0;-3.98303405935e-29;-1.35651520801e-37;9.9103117033e-07;0.0;0.0;0.0;0.0;0.0;0.0;0.0002183993971
257971000000;12512;257971000000;odom;base_link;0.000722196892902;1.68245916283e-07;0.0;0.0;0.0;0.000147477776057;0.999999989125;12.8901673818;-6.03257936601e-10;0.0;0.0;0.0;-1.3487077101e-06;-6.03257936601e-10;12.8901697879;0.0;0.0;0.0;0.00527168811;0.0;0.0;9.98488283285e-07;-2.76162172661e-28;-6.59716962434e-20;0.0;0.0;0.0;-2.76162172661e-28;9.96983400914e-07;-1.42735614237e-35;0.0;0.0;0.0;-6.59716962434e-20;1.42496824508e-35;9.96983400914e-07;0.0;-1.3487077101e-06;0.00527168811;0.0;0.0;0.0;15.4615573985;2.63515578125e-06;0.0;0.0;0.0;0.0;3.77788025309e-07;0.00050623027774;0.0;0.0;0.0;0.0;0.0;0.0;0.00050623027774;0.0;0.0;0.0;0.0;0.0;0.0;9.97734991098e-07;-1.17481836167e-32;-3.98303405742e-29;0.0;0.0;0.0;-1.17481836167e-32;9.9103117033e-07;-2.00063821431e-38;0.0;0.0;0.0;-3.98303405742e-29;2.00063821431e-38;9.9103117033e-07;0.0;0.0;0.0;0.0;0.0;0.0;0.0002183993971
257991000000;12513;257991000000;odom;base_link;0.000722249596015;1.68261461507e-07;0.0;0.0;0.0;0.00014748426658;0.999999989124;12.8911678095;-6.03410979934e-10;0.0;0.0;0.0;-1.34894806809e-06;-6.03410979934e-10;12.8911702162;0.0;0.0;0.0;0.00527250299786;0.0;0.0;9.98488283285e-07;-5.21246655286e-28;-6.59716960884e-20;0.0;0.0;0.0;-5.21246655286e-28;9.96983400914e-07;1.4381718614e-35;0.0;0.0;0.0;-6.59716960884e-20;-1.44272820583e-35;9.96983400914e-07;0.0;-1.34894806809e-06;0.00527250299786;0.0;0.0;0.0;15.4627574065;2.63515577632e-06;0.0;0.0;0.0;0.0;7.1305593336e-07;0.000506230273688;0.0;0.0;0.0;0.0;0.0;0.0;0.000506230273688;0.0;0.0;0.0;0.0;0.0;0.0;9.97734991098e-07;-1.17487031558e-32;-3.98303404805e-29;0.0;0.0;0.0;-1.17487031558e-32;9.9103117033e-07;-5.27135326646e-37;0.0;0.0;0.0;-3.98303404805e-29;5.27135326646e-37;9.9103117033e-07;0.0;0.0;0.0;0.0;0.0;0.0;0.000218399397098
258011000000;12514;258011000000;odom;base_link;0.000722302299129;1.68277007419e-07;0.0;0.0;0.0;0.000147489496675;0.999999989123;12.8921682373;-6.03564052236e-10;0.0;0.0;0.0;-1.34918845538e-06;-6.03564052236e-10;12.8921706445;0.0;0.0;0.0;0.00527331794897;0.0;0.0;9.98488283285e-07;-3.4434797689e-28;-6.59716959644e-20;0.0;0.0;0.0;-3.4434797689e-28;9.96983400914e-07;1.79724363626e-35;0.0;0.0;0.0;-6.59716959644e-20;-1.80025366609e-35;9.96983400914e-07;0.0;-1.34918845538e-06;0.00527331794897;0.0;0.0;0.0;15.4639574145;2.63515577388e-06;0.0;0.0;0.0;0.0;4.71063152499e-07;0.000506230269738;0.0;0.0;0.0;0.0;0.0;0.0;0.000506230269738;0.0;0.0;0.0;0.0;0.0;0.0;9.97734991098e-07;-1.17491186779e-32;-3.98303404055e-29;0.0;0.0;0.0;-1.17491186779e-32;9.9103117033e-07;1.45959539223e-37;0.0;0.0;0.0;-3.98303404055e-29;-1.45959539223e-37;9.9103117033e-07;0.0;0.0;0.0;0.0;0.0;0.0;0.0002183993971
258031000000;12515;258031000000;odom;base_link;0.000722355002242;1.68292553809e-07;0.0;0.0;0.0;0.000147491735901;0.999999989123;12.893168665;-6.03717152397e-10;0.0;0.0;0.0;-1.34942886871e-06;-6.03717152397e-10;12.8931710728;0.0;0.0;0.0;0.00527413296332;0.0;0.0;9.98488283285e-07;-1.16730233738e-28;-6.59716959034e-20;0.0;0.0;0.0;-1.16730233738e-28;9.96983400914e-07;9.92172334771e-36;0.0;0.0;0.0;-6.59716959034e-20;-9.93192702274e-36;9.96983400914e-07;0.0;-1.34942886871e-06;0.00527413296332;0.0;0.0;0.0;15.4651574225;2.63515577083e-06;0.0;0.0;0.0;0.0;1.5968953118e-07;0.000506230265886;0.0;0.0;0.0;0.0;0.0;0.0;0.000506230265886;0.0;0.0;0.0;0.0;0.0;0.0;9.97734991098e-07;-1.17492944326e-32;-3.98303403687e-29;0.0;0.0;0.0;-1.17492944326e-32;9.9103117033e-07;-1.87519772933e-37;0.0;0.0;0.0;-3.98303403687e-29;1.87519772933e-37;9.9103117033e-07;0.0;0.0;0.0;0.0;0.0;0.0;0.0002183993971
258051000000;12516;258051000000;odom;base_link;0.000722407705355;1.68308100491e-07;0.0;0.0;0.0;0.00014749845774;0.999999989122;12.8941690927;-6.03870279436e-10;0.0;0.0;0.0;-1.34966930521e-06;-6.03870279436e-10;12.894171501;0.0;0.0;0.0;0.00527494804091;0.0;0.0;9.98488283285e-07;-5.82706771319e-28;-6.59716958276e-20;0.0;0.0;0.0;-5.82706771319e-28;9.96983400914e-07;7.22803765414e-36;0.0;0.0;0.0;-6.59716958276e-20;-7.27897347716e-36;9.96983400914e-07;0.0;-1.34966930521e-06;0.00527494804091;0.0;0.0;0.0;15.4663574305;2.63515576561e-06;0.0;0.0;0.0;0.0;7.97132002861e-07;0.00050623026213;0.0;0.0;0.0;0.0;0.0;0.0;0.00050623026213;0.0;0.0;0.0;0.0;0.0;0.0;9.97734991098e-07;-1.17498337823e-32;-3.98303403227e-29;0.0;0.0;0.0;-1.17498337823e-32;9.9103117033e-07;-5.92249719617e-37;0.0;0.0;0.0;-3.98303403227e-29;5.92249719617e-37;9.9103117033e-07;0.0;0.0;0.0;0.0;0.0;0.0;0.000218399397098
258071000000;12517;258071000000;odom;base_link;0.000722460408468;1.68323647934e-07;0.0;0.0;0.0;0.000147505233536;0.999999989121;12.8951695204;-6.04023435836e-10;0.0;0.0;0.0;-1.34990977213e-06;-6.04023435836e-10;12.8951719293;0.0;0.0;0.0;0.00527576318175;0.0;0.0;9.98488283285e-07;-4.69572881057e-28;-6.59716956963e-20;0.0;0.0;0.0;-4.69572881057e-28;9.96983400914e-07;7.02087583507e-36;0.0;0.0;0.0;-6.59716956963e-20;-7.06192234817e-36;9.96983400914e-07;0.0;-1.34990977213e-06;0.00527576318175;0.0;0.0;0.0;15.4675574385;2.63515576117e-06;0.0;0.0;0.0;0.0;6.42366835407e-07;0.000506230258468;0.0;0.0;0.0;0.0;0.0;0.0;0.000506230258468;0.0;0.0;0.0;0.0;0.0;0.0;9.97734991098e-07;-1.17503735883e-32;-3.98303402433e-29;0.0;0.0;0.0;-1.17503735883e-32;9.9103117033e-07;-5.21925716114e-37;0.0;0.0;0.0;-3.98303402433e-29;5.21925716114e-37;9.9103117033e-07;0.0;0.0;0.0;0.0;0.0;0.0;0.0002183993971
258091000000;12518;258091000000;odom;base_link;0.000722513111581;1.68339196048e-07;0.0;0.0;0.0;0.000147510335616;0.99999998912;12.8961699482;-6.04176621127e-10;0.0;0.0;0.0;-1.3501502681e-06;-6.04176621127e-10;12.8961723576;0.0;0.0;0.0;0.00527657838583;0.0;0.0;9.98488283285e-07;-3.45778337664e-28;-6.59716955849e-20;0.0;0.0;0.0;-3.45778337664e-28;9.96983400914e-07;2.15096312295e-35;0.0;0.0;0.0;-6.59716955849e-20;-2.15401175967e-35;9.96983400914e-07;0.0;-1.3501502681e-06;0.00527657838583;0.0;0.0;0.0;15.4687574465;2.63515575897e-06;0.0;0.0;0.0;0.0;4.730200048e-07;0.000506230254898;0.0;0.0;0.0;0.0;0.0;0.0;0.000506230254898;0.0;0.0;0.0;0.0;0.0;0.0;9.97734991098e-07;-1.1750778541e-32;-3.98303401759e-29;0.0;0.0;0.0;-1.1750778541e-32;9.9103117033e-07;-1.49399752734e-37;0.0;0.0;0.0;-3.98303401759e-29;1.49399752734e-37;9.9103117033e-07;0.0;0.0;0.0;0.0;0.0;0.0;0.0002183993971
258120000000;12519;258120000000;odom;base_link;0.000722589531094;1.68361741662e-07;0.0;0.0;0.0;0.000147515800701;0.99999998912;12.8976206964;-6.04398789306e-10;0.0;0.0;0.0;-1.35049903375e-06;-6.04398789306e-10;12.8976231066;0.0;0.0;0.0;0.00527776054486;0.0;0.0;4.99538318263e-07;-1.21239458672e-28;-4.02082803518e-20;0.0;0.0;0.0;-1.21239458672e-28;4.99079179725e-07;5.35886552217e-36;0.0;0.0;0.0;-4.02082803518e-20;-5.37987559013e-36;4.99079179725e-07;0.0;-1.35049903375e-06;0.00527776054486;0.0;0.0;0.0;15.4704974625;2.63515575439e-06;0.0;0.0;0.0;0.0;4.59510348749e-07;0.00073818775314;0.0;0.0;0.0;0.0;0.0;0.0;0.00073818775314;0.0;0.0;0.0;0.0;0.0;0.0;4.99308432887e-07;-2.85989000092e-32;-9.69352283758e-29;0.0;0.0;0.0;-2.85989000092e-32;4.97267491714e-07;5.24210764607e-37;0.0;0.0;0.0;-9.69352283758e-29;-5.24210764607e-37;4.97267491714e-07;0.0;0.0;0.0;0.0;0.0;0.0;9.99957491763e-10
258140000000;12520;258140000000;odom;base_link;0.000722642234207;1.68377290866e-07;0.0;0.0;0.0;0.000147520951299;0.999999989119;12.8986211241;-6.04552042463e-10;0.0;0.0;0.0;-1.35073959229e-06;-6.04552042463e-10;12.8986235349;0.0;0.0;0.0;0.00527857590389;0.0;0.0;4.99538318263e-07;-1.65077692003e-28;-4.02082803016e-20;0.0;0.0;0.0;-1.65077692003e-28;4.99079179725e-07;-2.69146944252e-36;0.0;0.0;0.0;-4.02082803016e-20;2.66248249832e-36;4.99079179725e-07;0.0;-1.35073959229e-06;0.00527857590389;0.0;0.0;0.0;15.4716974704;2.6351557511e-06;0.0;0.0;0.0;0.0;6.87441868174e-07;0.000738187746005;0.0;0.0;0.0;0.0;0.0;0.0;0.000738187746005;0.0;0.0;0.0;0.0;0.0;0.0;4.99308432887e-07;-2.85998485154e-32;-9.69352282543e-29;0.0;0.0;0.0;-2.85998485154e-32;4.97267491714e-07;-7.75720662052e-38;0.0;0.0;0.0;-9.69352282543e-29;7.75720662052e-38;4.97267491714e-07;0.0;0.0;0.0;0.0;0.0;0.0;9.99957491763e-10
258160000000;12521;258160000000;odom;base_link;0.00072269493732;1.68392840673e-07;0.0;0.0;0.0;0.000147527617539;0.999999989118;12.8996215518;-6.04705324157e-10;0.0;0.0;0.0;-1.35098017881e-06;-6.04705324157e-10;12.8996239632;0.0;0.0;0.0;0.00527939132615;0.0;0.0;4.99538318263e-07;-2.46960107539e-28;-4.02082803052e-20;0.0;0.0;0.0;-2.46960107539e-28;4.99079179725e-07;-5.2350560498e-36;0.0;0.0;0.0;-4.02082803052e-20;5.19165596604e-36;4.99079179725e-07;0.0;-1.35098017881e-06;0.00527939132615;0.0;0.0;0.0;15.4728974784;2.63515575134e-06;0.0;0.0;0.0;0.0;6.07171373358e-07;0.000738187739049;0.0;0.0;0.0;0.0;0.0;0.0;0.000738187739049;0.0;0.0;0.0;0.0;0.0;0.0;4.99308432887e-07;-2.86012895025e-32;-9.69352282626e-29;0.0;0.0;0.0;-2.86012895025e-32;4.97267491714e-07;-1.12985191107e-37;0.0;0.0;0.0;-9.69352282626e-29;1.12985191107e-37;4.97267491714e-07;0.0;0.0;0.0;0.0;0.0;0.0;9.99957491763e-10
258180000000;12522;258180000000;odom;base_link;0.000722747640433;1.68408391161e-07;0.0;0.0;0.0;0.000147532904116;0.999999989117;12.9006219796;-6.04858634811e-10;0.0;0.0;0.0;-1.35122079454e-06;-6.04858634811e-10;12.9006243915;0.0;0.0;0.0;0.00528020681167;0.0;0.0;4.99538318263e-07;-2.18123630094e-28;-4.02082802223e-20;0.0;0.0;0.0;-2.18123630094e-28;4.99079179725e-07;-2.69019599577e-36;0.0;0.0;0.0;-4.02082802223e-20;2.65235934788e-36;4.99079179725e-07;0.0;-1.35122079454e-06;0.00528020681167;0.0;0.0;0.0;15.4740974864;2.6351557459e-06;0.0;0.0;0.0;0.0;2.92537993131e-07;0.000738187732266;0.0;0.0;0.0;0.0;0.0;0.0;0.000738187732266;0.0;0.0;0.0;0.0;0.0;0.0;4.99308432887e-07;-2.86024260182e-32;-9.69352280624e-29;0.0;0.0;0.0;-2.86024260182e-32;4.97267491714e-07;1.69661753446e-37;0.0;0.0;0.0;-9.69352280624e-29;-1.69661753446e-37;4.97267491714e-07;0.0;0.0;0.0;0.0;0.0;0.0;9.99957491763e-10
258200000000;12523;258200000000;odom;base_link;0.000722800343545;1.68423942124e-07;0.0;0.0;0.0;0.000147536380913;0.999999989117;12.9016224073;-6.05011973338e-10;0.0;0.0;0.0;-1.35146143628e-06;-6.05011973338e-10;12.9016248198;0.0;0.0;0.0;0.00528102236042;0.0;0.0;4.99538318263e-07;-1.05094325329e-28;-4.02082801528e-20;0.0;0.0;0.0;-1.05094325329e-28;4.99079179725e-07;-1.46808949517e-35;0.0;0.0;0.0;-4.02082801528e-20;1.4662635016e-35;4.99079179725e-07;0.0;-1.35146143628e-06;0.00528102236042;0.0;0.0;0.0;15.4752974944;2.63515574135e-06;0.0;0.0;0.0;0.0;5.17815263284e-07;0.000738187725652;0.0;0.0;0.0;0.0;0.0;0.0;0.000738187725652;0.0;0.0;0.0;0.0;0.0;0.0;4.99308432887e-07;-2.8602840148e-32;-9.69352278948e-29;0.0;0.0;0.0;-2.8602840148e-32;4.97267491714e-07;1.09043265654e-37;0.0;0.0;0.0;-9.69352278948e-29;-1.09043265654e-37;4.97267491714e-07;0.0;0.0;0.0;0.0;0.0;0.0;9.99957491763e-10
258220000000;12524;258220000000;odom;base_link;0.000843045494577;2.03894233839e-07;0.0;0.0;0.0;0.000147169382136;0.999999989171;12.902622835;-6.90640668924e-10;0.0;0.0;0.0;-1.48015569152e-06;-6.90640668924e-10;12.9026255574;0.0;0.0;0.0;0.0057171580735;0.0;0.0;4.99538318263e-07;-1.45590410061e-26;-4.77290418657e-17;0.0;0.0;0.0;-1.45590410061e-26;4.99079179725e-07;-1.49673905667e-33;0.0;0.0;0.0;-4.77290418657e-17;-1.51343614193e-33;4.99079179725e-07;0.0;-1.48015569152e-06;0.0057171580735;0.0;0.0;0.0;15.4764975024;0.00313676399905;0.0;0.0;0.0;0.0;-0.00014995257951;0.000738187719204;0.0;0.0;0.0;0.0;0.0;0.0;0.000738187719204;0.0;0.0;0.0;0.0;0.0;0.0;4.99308432887e-07;-3.39533632936e-29;-1.1506541081e-25;0.0;0.0;0.0;-3.39533632936e-29;4.97267491714e-07;-1.37647915098e-35;0.0;0.0;0.0;-1.1506541081e-25;-1.4220385738e-35;4.97267491714e-07;0.0;0.0;0.0;0.0;0.0;0.0;9.99957491763e-10
258240000000;12525;258240000000;odom;base_link;0.00209894675785;5.73433464335e-07;0.0;0.0;0.0;0.000145880745628;0.999999989359;12.9036232627;-2.30132459333e-09;0.0;0.0;0.0;-3.03153337996e-06;-2.30132459333e-09;12.903631712;0.0;0.0;0.0;0.0110145635175;0.0;0.0;4.99538318263e-07;7.00454150233e-22;-5.21586206849e-16;0.0;0.0;0.0;7.00454150233e-22;4.99079179725e-07;7.9134105406e-28;0.0;0.0;0.0;-5.21586206849e-16;7.91338934754e-28;4.99079179725e-07;0.0;-3.03153337996e-06;0.0110145635175;0.0;0.0;0.0;15.4776975104;0.0342787260777;0.0;0.0;0.0;0.0;-6.50727890996e-05;0.000738187712917;0.0;0.0;0.0;0.0;0.0;0.0;0.000738187712917;0.0;0.0;0.0;0.0;0.0;0.0;4.99308432887e-07;-3.66334631778e-28;-1.25744368927e-24;0.0;0.0;0.0;-3.66334631778e-28;4.97267491714e-07;-1.61669459356e-33;0.0;0.0;0.0;-1.25744368927e-24;-1.61672470027e-33;4.97267491714e-07;0.0;0.0;0.0;0.0;0.0;0.0;9.99957491763e-10
258260000000;12526;258260000000;odom;base_link;0.00454075251947;1.28780990466e-06;0.0;0.0;0.0;0.000145327583834;0.99999998944;12.9046236905;-1.461810243e-08;0.0;0.0;0.0;-7.99032022547e-06;-1.461810243e-08;12.904675091;0.0;0.0;0.0;0.028037990379;0.0;0.0;4.99538318263e-07;7.12727309526e-22;-1.22320142787e-15;0.0;0.0;0.0;7.12727309526e-22;4.99079179725e-07;1.88833559208e-27;0.0;0.0;0.0;-1.22320142787e-15;1.88833539945e-27;4.99079179725e-07;0.0;-7.99032022547e-06;0.028037990379;0.0;0.0;0.0;15.4788975184;0.0803878884819;0.0;0.0;0.0;0.0;-2.57955553242e-05;0.000738187706786;0.0;0.0;0.0;0.0;0.0;0.0;0.000738187706786;0.0;0.0;0.0;0.0;0.0;0.0;4.99308432887e-07;-8.56532559265e-28;-2.94891189345e-24;0.0;0.0;0.0;-8.56532559265e-28;4.97267491714e-07;-8.86598693616e-33;0.0;0.0;0.0;-2.94891189345e-24;-8.86617655334e-33;4.97267491714e-07;0.0;0.0;0.0;0.0;0.0;0.0;9.99957491763e-10
258280000000;12527;258280000000;odom;base_link;0.00817547349819;2.3467169797e-06;0.0;0.0;0.0;0.000145108034813;0.999999989472;12.9056241182;-6.79717908077e-08;0.0;0.0;0.0;-1.73869177717e-05;-6.79717908077e-08;12.9058602968;0.0;0.0;0.0;0.0603851835469;0.0;0.0;4.99538318264e-07;4.70918133737e-22;-2.03861898246e-15;0.0;0.0;0.0;4.70918133737e-22;4.99079179725e-07;2.07940851762e-27;0.0;0.0;0.0;-2.03861898246e-15;2.07940819647e-27;4.99079179725e-07;0.0;-1.73869177717e-05;0.0603851835469;0.0;0.0;0.0;15.4800975264;0.133974571625;0.0;0.0;0.0;0.0;-1.03331118269e-05;0.000738187700808;0.0;0.0;0.0;0.0;0.0;0.0;0.000738187700808;0.0;0.0;0.0;0.0;0.0;0.0;4.99308432887e-07;-1.42595346943e-27;-4.91474049741e-24;0.0;0.0;0.0;-1.42595346943e-27;4.97267491714e-07;-2.45998992211e-32;0.0;0.0;0.0;-4.91474049741e-24;-2.45982195753e-32;4.97267491714e-07;0.0;0.0;0.0;0.0;0.0;0.0;9.99957491763e-10
258300000000;12528;258300000000;odom;base_link;0.0130066181648;3.75098048228e-06;0.0;0.0;0.0;0.000145020448168;0.999999989485;12.906624546;-2.25392628041e-07;0.0;0.0;0.0;-3.17407246395e-05;-2.25392628041e-07;12.9074047424;0.0;0.0;0.0;0.109854627367;0.0;0.0;4.99538318265e-07;2.69382712316e-22;-2.91085662884e-15;0.0;0.0;0.0;2.69382712316e-22;4.99079179725e-07;1.69843595964e-27;0.0;0.0;0.0;-2.91085662884e-15;1.69843597027e-27;4.99079179725e-07;0.0;-3.17407246395e-05;0.109854627367;0.0;0.0;0.0;15.4812975344;0.191293663686;0.0;0.0;0.0;0.0;-3.99236406026e-06;0.000738187694982;0.0;0.0;0.0;0.0;0.0;0.0;0.000738187694982;0.0;0.0;0.0;0.0;0.0;0.0;4.99308432887e-07;-2.03515333846e-27;-7.01755384268e-24;0.0;0.0;0.0;-2.03515333846e-27;4.97267491714e-07;-5.01303522653e-32;0.0;0.0;0.0;-7.01755384268e-24;-5.01309928595e-32;4.97267491714e-07;0.0;0.0;0.0;0.0;0.0;0.0;9.99957491763e-10
258320000000;12529;258320000000;odom;base_link;0.0190359426341;5.50154112546e-06;0.0;0.0;0.0;0.000144986329362;0.999999989489;12.9076249738;-5.87979321117e-07;0.0;0.0;0.0;-5.13141786039e-05;-5.87979321117e-07;12.9096571809;0.0;0.0;0.0;0.177345047192;0.0;0.0;4.99538318267e-07;1.3632497528e-22;-3.81142163433e-15;0.0;0.0;0.0;1.3632497528e-22;4.99079179725e-07;1.12543733108e-27;0.0;0.0;0.0;-3.81142163433e-15;1.12543735274e-27;4.99079179725e-07;0.0;-5.13141786039e-05;0.177345047192;0.0;0.0;0.0;15.4824975424;0.250472515791;0.0;0.0;0.0;0.0;-1.65426788223e-06;0.0007381876893;0.0;0.0;0.0;0.0;0.0;0.0;0.0007381876893;0.0;0.0;0.0;0.0;0.0;0.0;4.99308432887e-07;-2.66435183413e-27;-9.18866021425e-24;0.0;0.0;0.0;-2.66435183413e-27;4.97267491714e-07;-8.59335544796e-32;0.0;0.0;0.0;-9.18866021425e-24;-8.59331853914e-32;4.97267491714e-07;0.0;0.0;0.0;0.0;0.0;0.0;9.99957491763e-10
258340000000;12530;258340000000;odom;base_link;0.0262643261883;7.59907971888e-06;0.0;0.0;0.0;0.000144972317171;0.999999989492;12.9086254017;-1.29675942873e-06;0.0;0.0;0.0;-7.62394989896e-05;-1.29675942873e-06;12.9131040804;0.0;0.0;0.0;0.263305237751;0.0;0.0;4.99538318269e-07;7.00686208912e-23;-4.72606735168e-15;0.0;0.0;0.0;7.00686208912e-23;4.99079179725e-07;7.17269838292e-28;0.0;0.0;0.0;-4.72606735168e-15;7.17269838377e-28;4.99079179725e-07;0.0;-7.62394989896e-05;0.263305237751;0.0;0.0;0.0;15.4836975504;0.310574797848;0.0;0.0;0.0;0.0;-6.34205037188e-07;0.000738187683759;0.0;0.0;0.0;0.0;0.0;0.0;0.000738187683759;0.0;0.0;0.0;0.0;0.0;0.0;4.99308432887e-07;-3.30348742317e-27;-1.13937130774e-23;0.0;0.0;0.0;-3.30348742317e-27;4.97267491714e-07;-1.32115862938e-31;0.0;0.0;0.0;-1.13937130774e-23;-1.32115396558e-31;4.97267491714e-07;0.0;0.0;0.0;0.0;0.0;0.0;9.99957491763e-10
258360000000;12531;258360000000;odom;base_link;0.0346922092976;1.00440050486e-05;0.0;0.0;0.0;0.000144967254932;0.999999989492;12.9096258298;-2.53312165456e-06;0.0;0.0;0.0;-0.000106582941409;-2.53312165456e-06;12.9183711043;0.0;0.0;0.0;0.36795901546;0.0;0.0;4.99538318272e-07;3.21387314658e-23;-5.64767081229e-15;0.0;0.0;0.0;3.21387314658e-23;4.99079179725e-07;3.93149135772e-28;0.0;0.0;0.0;-5.64767081229e-15;3.93149151932e-28;4.99079179725e-07;0.0;-0.000106582941409;0.36795901546;0.0;0.0;0.0;15.4848975584;0.371132380796;0.0;0.0;0.0;0.0;-1.16987646739e-07;0.000738187678358;0.0;0.0;0.0;0.0;0.0;0.0;0.000738187678358;0.0;0.0;0.0;0.0;0.0;0.0;4.99308432887e-07;-3.94757965112e-27;-1.36155400205e-23;0.0;0.0;0.0;-3.94757965112e-27;4.97267491714e-07;-1.88661733252e-31;0.0;0.0;0.0;-1.36155400205e-23;-1.88662091756e-31;4.97267491714e-07;0.0;0.0;0.0;0.0;0.0;0.0;9.99957491763e-10
258380000000;12532;258380000000;odom;base_link;0.0443198127977;1.28365616086e-05;0.0;0.0;0.0;0.000145228599614;0.999999989454;12.9106262581;-4.51880708838e-06;0.0;0.0;0.0;-0.000142377802319;-4.51880708838e-06;12.9262230575;0.0;0.0;0.0;0.49141771327;0.0;0.0;4.99538318275e-07;6.96904803191e-24;-6.57267120251e-15;0.0;0.0;0.0;6.96904803191e-24;4.99079179725e-07;9.92144174798e-29;0.0;0.0;0.0;-6.57267120251e-15;9.92143613415e-29;4.99079179725e-07;0.0;-0.000142377802319;0.49141771327;0.0;0.0;0.0;15.4860975664;0.43191125666;0.0;0.0;0.0;0.0;0.000106299127022;0.000738187673092;0.0;0.0;0.0;0.0;0.0;0.0;0.000738187673092;0.0;0.0;0.0;0.0;0.0;0.0;4.99308432887e-07;-4.59413642874e-27;-1.58455564549e-23;0.0;0.0;0.0;-4.59413642874e-27;4.97267491714e-07;-2.55523096455e-31;0.0;0.0;0.0;-1.58455564549e-23;-2.55522803795e-31;4.97267491714e-07;0.0;0.0;0.0;0.0;0.0;0.0;9.99957491763e-10
258400000000;12533;258400000000;odom;base_link;0.0542834143916;1.57357774927e-05;0.0;0.0;0.0;0.000146262187661;0.999999989304;12.9116266867;-7.44779214571e-06;0.0;0.0;0.0;-0.000182882244956;-7.44779214571e-06;12.9373078976;0.0;0.0;0.0;0.630605180786;0.0;0.0;4.99538318278e-07;-6.82784456262e-21;-7.15650252117e-15;0.0;0.0;0.0;-6.82784456262e-21;4.99079179725e-07;-1.05838597405e-25;0.0;0.0;0.0;-7.15650252117e-15;-1.05838596955e-25;4.99079179725e-07;0.0;-0.000182882244956;0.630605180786;0.0;0.0;0.0;15.4872975744;0.470266427904;0.0;0.0;0.0;0.0;9.46198381485e-05;0.000738187667956;0.0;0.0;0.0;0.0;0.0;0.0;0.000738187667956;0.0;0.0;0.0;0.0;0.0;0.0;4.99308432887e-07;-5.04808191514e-27;-1.72530808673e-23;0.0;0.0;0.0;-5.04808191514e-27;4.97267491714e-07;-3.05711757843e-31;0.0;0.0;0.0;-1.72530808673e-23;-3.05711825566e-31;4.97267491714e-07;0.0;0.0;0.0;0.0;0.0;0.0;9.99957491763e-10
258440000000;12534;258440000000;odom;base_link;0.0742558642825;2.15999511294e-05;0.0;0.0;0.0;0.000147361672769;0.999999989142;12.9136275447;-1.63336004707e-05;0.0;0.0;0.0;-0.000271398911952;-1.63336004707e-05;12.9697201498;0.0;0.0;0.0;0.932031734961;0.0;0.0;4.9953831828e-07;-2.39224188364e-21;-7.59269047717e-15;0.0;0.0;0.0;-2.39224188364e-21;4.99079179725e-07;-3.93423896766e-26;0.0;0.0;0.0;-7.59269047717e-15;-3.93423893019e-26;4.99079179725e-07;0.0;-0.000271398911952;0.932031734961;0.0;0.0;0.0;15.4896975903;0.498901391342;0.0;0.0;0.0;0.0;1.46799454124e-05;0.000738187658068;0.0;0.0;0.0;0.0;0.0;0.0;0.000738187658068;0.0;0.0;0.0;0.0;0.0;0.0;4.99308432887e-07;-5.39670616787e-27;-1.83046647845e-23;0.0;0.0;0.0;-5.39670616787e-27;4.97267491714e-07;-3.46744607862e-31;0.0;0.0;0.0;-1.83046647845e-23;-3.46745320432e-31;4.97267491714e-07;0.0;0.0;0.0;0.0;0.0;0.0;9.99957491763e-10
258460000000;12535;258460000000;odom;base_link;0.0842511534367;2.45465592452e-05;0.0;0.0;0.0;0.000147487658922;0.999999989124;12.9146279742;-2.2268477824e-05;0.0;0.0;0.0;-0.000317182140453;-2.2268477824e-05;12.9909670072;0.0;0.0;0.0;1.0873364282;0.0;0.0;4.9953831828e-07;-1.0074574012e-21;-7.66448853655e-15;0.0;0.0;0.0;-1.0074574012e-21;4.99079179725e-07;-1.67251439384e-26;0.0;0.0;0.0;-7.66448853655e-15;-1.67251440775e-26;4.99079179725e-07;0.0;-0.000317182140453;1.0873364282;0.0;0.0;0.0;15.4908975983;0.503603936542;0.0;0.0;0.0;0.0;6.30468960186e-06;0.000738187653307;0.0;0.0;0.0;0.0;0.0;0.0;0.000738187653307;0.0;0.0;0.0;0.0;0.0;0.0;4.99308432887e-07;-5.4512642309e-27;-1.84777591791e-23;0.0;0.0;0.0;-5.4512642309e-27;4.97267491714e-07;-3.5356206257e-31;0.0;0.0;0.0;-1.84777591791e-23;-3.53562707277e-31;4.97267491714e-07;0.0;0.0;0.0;0.0;0.0;0.0;9.99957491763e-10
258480000000;12536;258480000000;odom;base_link;0.0942487144293;2.74959837759e-05;0.0;0.0;0.0;0.000147542213995;0.999999989116;12.915628404;-2.9176964997e-05;0.0;0.0;0.0;-0.000363332765551;-2.9176964997e-05;13.0155083826;0.0;0.0;0.0;1.24377576897;0.0;0.0;4.9953831828e-07;-4.34632834388e-22;-7.69971816862e-15;0.0;0.0;0.0;-4.34632834388e-22;4.99079179725e-07;-7.24865425563e-27;0.0;0.0;0.0;-7.69971816862e-15;-7.24865424499e-27;4.99079179725e-07;0.0;-0.000363332765551;1.24377576897;0.0;0.0;0.0;15.4920976063;0.505903239737;0.0;0.0;0.0;0.0;2.88933220473e-06;0.000738187648668;0.0;0.0;0.0;0.0;0.0;0.0;0.000738187648668;0.0;0.0;0.0;0.0;0.0;0.0;4.99308432887e-07;-5.47788205167e-27;-1.85626925679e-23;0.0;0.0;0.0;-5.47788205167e-27;4.97267491714e-07;-3.56921326987e-31;0.0;0.0;0.0;-1.85626925679e-23;-3.56921921457e-31;4.97267491714e-07;0.0;0.0;0.0;0.0;0.0;0.0;9.99957491763e-10
258500000000;12537;258500000000;odom;base_link;0.104247414785;3.0446659319e-05;0.0;0.0;0.0;0.000147568443824;0.999999989112;12.916628834;-3.70478394499e-05;0.0;0.0;0.0;-0.000409662145604;-3.70478394499e-05;13.0433080073;0.0;0.0;0.0;1.40077198069;0.0;0.0;4.9953831828e-07;-1.99586122331e-22;-7.71667028453e-15;0.0;0.0;0.0;-1.99586122331e-22;4.99079179725e-07;-3.33595605709e-27;0.0;0.0;0.0;-7.71667028453e-15;-3.33595604642e-27;4.99079179725e-07;0.0;-0.000409662145604;1.40077198069;0.0;0.0;0.0;15.4932976143;0.507001462355;0.0;0.0;0.0;0.0;1.82243538033e-06;0.000738187644143;0.0;0.0;0.0;0.0;0.0;0.0;0.000738187644143;0.0;0.0;0.0;0.0;0.0;0.0;4.99308432887e-07;-5.4906987987e-27;-1.86035616002e-23;0.0;0.0;0.0;-5.4906987987e-27;4.97267491714e-07;-3.58544788432e-31;0.0;0.0;0.0;-1.86035616002e-23;-3.58544557937e-31;4.97267491714e-07;0.0;0.0;0.0;0.0;0.0;0.0;9.99957491763e-10
258520000000;12538;258520000000;odom;base_link;0.114246687784;3.33979616033e-05;0.0;0.0;0.0;0.000147584828403;0.999999989109;12.9176292643;-4.58736081668e-05;0.0;0.0;0.0;-0.000456078073312;-4.58736081668e-05;13.0743411577;0.0;0.0;0.0;1.55803633144;0.0;0.0;4.9953831828e-07;-1.25937389729e-22;-7.7244910924e-15;0.0;0.0;0.0;-1.25937389729e-22;4.99079179725e-07;-2.10709739138e-27;0.0;0.0;0.0;-7.7244910924e-15;-2.10709740253e-27;4.99079179725e-07;0.0;-0.000456078073312;1.55803633144;0.0;0.0;0.0;15.4944976223;0.507499733316;0.0;0.0;0.0;0.0;1.0856505684e-06;0.00073818763973;0.0;0.0;0.0;0.0;0.0;0.0;0.00073818763973;0.0;0.0;0.0;0.0;0.0;0.0;4.99308432887e-07;-5.49684219374e-27;-1.86224164152e-23;0.0;0.0;0.0;-5.49684219374e-27;4.97267491714e-07;-3.59309277536e-31;0.0;0.0;0.0;-1.86224164152e-23;-3.59310478697e-31;4.97267491714e-07;0.0;0.0;0.0;0.0;0.0;0.0;9.99957491763e-10
258540000000;12539;258540000000;odom;base_link;0.124246249793;3.63496296565e-05;0.0;0.0;0.0;0.00014759540608;0.999999989108;12.9186296949;-5.5649467461e-05;0.0;0.0;0.0;-0.000502535169516;-5.5649467461e-05;13.1085917345;0.0;0.0;0.0;1.7154246339;0.0;0.0;4.9953831828e-07;-7.50298718862e-23;-7.72775403158e-15;0.0;0.0;0.0;-7.50298718862e-23;4.99079179725e-07;-1.25587827443e-27;0.0;0.0;0.0;-7.72775403158e-15;-1.2558782638e-27;4.99079179725e-07;0.0;-0.000502535169516;1.7154246339;0.0;0.0;0.0;15.4956976303;0.507698637884;0.0;0.0;0.0;0.0;9.78276188692e-07;0.00073818763543;0.0;0.0;0.0;0.0;0.0;0.0;0.00073818763543;0.0;0.0;0.0;0.0;0.0;0.0;4.99308432887e-07;-5.49949957985e-27;-1.86302828905e-23;0.0;0.0;0.0;-5.49949957985e-27;4.97267491714e-07;-3.59635240577e-31;0.0;0.0;0.0;-1.86302828905e-23;-3.59635799523e-31;4.97267491714e-07;0.0;0.0;0.0;0.0;0.0;0.0;9.99957491763e-10
258560000000;12540;258560000000;odom;base_link;0.134245958828;3.93015405034e-05;0.0;0.0;0.0;0.000147604142871;0.999999989107;12.9196301258;-6.63723653187e-05;0.0;0.0;0.0;-0.000549010875799;-6.63723653187e-05;13.1460494116;0.0;0.0;0.0;1.87286498317;0.0;0.0;4.9953831828e-07;-6.75880344208e-23;-7.72874594427e-15;0.0;0.0;0.0;-6.75880344208e-23;4.99079179725e-07;-1.1314592125e-27;0.0;0.0;0.0;-7.72874594427e-15;-1.13145919701e-27;4.99079179725e-07;0.0;-0.000549010875799;1.87286498317;0.0;0.0;0.0;15.4968976383;0.507748475498;0.0;0.0;0.0;0.0;5.59719923553e-07;0.000738187631236;0.0;0.0;0.0;0.0;0.0;0.0;0.000738187631236;0.0;0.0;0.0;0.0;0.0;0.0;4.99308432887e-07;-5.50055952035e-27;-1.86326742606e-23;0.0;0.0;0.0;-5.50055952035e-27;4.97267491714e-07;-3.59750756804e-31;0.0;0.0;0.0;-1.86326742606e-23;-3.59750626161e-31;4.97267491714e-07;0.0;0.0;0.0;0.0;0.0;0.0;9.99957491763e-10
258580000000;12541;258580000000;odom;base_link;0.144245743784;4.22536234819e-05;0.0;0.0;0.0;0.000147610633752;0.999999989106;12.9206305569;-7.80403259655e-05;0.0;0.0;0.0;-0.000595493815944;-7.80403259655e-05;13.1867074948;0.0;0.0;0.0;2.03032161938;0.0;0.0;4.9953831828e-07;-3.86700229982e-23;-7.72861026474e-15;0.0;0.0;0.0;-3.86700229982e-23;4.99079179725e-07;-6.47345133155e-28;0.0;0.0;0.0;-7.72861026474e-15;-6.47345141105e-28;4.99079179725e-07;0.0;-0.000595493815944;2.03032161938;0.0;0.0;0.0;15.4980976463;0.507724395537;0.0;0.0;0.0;0.0;9.25105594938e-07;0.000738187627145;0.0;0.0;0.0;0.0;0.0;0.0;0.000738187627145;0.0;0.0;0.0;0.0;0.0;0.0;4.99308432887e-07;-5.50063233309e-27;-1.86323471745e-23;0.0;0.0;0.0;-5.50063233309e-27;4.97267491714e-07;-3.59749986158e-31;0.0;0.0;0.0;-1.86323471745e-23;-3.59749163571e-31;4.97267491714e-07;0.0;0.0;0.0;0.0;0.0;0.0;9.99957491763e-10
258600000000;12542;258600000000;odom;base_link;0.154245569019;4.52058638836e-05;0.0;0.0;0.0;0.000147618761231;0.999999989104;12.9216309884;-9.06520865956e-05;0.0;0.0;0.0;-0.000641978670895;-9.06520865956e-05;13.230561488;0.0;0.0;0.0;2.18777685596;0.0;0.0;4.9953831828e-07;-6.38888211539e-23;-7.72791866794e-15;0.0;0.0;0.0;-6.38888211539e-23;4.99079179725e-07;-1.06941791993e-27;0.0;0.0;0.0;-7.72791866794e-15;-1.06941796271e-27;4.99079179725e-07;0.0;-0.000641978670895;2.18777685596;0.0;0.0;0.0;15.4992976543;0.507663968726;0.0;0.0;0.0;0.0;4.7501752278e-07;0.000738187623159;0.0;0.0;0.0;0.0;0.0;0.0;0.000738187623159;0.0;0.0;0.0;0.0;0.0;0.0;4.99308432887e-07;-5.50051826792e-27;-1.86306798547e-23;0.0;0.0;0.0;-5.50051826792e-27;4.97267491714e-07;-3.59709060585e-31;0.0;0.0;0.0;-1.86306798547e-23;-3.59709585143e-31;4.97267491714e-07;0.0;0.0;0.0;0.0;0.0;0.0;9.99957491763e-10
258620000000;12543;258620000000;odom;base_link;0.164245416639;4.81582496432e-05;0.0;0.0;0.0;0.000147624423926;0.999999989104;12.9226314201;-0.000104206758216;0.0;0.0;0.0;-0.000688462768234;-0.000104206758216;13.2776081931;0.0;0.0;0.0;2.34522204215;0.0;0.0;4.9953831828e-07;-3.2806207508e-23;-7.72695692175e-15;0.0;0.0;0.0;-3.2806207508e-23;4.99079179725e-07;-5.49066033552e-28;0.0;0.0;0.0;-7.72695692175e-15;-5.49066023085e-28;4.99079179725e-07;0.0;-0.000688462768234;2.34522204215;0.0;0.0;0.0;15.5004976623;0.50758597466;0.0;0.0;0.0;0.0;8.4762589303e-07;0.000738187619272;0.0;0.0;0.0;0.0;0.0;0.0;0.000738187619272;0.0;0.0;0.0;0.0;0.0;0.0;4.99308432887e-07;-5.49996862569e-27;-1.8628361245e-23;0.0;0.0;0.0;-5.49996862569e-27;4.97267491714e-07;-3.5962978943e-31;0.0;0.0;0.0;-1.8628361245e-23;-3.59629577684e-31;4.97267491714e-07;0.0;0.0;0.0;0.0;0.0;0.0;9.99957491763e-10
258651000000;12544;258651000000;odom;base_link;0.179688806748;5.27180730252e-05;0.0;0.0;0.0;0.00014763318524;0.999999989102;12.924181962;-0.000127098150773;0.0;0.0;0.0;-0.000760567950736;-0.000127098150773;13.3569015709;0.0;0.0;0.0;2.58943395887;0.0;0.0;9.98488283321e-07;-4.20135387255e-23;-1.27410035681e-14;0.0;0.0;0.0;-4.20135387255e-23;9.96983400914e-07;-3.54110001617e-28;0.0;0.0;0.0;-1.27410035681e-14;-3.54109985545e-28;9.96983400914e-07;0.0;-0.000760567950736;2.58943395887;0.0;0.0;0.0;15.5023576703;0.505110076682;0.0;0.0;0.0;0.0;2.97761920913e-07;0.000506230184176;0.0;0.0;0.0;0.0;0.0;0.0;0.000506230184176;0.0;0.0;0.0;0.0;0.0;0.0;9.97734991098e-07;-2.2712972483e-27;-7.69236427431e-24;0.0;0.0;0.0;-2.2712972483e-27;9.9103117033e-07;-7.47004172951e-32;0.0;0.0;0.0;-7.69236427431e-24;-7.47010916244e-32;9.9103117033e-07;0.0;0.0;0.0;0.0;0.0;0.0;0.0002183993971
258660000000;12545;258660000000;odom;base_link;0.184245147429;5.40634072447e-05;0.0;0.0;0.0;0.000147635228713;0.999999989102;12.9246322844;-0.00013414223795;0.0;0.0;0.0;-0.000781423802993;-0.00013414223795;13.3812704105;0.0;0.0;0.0;2.66006798177;0.0;0.0;4.9953831828e-07;-2.0701224891e-23;-7.72472269373e-15;0.0;0.0;0.0;-2.0701224891e-23;4.99079179725e-07;-3.4636899113e-28;0.0;0.0;0.0;-7.72472269373e-15;-3.4636896741e-28;4.99079179725e-07;0.0;-0.000781423802993;2.66006798177;0.0;0.0;0.0;15.5028976783;0.507410118769;0.0;0.0;0.0;0.0;5.82957757252e-07;0.000738187611786;0.0;0.0;0.0;0.0;0.0;0.0;0.000738187611786;0.0;0.0;0.0;0.0;0.0;0.0;4.99308432887e-07;-5.49878879272e-27;-1.86229748879e-23;0.0;0.0;0.0;-5.49878879272e-27;4.97267491714e-07;-3.59447953041e-31;0.0;0.0;0.0;-1.86229748879e-23;-3.59447752988e-31;4.97267491714e-07;0.0;0.0;0.0;0.0;0.0;0.0;9.99957491763e-10
258680000000;12546;258680000000;odom;base_link;0.194245023687;5.7016133271e-05;0.0;0.0;0.0;0.000147640685539;0.999999989101;12.9256327169;-0.000150521935405;0.0;0.0;0.0;-0.000827899273153;-0.000150521935405;13.4378821743;0.0;0.0;0.0;2.81746610462;0.0;0.0;4.9953831828e-07;-4.02399374652e-23;-7.723557086e-15;0.0;0.0;0.0;-4.02399374652e-23;4.99079179725e-07;-6.73185454092e-28;0.0;0.0;0.0;-7.723557086e-15;-6.73185424626e-28;4.99079179725e-07;0.0;-0.000827899273153;2.81746610462;0.0;0.0;0.0;15.5040976863;0.507319276565;0.0;0.0;0.0;0.0;4.35208168258e-07;0.000738187608183;0.0;0.0;0.0;0.0;0.0;0.0;0.000738187608183;0.0;0.0;0.0;0.0;0.0;0.0;4.99308432887e-07;-5.49820214927e-27;-1.86201647979e-23;0.0;0.0;0.0;-5.49820214927e-27;4.97267491714e-07;-3.59355359322e-31;0.0;0.0;0.0;-1.86201647979e-23;-3.59355713057e-31;4.97267491714e-07;0.0;0.0;0.0;0.0;0.0;0.0;9.99957491763e-10
258711000000;12547;258711000000;odom;base_link;0.209690512887;6.15770259109e-05;0.0;0.0;0.0;0.000147648123157;0.9999999891;12.9271832601;-0.000177791959351;0.0;0.0;0.0;-0.000899986520128;-0.000177791959351;13.53200037;0.0;0.0;0.0;3.06159296832;0.0;0.0;9.98488283321e-07;-7.32267429121e-23;-1.27328833424e-14;0.0;0.0;0.0;-7.32267429121e-23;9.96983400914e-07;-6.16785359455e-28;0.0;0.0;0.0;-1.27328833424e-14;-6.16785355945e-28;9.96983400914e-07;0.0;-0.000899986520128;3.06159296832;0.0;0.0;0.0;15.5059576943;0.504923747912;0.0;0.0;0.0;0.0;5.19194829123e-07;0.000506230179161;0.0;0.0;0.0;0.0;0.0;0.0;0.000506230179161;0.0;0.0;0.0;0.0;0.0;0.0;9.97734991098e-07;-2.27007953952e-27;-7.68746180507e-24;0.0;0.0;0.0;-2.27007953952e-27;9.9103117033e-07;-7.46137100027e-32;0.0;0.0;0.0;-7.68746180507e-24;-7.4613215228e-32;9.9103117033e-07;0.0;0.0;0.0;0.0;0.0;0.0;0.0002183993971
258731000000;12548;258731000000;odom;base_link;0.219691082727;6.45302069661e-05;0.0;0.0;0.0;0.00014765262102;0.999999989099;12.9281836933;-0.000196570615175;0.0;0.0;0.0;-0.000946452513418;-0.000196570615175;13.5967337011;0.0;0.0;0.0;3.21894554;0.0;0.0;9.98488283321e-07;-6.05043210106e-23;-1.27301919426e-14;0.0;0.0;0.0;-6.05043210106e-23;9.96983400914e-07;-5.09519017403e-28;0.0;0.0;0.0;-1.27301919426e-14;-5.09518999448e-28;9.96983400914e-07;0.0;-0.000946452513418;3.21894554;0.0;0.0;0.0;15.5071577022;0.504862155511;0.0;0.0;0.0;0.0;4.29115788692e-07;0.000506230177572;0.0;0.0;0.0;0.0;0.0;0.0;0.000506230177572;0.0;0.0;0.0;0.0;0.0;0.0;9.97734991098e-07;-2.26966876239e-27;-7.68583691052e-24;0.0;0.0;0.0;-2.26966876239e-27;9.9103117033e-07;-7.45843971215e-32;0.0;0.0;0.0;-7.68583691052e-24;-7.4584186124e-32;9.9103117033e-07;0.0;0.0;0.0;0.0;0.0;0.0;0.000218399397098
258751000000;12549;258751000000;odom;base_link;0.229691649247;6.74834793618e-05;0.0;0.0;0.0;0.000147658365915;0.999999989099;12.9291841269;-0.000216288987564;0.0;0.0;0.0;-0.000992915089196;-0.000216288987564;13.6646481885;0.0;0.0;0.0;3.37628159316;0.0;0.0;9.98488283321e-07;-8.56242127315e-23;-1.27275271733e-14;0.0;0.0;0.0;-8.56242127315e-23;9.96983400914e-07;-7.20904416343e-28;0.0;0.0;0.0;-1.27275271733e-14;-7.2090446284e-28;9.96983400914e-07;0.0;-0.000992915089196;3.37628159316;0.0;0.0;0.0;15.5083577102;0.50480119473;0.0;0.0;0.0;0.0;6.07326819151e-07;0.000506230176023;0.0;0.0;0.0;0.0;0.0;0.0;0.000506230176023;0.0;0.0;0.0;0.0;0.0;0.0;9.97734991098e-07;-2.2692821695e-27;-7.68422809372e-24;0.0;0.0;0.0;-2.2692821695e-27;9.9103117033e-07;-7.45554792269e-32;0.0;0.0;0.0;-7.68422809372e-24;-7.45551987374e-32;9.9103117033e-07;0.0;0.0;0.0;0.0;0.0;0.0;0.000218399397098
258780000000;12550;258780000000;odom;base_link;0.244244473603;7.17812790343e-05;0.0;0.0;0.0;0.000147666391953;0.999999989097;12.9306348838;-0.000246523848531;0.0;0.0;0.0;-0.00106022595109;-0.000246523848531;13.7686859612;0.0;0.0;0.0;3.60420500794;0.0;0.0;4.9953831828e-07;-3.87910165775e-23;-7.71780757192e-15;0.0;0.0;0.0;-3.87910165775e-23;4.99079179725e-07;-6.48462921053e-28;0.0;0.0;0.0;-7.71780757192e-15;-6.48462931812e-28;4.99079179725e-07;0.0;-0.00106022595109;3.60420500794;0.0;0.0;0.0;15.5100977262;0.506872866012;0.0;0.0;0.0;0.0;4.76544580855e-07;0.000738187591471;0.0;0.0;0.0;0.0;0.0;0.0;0.000738187591471;0.0;0.0;0.0;0.0;0.0;0.0;4.99308432887e-07;-5.49506009993e-27;-1.86063036561e-23;0.0;0.0;0.0;-5.49506009993e-27;4.97267491714e-07;-3.58882607843e-31;0.0;0.0;0.0;-1.86063036561e-23;-3.58882413523e-31;4.97267491714e-07;0.0;0.0;0.0;0.0;0.0;0.0;9.99957491763e-10
258791000000;12551;258791000000;odom;base_link;0.249692769805;7.33903655578e-05;0.0;0.0;0.0;0.000147669012949;0.999999989097;12.9311849948;-0.000258543720566;0.0;0.0;0.0;-0.00108583142286;-0.000258543720566;13.8100152445;0.0;0.0;0.0;3.69090540943;0.0;0.0;9.98488283321e-07;-6.66902890742e-23;-1.27222887451e-14;0.0;0.0;0.0;-6.66902890742e-23;9.96983400914e-07;-5.61263431487e-28;0.0;0.0;0.0;-1.27222887451e-14;-5.6126346053e-28;9.96983400914e-07;0.0;-0.00108583142286;3.69090540943;0.0;0.0;0.0;15.5107577262;0.504681384865;0.0;0.0;0.0;0.0;4.73270075871e-07;0.00050623017304;0.0;0.0;0.0;0.0;0.0;0.0;0.00050623017304;0.0;0.0;0.0;0.0;0.0;0.0;9.97734991098e-07;-2.2685116176e-27;-7.68106546654e-24;0.0;0.0;0.0;-2.2685116176e-27;9.9103117033e-07;-7.44993034168e-32;0.0;0.0;0.0;-7.68106546654e-24;-7.45002952943e-32;9.9103117033e-07;0.0;0.0;0.0;0.0;0.0;0.0;0.0002183993971
258820000000;12552;258820000000;odom;base_link;0.264244280275;7.76880972395e-05;0.0;0.0;0.0;0.000147678783736;0.999999989095;12.9326357525;-0.000291499715477;0.0;0.0;0.0;-0.00115313527898;-0.000291499715477;13.9232627219;0.0;0.0;0.0;3.91878809188;0.0;0.0;4.9953831828e-07;-5.01724893946e-23;-7.71559524254e-15;0.0;0.0;0.0;-5.01724893946e-23;4.99079179725e-07;-8.384846664e-28;0.0;0.0;0.0;-7.71559524254e-15;-8.38484698665e-28;4.99079179725e-07;0.0;-0.00115313527898;3.91878809188;0.0;0.0;0.0;15.5124977422;0.506701242072;0.0;0.0;0.0;0.0;6.25360567999e-07;0.000738187585358;0.0;0.0;0.0;0.0;0.0;0.0;0.000738187585358;0.0;0.0;0.0;0.0;0.0;0.0;4.99308432887e-07;-5.49394759526e-27;-1.86009700902e-23;0.0;0.0;0.0;-5.49394759526e-27;4.97267491714e-07;-3.58706511611e-31;0.0;0.0;0.0;-1.86009700902e-23;-3.5870724118e-31;4.97267491714e-07;0.0;0.0;0.0;0.0;0.0;0.0;9.99957491763e-10
258840000000;12553;258840000000;odom;base_link;0.274244188789;8.06417027701e-05;0.0;0.0;0.0;0.000147684786832;0.999999989095;12.9336361873;-0.000315395411563;0.0;0.0;0.0;-0.00119958628356;-0.000315395411563;14.0053148975;0.0;0.0;0.0;4.07605684877;0.0;0.0;4.9953831828e-07;-4.31167931411e-23;-7.71450961858e-15;0.0;0.0;0.0;-4.31167931411e-23;4.99079179725e-07;-7.20468222301e-28;0.0;0.0;0.0;-7.71450961858e-15;-7.20468214023e-28;4.99079179725e-07;0.0;-0.00119958628356;4.07605684877;0.0;0.0;0.0;15.5136977502;0.506617026828;0.0;0.0;0.0;0.0;5.27402658946e-07;0.000738187582414;0.0;0.0;0.0;0.0;0.0;0.0;0.000738187582414;0.0;0.0;0.0;0.0;0.0;0.0;4.99308432887e-07;-5.49339736261e-27;-1.85983528276e-23;0.0;0.0;0.0;-5.49339736261e-27;4.97267491714e-07;-3.58619645253e-31;0.0;0.0;0.0;-1.85983528276e-23;-3.58620160626e-31;4.97267491714e-07;0.0;0.0;0.0;0.0;0.0;0.0;9.99957491763e-10
258851000000;12554;258851000000;odom;base_link;0.279694416341;8.22515592918e-05;0.0;0.0;0.0;0.000147687687547;0.999999989094;12.9341862987;-0.000328965945062;0.0;0.0;0.0;-0.00122518554771;-0.000328965945062;14.0518916597;0.0;0.0;0.0;4.16272543481;0.0;0.0;9.98488283321e-07;-7.37634458578e-23;-1.27146690182e-14;0.0;0.0;0.0;-7.37634458578e-23;9.96983400914e-07;-6.20419144108e-28;0.0;0.0;0.0;-1.27146690182e-14;-6.20419151229e-28;9.96983400914e-07;0.0;-0.00122518554771;4.16272543481;0.0;0.0;0.0;15.5143577502;0.504507130952;0.0;0.0;0.0;0.0;5.23758197526e-07;0.000506230168839;0.0;0.0;0.0;0.0;0.0;0.0;0.000506230168839;0.0;0.0;0.0;0.0;0.0;0.0;9.97734991098e-07;-2.26743977227e-27;-7.67646516376e-24;0.0;0.0;0.0;-2.26743977227e-27;9.9103117033e-07;-7.44206100131e-32;0.0;0.0;0.0;-7.67646516376e-24;-7.44203918038e-32;9.9103117033e-07;0.0;0.0;0.0;0.0;0.0;0.0;0.0002183993971
258880000000;12555;258880000000;odom;base_link;0.294244015702;8.65492717332e-05;0.0;0.0;0.0;0.000147697836736;0.999999989093;12.9356370577;-0.000366000677431;0.0;0.0;0.0;-0.00129248093006;-0.000366000677431;14.1789407138;0.0;0.0;0.0;4.39055047204;0.0;0.0;4.9953831828e-07;-5.05971939109e-23;-7.71237896956e-15;0.0;0.0;0.0;-5.05971939109e-23;4.99079179725e-07;-8.45229880932e-28;0.0;0.0;0.0;-7.71237896956e-15;-8.45229875623e-28;4.99079179725e-07;0.0;-0.00129248093006;4.39055047204;0.0;0.0;0.0;15.5160977662;0.506451747797;0.0;0.0;0.0;0.0;7.10959954393e-07;0.000738187576748;0.0;0.0;0.0;0.0;0.0;0.0;0.000738187576748;0.0;0.0;0.0;0.0;0.0;0.0;4.99308432887e-07;-5.49235867534e-27;-1.85932161797e-23;0.0;0.0;0.0;-5.49235867534e-27;4.97267491714e-07;-3.58454251185e-31;0.0;0.0;0.0;-1.85932161797e-23;-3.58453444123e-31;4.97267491714e-07;0.0;0.0;0.0;0.0;0.0;0.0;9.99957491763e-10
258900000000;12556;258900000000;odom;base_link;0.304243933927;8.95032645299e-05;0.0;0.0;0.0;0.000147704546854;0.999999989092;12.9366374933;-0.000392709793461;0.0;0.0;0.0;-0.0013389252245;-0.000392709793461;14.2705119819;0.0;0.0;0.0;4.54777600084;0.0;0.0;4.9953831828e-07;-4.8996289871e-23;-7.71133365689e-15;0.0;0.0;0.0;-4.8996289871e-23;4.99079179725e-07;-8.18375714054e-28;0.0;0.0;0.0;-7.71133365689e-15;-8.18375735632e-28;4.99079179725e-07;0.0;-0.0013389252245;4.54777600084;0.0;0.0;0.0;15.5172977742;0.506370661058;0.0;0.0;0.0;0.0;5.53130231556e-07;0.000738187574019;0.0;0.0;0.0;0.0;0.0;0.0;0.000738187574019;0.0;0.0;0.0;0.0;0.0;0.0;4.99308432887e-07;-5.49187607717e-27;-1.8590696101e-23;0.0;0.0;0.0;-5.49187607717e-27;4.97267491714e-07;-3.58372880355e-31;0.0;0.0;0.0;-1.8590696101e-23;-3.58373213984e-31;4.97267491714e-07;0.0;0.0;0.0;0.0;0.0;0.0;9.99957491763e-10
258920000000;12557;258920000000;odom;base_link;0.314243855221;9.24573842147e-05;0.0;0.0;0.0;0.000147710105459;0.999999989091;12.9376379291;-0.000420356141659;0.0;0.0;0.0;-0.00138536744357;-0.000420356141659;14.3652539496;0.0;0.0;0.0;4.70498777647;0.0;0.0;4.9953831828e-07;-3.81169930529e-23;-7.71030147665e-15;0.0;0.0;0.0;-3.81169930529e-23;4.99079179725e-07;-6.3657568239e-28;0.0;0.0;0.0;-7.71030147665e-15;-6.36575674344e-28;4.99079179725e-07;0.0;-0.00138536744357;4.70498777647;0.0;0.0;0.0;15.5184977822;0.506290593138;0.0;0.0;0.0;0.0;5.67361209865e-07;0.00073818757136;0.0;0.0;0.0;0.0;0.0;0.0;0.00073818757136;0.0;0.0;0.0;0.0;0.0;0.0;4.99308432887e-07;-5.49133168366e-27;-1.85882076825e-23;0.0;0.0;0.0;-5.49133168366e-27;4.97267491714e-07;-3.58290467049e-31;0.0;0.0;0.0;-1.85882076825e-23;-3.58289976202e-31;4.97267491714e-07;0.0;0.0;0.0;0.0;0.0;0.0;9.99957491763e-10
258940000000;12558;258940000000;odom;base_link;0.324243779504;9.54116161625e-05;0.0;0.0;0.0;0.000147714919444;0.99999998909;12.9386383653;-0.000448939378288;0.0;0.0;0.0;-0.00143180745348;-0.000448939378288;14.4631654922;0.0;0.0;0.0;4.86218612056;0.0;0.0;4.9953831828e-07;-3.90919138264e-23;-7.70928226858e-15;0.0;0.0;0.0;-3.90919138264e-23;4.99079179725e-07;-6.52771111289e-28;0.0;0.0;0.0;-7.70928226858e-15;-6.52771119527e-28;4.99079179725e-07;0.0;-0.00143180745348;4.86218612056;0.0;0.0;0.0;15.5196977902;0.506211531537;0.0;0.0;0.0;0.0;2.22146231317e-07;0.000738187568767;0.0;0.0;0.0;0.0;0.0;0.0;0.000738187568767;0.0;0.0;0.0;0.0;0.0;0.0;4.99308432887e-07;-5.490817711e-27;-1.85857505378e-23;0.0;0.0;0.0;-5.490817711e-27;4.97267491714e-07;-3.58209617199e-31;0.0;0.0;0.0;-1.85857505378e-23;-3.58209409978e-31;4.97267491714e-07;0.0;0.0;0.0;0.0;0.0;0.0;9.99957491763e-10
258960000000;12559;258960000000;odom;base_link;0.334243706701;9.83659274159e-05;0.0;0.0;0.0;0.000147717235692;0.99999998909;12.9396388017;-0.000478459065343;0.0;0.0;0.0;-0.00147824483469;-0.000478459065343;14.5642455088;0.0;0.0;0.0;5.01937135083;0.0;0.0;4.9953831828e-07;-1.53116671199e-23;-7.70827587214e-15;0.0;0.0;0.0;-1.53116671199e-23;4.99079179725e-07;-2.55646454344e-28;0.0;0.0;0.0;-7.70827587214e-15;-2.55646461142e-28;4.99079179725e-07;0.0;-0.00147824483469;5.01937135083;0.0;0.0;0.0;15.5208977982;0.506133463771;0.0;0.0;0.0;0.0;2.61753542385e-07;0.000738187566237;0.0;0.0;0.0;0.0;0.0;0.0;0.000738187566237;0.0;0.0;0.0;0.0;0.0;0.0;4.99308432887e-07;-5.49015137398e-27;-1.85833242799e-23;0.0;0.0;0.0;-5.49015137398e-27;4.97267491714e-07;-3.58118227305e-31;0.0;0.0;0.0;-1.85833242799e-23;-3.58119079923e-31;4.97267491714e-07;0.0;0.0;0.0;0.0;0.0;0.0;9.99957491763e-10
258971000000;12560;258971000000;odom;base_link;0.339697583167;9.99772128941e-05;0.0;0.0;0.0;0.000147718675336;0.99999998909;12.9401889141;-0.000495125774647;0.0;0.0;0.0;-0.00150383259146;-0.000495125774647;14.6212976889;0.0;0.0;0.0;5.10598194779;0.0;0.0;9.98488283321e-07;-3.65678080817e-23;-1.27002674647e-14;0.0;0.0;0.0;-3.65678080817e-23;9.96983400914e-07;-3.07219999582e-28;0.0;0.0;0.0;-1.27002674647e-14;-3.07219945907e-28;9.96983400914e-07;0.0;-0.00150383259146;5.10598194779;0.0;0.0;0.0;15.5215577982;0.504177793405;0.0;0.0;0.0;0.0;2.60023541657e-07;0.000506230161337;0.0;0.0;0.0;0.0;0.0;0.0;0.000506230161337;0.0;0.0;0.0;0.0;0.0;0.0;9.97734991098e-07;-2.26534628141e-27;-7.66777042869e-24;0.0;0.0;0.0;-2.26534628141e-27;9.9103117033e-07;-7.42666265339e-32;0.0;0.0;0.0;-7.66777042869e-24;-7.42674993166e-32;9.9103117033e-07;0.0;0.0;0.0;0.0;0.0;0.0;0.0002183993971
259000000000;12561;259000000000;odom;base_link;0.354243569543;0.000104274698897;0.0;0.0;0.0;0.000147723828143;0.999999989089;12.9416396754;-0.000540306194283;0.0;0.0;0.0;-0.00157111068167;-0.000540306194283;14.7759066771;0.0;0.0;0.0;5.33370372109;0.0;0.0;4.9953831828e-07;-1.7960092199e-23;-7.7063008771e-15;0.0;0.0;0.0;-1.7960092199e-23;4.99079179725e-07;-2.99788210212e-28;0.0;0.0;0.0;-7.7063008771e-15;-2.99788235679e-28;4.99079179725e-07;0.0;-0.00157111068167;5.33370372109;0.0;0.0;0.0;15.5232978141;0.505980260281;0.0;0.0;0.0;0.0;8.1919810471e-07;0.00073818756137;0.0;0.0;0.0;0.0;0.0;0.0;0.00073818756137;0.0;0.0;0.0;0.0;0.0;0.0;4.99308432887e-07;-5.48894212541e-27;-1.85785628885e-23;0.0;0.0;0.0;-5.48894212541e-27;4.97267491714e-07;-3.57948608897e-31;0.0;0.0;0.0;-1.85785628885e-23;-3.57947932825e-31;4.97267491714e-07;0.0;0.0;0.0;0.0;0.0;0.0;9.99957491763e-10
259020000000;12562;259020000000;odom;base_link;0.364243505048;0.000107229218908;0.0;0.0;0.0;0.000147731040127;0.999999989088;12.9426401127;-0.000572633394352;0.0;0.0;0.0;-0.00161754025515;-0.000572633394352;14.8864857426;0.0;0.0;0.0;5.49085147699;0.0;0.0;4.9953831828e-07;-5.64076938091e-23;-7.70533196415e-15;0.0;0.0;0.0;-5.64076938091e-23;4.99079179725e-07;-9.41433697497e-28;0.0;0.0;0.0;-7.70533196415e-15;-9.4143370828e-28;4.99079179725e-07;0.0;-0.00161754025515;5.49085147699;0.0;0.0;0.0;15.5244978221;0.505905100142;0.0;0.0;0.0;0.0;4.26717799963e-07;0.000738187559025;0.0;0.0;0.0;0.0;0.0;0.0;0.000738187559025;0.0;0.0;0.0;0.0;0.0;0.0;4.99308432887e-07;-5.48860766288e-27;-1.85762269971e-23;0.0;0.0;0.0;-5.48860766288e-27;4.97267491714e-07;-3.57881844068e-31;0.0;0.0;0.0;-1.85762269971e-23;-3.57882879496e-31;4.97267491714e-07;0.0;0.0;0.0;0.0;0.0;0.0;9.99957491763e-10
