%time;field.header.seq;field.header.stamp;field.header.frame_id;field.pose.pose.position.x;field.pose.pose.position.y;field.pose.pose.position.z;field.pose.pose.orientation.x;field.pose.pose.orientation.y;field.pose.pose.orientation.z;field.pose.pose.orientation.w;field.pose.covariance0;field.pose.covariance1;field.pose.covariance2;field.pose.covariance3;field.pose.covariance4;field.pose.covariance5;field.pose.covariance6;field.pose.covariance7;field.pose.covariance8;field.pose.covariance9;field.pose.covariance10;field.pose.covariance11;field.pose.covariance12;field.pose.covariance13;field.pose.covariance14;field.pose.covariance15;field.pose.covariance16;field.pose.covariance17;field.pose.covariance18;field.pose.covariance19;field.pose.covariance20;field.pose.covariance21;field.pose.covariance22;field.pose.covariance23;field.pose.covariance24;field.pose.covariance25;field.pose.covariance26;field.pose.covariance27;field.pose.covariance28;field.pose.covariance29;field.pose.covariance30;field.pose.covariance31;field.pose.covariance32;field.pose.covariance33;field.pose.covariance34;field.pose.covariance35
256829000000;48;256829000000;map;10.8038080248;-0.0196018298635;0.0;0.0;0.0;-0.00206171895002;0.999997874655;0.00561535098058;0.000106534008291;0.00191574755298;0.0;0.0;0.0;0.0;0.0;0.00084079271119;0.0;0.0;0.0;0.0;0.0;0.0;0.0;0.0;0.0;0.0;0.0;0.0;0.0;0.0;0.0;0.0;0.0;0.0;0.0;0.0;0.0;0.0;0.0;0.0;0.0;0.0;0.0
257243000000;49;257243000000;map;11.0014018892;-0.0208773434857;0.0;0.0;0.0;-0.00217464072871;0.999997635466;0.00465522537208;0.000269162147116;0.00188414148302;0.0;0.0;0.0;0.0;0.0;0.000895734035371;0.0;0.0;0.0;0.0;0.0;0.0;0.0;0.0;0.0;0.0;0.0;0.0;0.0;0.0;0.0;0.0;0.0;0.0;0.0;0.0;0.0;0.0;0.0;0.0;0.0;0.0;0.0
257643000000;50;257643000000;map;11.2033751253;-0.0257581599667;0.0;0.0;0.0;-0.00286478762826;0.999995896488;0.00471087480274;0.000365790167355;0.00180021356945;0.0;0.0;0.0;0.0;0.0;0.000808729589873;0.0;0.0;0.0;0.0;0.0;0.0;0.0;0.0;0.0;0.0;0.0;0.0;0.0;0.0;0.0;0.0;0.0;0.0;0.0;0.0;0.0;0.0;0.0;0.0;0.0;0.0;0.0
258038000000;51;258038000000;map;11.3983799573;-0.026999571164;0.0;0.0;0.0;-0.00283704368633;0.999995975583;0.00457324232968;0.000293698152249;0.00179303642032;0.0;0.0;0.0;0.0;0.0;0.000731469601886;0.0;0.0;0.0;0.0;0.0;0.0;0.0;0.0;0.0;0.0;0.0;0.0;0.0;0.0;0.0;0.0;0.0;0.0;0.0;0.0;0.0;0.0;0.0;0.0;0.0;0.0;0.0
258442000000;52;258442000000;map;11.602477079;-0.0305717286046;0.0;0.0;0.0;-0.00236759770236;0.999997197237;0.00493954079226;0.000299129333977;0.00184172112133;0.0;0.0;0.0;0.0;0.0;0.000794042439231;0.0;0.0;0.0;0.0;0.0;0.0;0.0;0.0;0.0;0.0;0.0;0.0;0.0;0.0;0.0;0.0;0.0;0.0;0.0;0.0;0.0;0.0;0.0;0.0;0.0;0.0;0.0
258843000000;53;258843000000;map;11.8113153633;-0.0300535478393;0.0;0.0;0.0;-0.00104409171197;0.999999454936;0.00460746804004;0.000160197674754;0.00195122298728;0.0;0.0;0.0;0.0;0.0;0.00103099414072;0.0;0.0;0.0;0.0;0.0;0.0;0.0;0.0;0.0;0.0;0.0;0.0;0.0;0.0;0.0;0.0;0.0;0.0;0.0;0.0;0.0;0.0;0.0;0.0;0.0;0.0;0.0
259239000000;54;259239000000;map;12.0158836438;-0.0273899526649;0.0;0.0;0.0;-7.03785961109e-05;0.999999997523;0.00473840673314;0.000206197294277;0.00167801658917;0.0;0.0;0.0;0.0;0.0;0.00103531831227;0.0;0.0;0.0;0.0;0.0;0.0;0.0;0.0;0.0;0.0;0.0;0.0;0.0;0.0;0.0;0.0;0.0;0.0;0.0;0.0;0.0;0.0;0.0;0.0;0.0;0.0;0.0
259648000000;55;259648000000;map;12.2081917493;-0.034226501995;0.0;0.0;0.0;-0.00240996414292;0.999997096032;0.00550305723249;0.00010769855504;0.00152573557151;0.0;0.0;0.0;0.0;0.0;0.00114477542509;0.0;0.0;0.0;0.0;0.0;0.0;0.0;0.0;0.0;0.0;0.0;0.0;0.0;0.0;0.0;0.0;0.0;0.0;0.0;0.0;0.0;0.0;0.0;0.0;0.0;0.0;0.0
260035000000;56;260035000000;map;12.410704219;-0.0348256124931;0.0;0.0;0.0;-0.00186700605792;0.999998257143;0.00563507290184;0.000163499296045;0.00172394101569;0.0;0.0;0.0;0.0;0.0;0.00113418859722;0.0;0.0;0.0;0.0;0.0;0.0;0.0;0.0;0.0;0.0;0.0;0.0;0.0;0.0;0.0;0.0;0.0;0.0;0.0;0.0;0.0;0.0;0.0;0.0;0.0;0.0;0.0
260548000000;57;260548000000;map;12.6182130035;-0.0354816037587;0.0;0.0;0.0;-0.00244886250252;0.999997001532;0.0059091573246;-8.0746059966e-05;0.00156798051971;0.0;0.0;0.0;0.0;0.0;0.00113347172022;0.0;0.0;0.0;0.0;0.0;0.0;0.0;0.0;0.0;0.0;0.0;0.0;0.0;0.0;0.0;0.0;0.0;0.0;0.0;0.0;0.0;0.0;0.0;0.0;0.0;0.0;0.0
260940184928;58;260940184928;map;12.8221436473;-0.0375919409268;0.0;0.0;0.0;-0.00364113195348;0.999993371057;0.00551991423626;-0.000302412259186;0.00133148399094;0.0;0.0;0.0;0.0;0.0;0.00098366875921;0.0;0.0;0.0;0.0;0.0;0.0;0.0;0.0;0.0;0.0;0.0;0.0;0.0;0.0;0.0;0.0;0.0;0.0;0.0;0.0;0.0;0.0;0.0;0.0;0.0;0.0;0.0
261342000000;59;261342000000;map;13.0238176283;-0.0390262115738;0.0;0.0;0.0;-0.00279385481656;0.99999609718;0.00575565997116;-0.000303681431973;0.00152214480937;0.0;0.0;0.0;0.0;0.0;0.00106736412728;0.0;0.0;0.0;0.0;0.0;0.0;0.0;0.0;0.0;0.0;0.0;0.0;0.0;0.0;0.0;0.0;0.0;0.0;0.0;0.0;0.0;0.0;0.0;0.0;0.0;0.0;0.0
261642000000;60;261642000000;map;13.2300999808;-0.0437539706907;0.0;0.0;0.0;-0.00589900520492;0.999982600717;0.00563924092265;-0.00027091063057;0.00147835606522;0.0;0.0;0.0;0.0;0.0;0.00120240929638;0.0;0.0;0.0;0.0;0.0;0.0;0.0;0.0;0.0;0.0;0.0;0.0;0.0;0.0;0.0;0.0;0.0;0.0;0.0;0.0;0.0;0.0;0.0;0.0;0.0;0.0;0.0
262138000000;61;262138000000;map;13.440039574;-0.0445859615761;0.0;0.0;0.0;-0.00500951306148;0.999987452311;0.00594829855285;-0.000102902324732;0.00141317875327;0.0;0.0;0.0;0.0;0.0;0.00131441724447;0.0;0.0;0.0;0.0;0.0;0.0;0.0;0.0;0.0;0.0;0.0;0.0;0.0;0.0;0.0;0.0;0.0;0.0;0.0;0.0;0.0;0.0;0.0;0.0;0.0;0.0;0.0
262541000000;62;262541000000;map;13.6393485199;-0.0436526634521;0.0;0.0;0.0;-0.00397211954836;0.999992111102;0.00639728135914;-0.000237899091179;0.00156163227756;0.0;0.0;0.0;0.0;0.0;0.00147638567697;0.0;0.0;0.0;0.0;0.0;0.0;0.0;0.0;0.0;0.0;0.0;0.0;0.0;0.0;0.0;0.0;0.0;0.0;0.0;0.0;0.0;0.0;0.0;0.0;0.0;0.0;0.0
262947000000;63;262947000000;map;13.836039781;-0.0433382033615;0.0;0.0;0.0;-0.00470219130541;0.999988944637;0.00520037244928;0.000148928475964;0.00160812744658;0.0;0.0;0.0;0.0;0.0;0.00131915659382;0.0;0.0;0.0;0.0;0.0;0.0;0.0;0.0;0.0;0.0;0.0;0.0;0.0;0.0;0.0;0.0;0.0;0.0;0.0;0.0;0.0;0.0;0.0;0.0;0.0;0.0;0.0
263337000000;64;263337000000;map;14.03192373;-0.0434505853478;0.0;0.0;0.0;-0.00532891834267;0.999985801214;0.00524011555336;0.000390360972307;0.00176593216668;0.0;0.0;0.0;0.0;0.0;0.0013279451564;0.0;0.0;0.0;0.0;0.0;0.0;0.0;0.0;0.0;0.0;0.0;0.0;0.0;0.0;0.0;0.0;0.0;0.0;0.0;0.0;0.0;0.0;0.0;0.0;0.0;0.0;0.0
263745000000;65;263745000000;map;14.2297290861;-0.0475419095511;0.0;0.0;0.0;-0.00411504863285;0.999991533152;0.00516529961652;6.99074229311e-05;0.00186785694323;0.0;0.0;0.0;0.0;0.0;0.00127596454087;0.0;0.0;0.0;0.0;0.0;0.0;0.0;0.0;0.0;0.0;0.0;0.0;0.0;0.0;0.0;0.0;0.0;0.0;0.0;0.0;0.0;0.0;0.0;0.0;0.0;0.0;0.0
264135000000;66;264135000000;map;14.430287233;-0.0484749350763;0.0;0.0;0.0;-0.00339853896441;0.99999422495;0.00478260501518;-0.00010599602984;0.00181476506215;0.0;0.0;0.0;0.0;0.0;0.00131093987537;0.0;0.0;0.0;0.0;0.0;0.0;0.0;0.0;0.0;0.0;0.0;0.0;0.0;0.0;0.0;0.0;0.0;0.0;0.0;0.0;0.0;0.0;0.0;0.0;0.0;0.0;0.0
264548000000;67;264548000000;map;14.6340377184;-0.0498968587775;0.0;0.0;0.0;-0.0041212430639;0.999991507642;0.00459636671573;-0.000137443913753;0.00222356586919;0.0;0.0;0.0;0.0;0.0;0.00142252537011;0.0;0.0;0.0;0.0;0.0;0.0;0.0;0.0;0.0;0.0;0.0;0.0;0.0;0.0;0.0;0.0;0.0;0.0;0.0;0.0;0.0;0.0;0.0;0.0;0.0;0.0;0.0
264943000000;68;264943000000;map;14.8438222064;-0.0508780479913;0.0;0.0;0.0;-0.00520227620142;0.99998646807;0.00498282419238;-0.000260948331961;0.00211251575893;0.0;0.0;0.0;0.0;0.0;0.00139445133907;0.0;0.0;0.0;0.0;0.0;0.0;0.0;0.0;0.0;0.0;0.0;0.0;0.0;0.0;0.0;0.0;0.0;0.0;0.0;0.0;0.0;0.0;0.0;0.0;0.0;0.0;0.0
265344000000;69;265344000000;map;15.0441143309;-0.0494760457899;0.0;0.0;0.0;-0.00333129567196;0.999994451219;0.0049035540558;-0.000480209613304;0.00239834238575;0.0;0.0;0.0;0.0;0.0;0.0014687432288;0.0;0.0;0.0;0.0;0.0;0.0;0.0;0.0;0.0;0.0;0.0;0.0;0.0;0.0;0.0;0.0;0.0;0.0;0.0;0.0;0.0;0.0;0.0;0.0;0.0;0.0;0.0
265744000000;70;265744000000;map;15.249768531;-0.0457555059944;0.0;0.0;0.0;-0.00188044703773;0.999998231958;0.0053469864651;-0.00068757606119;0.00252907879896;0.0;0.0;0.0;0.0;0.0;0.00137776647731;0.0;0.0;0.0;0.0;0.0;0.0;0.0;0.0;0.0;0.0;0.0;0.0;0.0;0.0;0.0;0.0;0.0;0.0;0.0;0.0;0.0;0.0;0.0;0.0;0.0;0.0;0.0
266241000000;71;266241000000;map;15.4653102172;-0.0467384897611;0.0;0.0;0.0;-0.00119618663729;0.999999284569;0.00572435584971;-0.000986983628121;0.00279879926094;0.0;0.0;0.0;0.0;0.0;0.00131620894019;0.0;0.0;0.0;0.0;0.0;0.0;0.0;0.0;0.0;0.0;0.0;0.0;0.0;0.0;0.0;0.0;0.0;0.0;0.0;0.0;0.0;0.0;0.0;0.0;0.0;0.0;0.0
266647000000;72;266647000000;map;15.6644543397;-0.0500793892256;0.0;0.0;0.0;-0.00188189150737;0.999998229241;0.00560131395082;-0.000586514320055;0.00289504610143;0.0;0.0;0.0;0.0;0.0;0.00143374303492;0.0;0.0;0.0;0.0;0.0;0.0;0.0;0.0;0.0;0.0;0.0;0.0;0.0;0.0;0.0;0.0;0.0;0.0;0.0;0.0;0.0;0.0;0.0;0.0;0.0;0.0;0.0
267041000000;73;267041000000;map;15.8647563975;-0.0473273759747;0.0;0.0;0.0;-0.000734125439585;0.99999973053;0.00592227023412;-0.000663025517501;0.00317618755522;0.0;0.0;0.0;0.0;0.0;0.0013001148011;0.0;0.0;0.0;0.0;0.0;0.0;0.0;0.0;0.0;0.0;0.0;0.0;0.0;0.0;0.0;0.0;0.0;0.0;0.0;0.0;0.0;0.0;0.0;0.0;0.0;0.0;0.0
267443654686;74;267443654686;map;16.0728696999;-0.0498815357409;0.0;0.0;0.0;-0.000138465982268;0.999999990414;0.00657124248534;-0.00102477435122;0.00364255894174;0.0;0.0;0.0;0.0;0.0;0.00107695817013;0.0;0.0;0.0;0.0;0.0;0.0;0.0;0.0;0.0;0.0;0.0;0.0;0.0;0.0;0.0;0.0;0.0;0.0;0.0;0.0;0.0;0.0;0.0;0.0;0.0;0.0;0.0
267835000000;75;267835000000;map;16.2729753941;-0.0531420803224;0.0;0.0;0.0;-0.000832917688342;0.999999653124;0.00700231106543;-0.000754588391017;0.00349361813773;0.0;0.0;0.0;0.0;0.0;0.001053402204;0.0;0.0;0.0;0.0;0.0;0.0;0.0;0.0;0.0;0.0;0.0;0.0;0.0;0.0;0.0;0.0;0.0;0.0;0.0;0.0;0.0;0.0;0.0;0.0;0.0;0.0;0.0
268240000000;76;268240000000;map;16.4694898218;-0.0531094058662;0.0;0.0;0.0;0.000822628175066;0.999999661641;0.00695513902855;-0.0004677721972;0.00316471130091;0.0;0.0;0.0;0.0;0.0;0.00114048246189;0.0;0.0;0.0;0.0;0.0;0.0;0.0;0.0;0.0;0.0;0.0;0.0;0.0;0.0;0.0;0.0;0.0;0.0;0.0;0.0;0.0;0.0;0.0;0.0;0.0;0.0;0.0
268650284164;77;268650284164;map;16.6723920379;-0.0507505361475;0.0;0.0;0.0;0.00245847970558;0.999996977934;0.00629224560186;-0.00067303839203;0.00340133094836;0.0;0.0;0.0;0.0;0.0;0.0012608055656;0.0;0.0;0.0;0.0;0.0;0.0;0.0;0.0;0.0;0.0;0.0;0.0;0.0;0.0;0.0;0.0;0.0;0.0;0.0;0.0;0.0;0.0;0.0;0.0;0.0;0.0;0.0
269028811417;78;269028811417;map;16.878306454;-0.0506650281513;0.0;0.0;0.0;0.00192479602297;0.999998147578;0.00547470073133;-0.000580450932461;0.00361927987437;0.0;0.0;0.0;0.0;0.0;0.00127085662954;0.0;0.0;0.0;0.0;0.0;0.0;0.0;0.0;0.0;0.0;0.0;0.0;0.0;0.0;0.0;0.0;0.0;0.0;0.0;0.0;0.0;0.0;0.0;0.0;0.0;0.0;0.0
269447000000;79;269447000000;map;17.0831102226;-0.0500533974587;0.0;0.0;0.0;0.00154070791167;0.999998813109;0.00578674095414;-0.000578666493073;0.00383833622149;0.0;0.0;0.0;0.0;0.0;0.00147710877727;0.0;0.0;0.0;0.0;0.0;0.0;0.0;0.0;0.0;0.0;0.0;0.0;0.0;0.0;0.0;0.0;0.0;0.0;0.0;0.0;0.0;0.0;0.0;0.0;0.0;0.0;0.0
269848000000;80;269848000000;map;17.2818882839;-0.0400518558927;0.0;0.0;0.0;0.00347449026443;0.99999396394;0.00685887247118;-0.000426343811186;0.00410086391786;0.0;0.0;0.0;0.0;0.0;0.00110938498757;0.0;0.0;0.0;0.0;0.0;0.0;0.0;0.0;0.0;0.0;0.0;0.0;0.0;0.0;0.0;0.0;0.0;0.0;0.0;0.0;0.0;0.0;0.0;0.0;0.0;0.0;0.0
270239000000;81;270239000000;map;17.4865970721;-0.040048380044;0.0;0.0;0.0;0.00194795966719;0.999998102725;0.00691747260271;-0.000562169759414;0.00415325108406;0.0;0.0;0.0;0.0;0.0;0.000974458745113;0.0;0.0;0.0;0.0;0.0;0.0;0.0;0.0;0.0;0.0;0.0;0.0;0.0;0.0;0.0;0.0;0.0;0.0;0.0;0.0;0.0;0.0;0.0;0.0;0.0;0.0;0.0
270650000000;82;270650000000;map;17.685929382;-0.04172647654;0.0;0.0;0.0;0.00217571326242;0.999997633133;0.00640416545031;-0.000547874964589;0.004254621479;0.0;0.0;0.0;0.0;0.0;0.0010372801314;0.0;0.0;0.0;0.0;0.0;0.0;0.0;0.0;0.0;0.0;0.0;0.0;0.0;0.0;0.0;0.0;0.0;0.0;0.0;0.0;0.0;0.0;0.0;0.0;0.0;0.0;0.0
271050000000;83;271050000000;map;17.8962312849;-0.0391479339814;0.0;0.0;0.0;0.002262118022;0.999997441408;0.00647675721251;-0.000427971755681;0.00432977037053;0.0;0.0;0.0;0.0;0.0;0.00102701374048;0.0;0.0;0.0;0.0;0.0;0.0;0.0;0.0;0.0;0.0;0.0;0.0;0.0;0.0;0.0;0.0;0.0;0.0;0.0;0.0;0.0;0.0;0.0;0.0;0.0;0.0;0.0
271446000000;84;271446000000;map;18.0993792937;-0.036466716581;0.0;0.0;0.0;0.00185675602744;0.999998276227;0.00697330649535;-0.000816839760459;0.00436864779173;0.0;0.0;0.0;0.0;0.0;0.000969525626228;0.0;0.0;0.0;0.0;0.0;0.0;0.0;0.0;0.0;0.0;0.0;0.0;0.0;0.0;0.0;0.0;0.0;0.0;0.0;0.0;0.0;0.0;0.0;0.0;0.0;0.0;0.0
271879000000;85;271879000000;map;18.3102294532;-0.0340843048681;0.0;0.0;0.0;0.000897682440882;0.999999597083;0.00738680590774;-0.000177821199624;0.0043341581142;0.0;0.0;0.0;0.0;0.0;0.00105418444624;0.0;0.0;0.0;0.0;0.0;0.0;0.0;0.0;0.0;0.0;0.0;0.0;0.0;0.0;0.0;0.0;0.0;0.0;0.0;0.0;0.0;0.0;0.0;0.0;0.0;0.0;0.0
272264000000;86;272264000000;map;18.5172860634;-0.0366097759185;0.0;0.0;0.0;-0.000454752347497;0.9999998966;0.00714123318426;-0.000142554067225;0.00392572879836;0.0;0.0;0.0;0.0;0.0;0.000949696179039;0.0;0.0;0.0;0.0;0.0;0.0;0.0;0.0;0.0;0.0;0.0;0.0;0.0;0.0;0.0;0.0;0.0;0.0;0.0;0.0;0.0;0.0;0.0;0.0;0.0;0.0;0.0
272666000000;87;272666000000;map;18.7084180654;-0.0469066809145;0.0;0.0;0.0;-0.00150040270658;0.999998874395;0.00672345392127;-0.000399736012537;0.0037217887448;0.0;0.0;0.0;0.0;0.0;0.00116279686038;0.0;0.0;0.0;0.0;0.0;0.0;0.0;0.0;0.0;0.0;0.0;0.0;0.0;0.0;0.0;0.0;0.0;0.0;0.0;0.0;0.0;0.0;0.0;0.0;0.0;0.0;0.0
273060000000;88;273060000000;map;18.9204235054;-0.0512396861049;0.0;0.0;0.0;-0.00173887086244;0.999998488163;0.00613692333758;-0.0003091180845;0.00364297138994;0.0;0.0;0.0;0.0;0.0;0.00103421335684;0.0;0.0;0.0;0.0;0.0;0.0;0.0;0.0;0.0;0.0;0.0;0.0;0.0;0.0;0.0;0.0;0.0;0.0;0.0;0.0;0.0;0.0;0.0;0.0;0.0;0.0;0.0
273464000000;89;273464000000;map;19.1273224896;-0.0482259395842;0.0;0.0;0.0;-0.00183300424262;0.999998320046;0.00589095721807;-0.000378750360994;0.00371892682648;0.0;0.0;0.0;0.0;0.0;0.00111761377301;0.0;0.0;0.0;0.0;0.0;0.0;0.0;0.0;0.0;0.0;0.0;0.0;0.0;0.0;0.0;0.0;0.0;0.0;0.0;0.0;0.0;0.0;0.0;0.0;0.0;0.0;0.0
273872000000;90;273872000000;map;19.326361323;-0.0472983281814;0.0;0.0;0.0;-0.00151164559848;0.999998857463;0.00634703385521;-0.00046492331098;0.00344239269236;0.0;0.0;0.0;0.0;0.0;0.00118518223606;0.0;0.0;0.0;0.0;0.0;0.0;0.0;0.0;0.0;0.0;0.0;0.0;0.0;0.0;0.0;0.0;0.0;0.0;0.0;0.0;0.0;0.0;0.0;0.0;0.0;0.0;0.0
274274000000;91;274274000000;map;19.5275836347;-0.0480456389281;0.0;0.0;0.0;-0.00210371617318;0.999997787187;0.00683268029627;-0.000511748914234;0.00352324024811;0.0;0.0;0.0;0.0;0.0;0.00124795931024;0.0;0.0;0.0;0.0;0.0;0.0;0.0;0.0;0.0;0.0;0.0;0.0;0.0;0.0;0.0;0.0;0.0;0.0;0.0;0.0;0.0;0.0;0.0;0.0;0.0;0.0;0.0
274769000000;92;274769000000;map;19.7279892797;-0.0519916759793;0.0;0.0;0.0;-0.00206213706664;0.999997873793;0.0064578062474;-0.000561851037253;0.00355856630932;0.0;0.0;0.0;0.0;0.0;0.0013004514592;0.0;0.0;0.0;0.0;0.0;0.0;0.0;0.0;0.0;0.0;0.0;0.0;0.0;0.0;0.0;0.0;0.0;0.0;0.0;0.0;0.0;0.0;0.0;0.0;0.0;0.0;0.0
275166000000;93;275166000000;map;19.9268923559;-0.0514595626865;0.0;0.0;0.0;-0.00295426800241;0.999995636141;0.0063865524105;-0.000571099071362;0.0033130856592;0.0;0.0;0.0;0.0;0.0;0.00150804156664;0.0;0.0;0.0;0.0;0.0;0.0;0.0;0.0;0.0;0.0;0.0;0.0;0.0;0.0;0.0;0.0;0.0;0.0;0.0;0.0;0.0;0.0;0.0;0.0;0.0;0.0;0.0
275570000000;94;275570000000;map;20.1200695008;-0.0548756153341;0.0;0.0;0.0;-0.0018978134786;0.99999819915;0.00650311514295;-0.000399364363918;0.00345607871175;0.0;0.0;0.0;0.0;0.0;0.00138327734286;0.0;0.0;0.0;0.0;0.0;0.0;0.0;0.0;0.0;0.0;0.0;0.0;0.0;0.0;0.0;0.0;0.0;0.0;0.0;0.0;0.0;0.0;0.0;0.0;0.0;0.0;0.0
275977000000;95;275977000000;map;20.3280346442;-0.056054531343;0.0;0.0;0.0;-0.00129518940423;0.999999161242;0.00582172215633;-0.000336756247181;0.00312388116997;0.0;0.0;0.0;0.0;0.0;0.00130359428294;0.0;0.0;0.0;0.0;0.0;0.0;0.0;0.0;0.0;0.0;0.0;0.0;0.0;0.0;0.0;0.0;0.0;0.0;0.0;0.0;0.0;0.0;0.0;0.0;0.0;0.0;0.0
276369000000;96;276369000000;map;20.5282408048;-0.06299315472;0.0;0.0;0.0;-0.00193180161334;0.99999813407;0.00664298782749;-0.000458031936057;0.00302608350269;0.0;0.0;0.0;0.0;0.0;0.00130225114887;0.0;0.0;0.0;0.0;0.0;0.0;0.0;0.0;0.0;0.0;0.0;0.0;0.0;0.0;0.0;0.0;0.0;0.0;0.0;0.0;0.0;0.0;0.0;0.0;0.0;0.0;0.0
276779000000;97;276779000000;map;20.7300458961;-0.0582324637665;0.0;0.0;0.0;-0.00207592088942;0.999997845274;0.00676585361123;-0.000571735470669;0.00308089601802;0.0;0.0;0.0;0.0;0.0;0.00117662276499;0.0;0.0;0.0;0.0;0.0;0.0;0.0;0.0;0.0;0.0;0.0;0.0;0.0;0.0;0.0;0.0;0.0;0.0;0.0;0.0;0.0;0.0;0.0;0.0;0.0;0.0;0.0
277165000000;98;277165000000;map;20.935452637;-0.0574606397174;0.0;0.0;0.0;-0.000573111887708;0.999999835771;0.00647373401358;-0.000522421532882;0.00303494217689;0.0;0.0;0.0;0.0;0.0;0.00123365826208;0.0;0.0;0.0;0.0;0.0;0.0;0.0;0.0;0.0;0.0;0.0;0.0;0.0;0.0;0.0;0.0;0.0;0.0;0.0;0.0;0.0;0.0;0.0;0.0;0.0;0.0;0.0
277572000000;99;277572000000;map;21.1325806148;-0.0530666081466;0.0;0.0;0.0;-0.000852907795947;0.999999636274;0.00622841249475;-0.000361613039086;0.0024701644842;0.0;0.0;0.0;0.0;0.0;0.00103728277622;0.0;0.0;0.0;0.0;0.0;0.0;0.0;0.0;0.0;0.0;0.0;0.0;0.0;0.0;0.0;0.0;0.0;0.0;0.0;0.0;0.0;0.0;0.0;0.0;0.0;0.0;0.0
277968000000;100;277968000000;map;21.333750984;-0.0535567177445;0.0;0.0;0.0;-0.00236164554538;0.999997211311;0.00698947656736;-0.000490393250927;0.00235261236438;0.0;0.0;0.0;0.0;0.0;0.00102317841035;0.0;0.0;0.0;0.0;0.0;0.0;0.0;0.0;0.0;0.0;0.0;0.0;0.0;0.0;0.0;0.0;0.0;0.0;0.0;0.0;0.0;0.0;0.0;0.0;0.0;0.0;0.0
278372000000;101;278372000000;map;21.5351352264;-0.052838502947;0.0;0.0;0.0;-0.00150200634215;0.999998871988;0.00752618682532;-0.000227007033994;0.00209953531213;0.0;0.0;0.0;0.0;0.0;0.000821792005958;0.0;0.0;0.0;0.0;0.0;0.0;0.0;0.0;0.0;0.0;0.0;0.0;0.0;0.0;0.0;0.0;0.0;0.0;0.0;0.0;0.0;0.0;0.0;0.0;0.0;0.0;0.0
278772000000;102;278772000000;map;21.737600825;-0.0569254389477;0.0;0.0;0.0;-0.00239427278434;0.999997133725;0.00871918017612;3.10275802604e-05;0.00212423932515;0.0;0.0;0.0;0.0;0.0;0.000970894048778;0.0;0.0;0.0;0.0;0.0;0.0;0.0;0.0;0.0;0.0;0.0;0.0;0.0;0.0;0.0;0.0;0.0;0.0;0.0;0.0;0.0;0.0;0.0;0.0;0.0;0.0;0.0
279169000000;103;279169000000;map;21.9410570035;-0.0572046647831;0.0;0.0;0.0;-0.0013761586128;0.999999053093;0.00790019531007;-2.18790533688e-05;0.00204493698346;0.0;0.0;0.0;0.0;0.0;0.000985835851804;0.0;0.0;0.0;0.0;0.0;0.0;0.0;0.0;0.0;0.0;0.0;0.0;0.0;0.0;0.0;0.0;0.0;0.0;0.0;0.0;0.0;0.0;0.0;0.0;0.0;0.0;0.0
279572000000;104;279572000000;map;22.1385679016;-0.0595055166522;0.0;0.0;0.0;-0.00145985774334;0.999998934407;0.0069355645432;0.00011205976487;0.00215203472623;0.0;0.0;0.0;0.0;0.0;0.00107663123643;0.0;0.0;0.0;0.0;0.0;0.0;0.0;0.0;0.0;0.0;0.0;0.0;0.0;0.0;0.0;0.0;0.0;0.0;0.0;0.0;0.0;0.0;0.0;0.0;0.0;0.0;0.0
279972000000;105;279972000000;map;22.3350123231;-0.0609028411546;0.0;0.0;0.0;-0.00400649935255;0.999991973949;0.00752117814432;0.000414598505647;0.00211676036652;0.0;0.0;0.0;0.0;0.0;0.00117843182394;0.0;0.0;0.0;0.0;0.0;0.0;0.0;0.0;0.0;0.0;0.0;0.0;0.0;0.0;0.0;0.0;0.0;0.0;0.0;0.0;0.0;0.0;0.0;0.0;0.0;0.0;0.0
280372000000;106;280372000000;map;22.5332352981;-0.0638665475224;0.0;0.0;0.0;-0.00302990709291;0.999995409821;0.00731488310674;0.000420488624836;0.00219401114591;0.0;0.0;0.0;0.0;0.0;0.00109279752658;0.0;0.0;0.0;0.0;0.0;0.0;0.0;0.0;0.0;0.0;0.0;0.0;0.0;0.0;0.0;0.0;0.0;0.0;0.0;0.0;0.0;0.0;0.0;0.0;0.0;0.0;0.0
280776000000;107;280776000000;map;22.7398093322;-0.0616371966215;0.0;0.0;0.0;-0.00191548713102;0.999998165453;0.00681828639756;0.000526480707626;0.0020617859021;0.0;0.0;0.0;0.0;0.0;0.000983927908522;0.0;0.0;0.0;0.0;0.0;0.0;0.0;0.0;0.0;0.0;0.0;0.0;0.0;0.0;0.0;0.0;0.0;0.0;0.0;0.0;0.0;0.0;0.0;0.0;0.0;0.0;0.0
281167000000;108;281167000000;map;22.9430027629;-0.066352935954;0.0;0.0;0.0;-0.00337247594165;0.999994313187;0.00569788708015;0.000458431903555;0.00182464978816;0.0;0.0;0.0;0.0;0.0;0.0010036418602;0.0;0.0;0.0;0.0;0.0;0.0;0.0;0.0;0.0;0.0;0.0;0.0;0.0;0.0;0.0;0.0;0.0;0.0;0.0;0.0;0.0;0.0;0.0;0.0;0.0;0.0;0.0
281669221635;109;281669221635;map;23.1485011939;-0.0653856815017;0.0;0.0;0.0;-0.00291587863806;0.999995748817;0.00594104627999;0.000467368944283;0.00182152867777;0.0;0.0;0.0;0.0;0.0;0.000953238964951;0.0;0.0;0.0;0.0;0.0;0.0;0.0;0.0;0.0;0.0;0.0;0.0;0.0;0.0;0.0;0.0;0.0;0.0;0.0;0.0;0.0;0.0;0.0;0.0;0.0;0.0;0.0
282059000000;110;282059000000;map;23.3556977925;-0.0640235048201;0.0;0.0;0.0;-0.00199007350797;0.999998019802;0.00522887768182;0.000654712046593;0.00201494471186;0.0;0.0;0.0;0.0;0.0;0.000938077249295;0.0;0.0;0.0;0.0;0.0;0.0;0.0;0.0;0.0;0.0;0.0;0.0;0.0;0.0;0.0;0.0;0.0;0.0;0.0;0.0;0.0;0.0;0.0;0.0;0.0;0.0;0.0
282471000000;111;282471000000;map;23.5572520988;-0.0652679593922;0.0;0.0;0.0;-0.0026156526546;0.999996579175;0.00499482195926;0.000493953993052;0.0019352950277;0.0;0.0;0.0;0.0;0.0;0.000934324419336;0.0;0.0;0.0;0.0;0.0;0.0;0.0;0.0;0.0;0.0;0.0;0.0;0.0;0.0;0.0;0.0;0.0;0.0;0.0;0.0;0.0;0.0;0.0;0.0;0.0;0.0;0.0
282875000000;112;282875000000;map;23.7572752547;-0.0634427916234;0.0;0.0;0.0;-0.00114815192743;0.999999340873;0.00506037914693;0.000253042016852;0.00206240071028;0.0;0.0;0.0;0.0;0.0;0.00124590381015;0.0;0.0;0.0;0.0;0.0;0.0;0.0;0.0;0.0;0.0;0.0;0.0;0.0;0.0;0.0;0.0;0.0;0.0;0.0;0.0;0.0;0.0;0.0;0.0;0.0;0.0;0.0
283264000000;113;283264000000;map;23.9577706744;-0.0622233533398;0.0;0.0;0.0;-0.00191778898126;0.999998161041;0.004674139793;0.000177669841751;0.00216240796428;0.0;0.0;0.0;0.0;0.0;0.00118593742803;0.0;0.0;0.0;0.0;0.0;0.0;0.0;0.0;0.0;0.0;0.0;0.0;0.0;0.0;0.0;0.0;0.0;0.0;0.0;0.0;0.0;0.0;0.0;0.0;0.0;0.0;0.0
283675000000;114;283675000000;map;24.1582568545;-0.0641546489527;0.0;0.0;0.0;-0.00200419968528;0.99999799159;0.00443223135017;0.000239709619921;0.00201112313984;0.0;0.0;0.0;0.0;0.0;0.00133969452026;0.0;0.0;0.0;0.0;0.0;0.0;0.0;0.0;0.0;0.0;0.0;0.0;0.0;0.0;0.0;0.0;0.0;0.0;0.0;0.0;0.0;0.0;0.0;0.0;0.0;0.0;0.0
284065000000;115;284065000000;map;24.3566475711;-0.0665819181423;0.0;0.0;0.0;-0.00478947852634;0.999988530382;0.00436409578174;0.000620070314177;0.00163191359915;0.0;0.0;0.0;0.0;0.0;0.00152200492453;0.0;0.0;0.0;0.0;0.0;0.0;0.0;0.0;0.0;0.0;0.0;0.0;0.0;0.0;0.0;0.0;0.0;0.0;0.0;0.0;0.0;0.0;0.0;0.0;0.0;0.0;0.0
284465480470;116;284465480470;map;24.5535866848;-0.0668149348609;0.0;0.0;0.0;-0.00290554486255;0.999995778896;0.00462482551802;0.000660297853828;0.00154136408062;0.0;0.0;0.0;0.0;0.0;0.00114879073618;0.0;0.0;0.0;0.0;0.0;0.0;0.0;0.0;0.0;0.0;0.0;0.0;0.0;0.0;0.0;0.0;0.0;0.0;0.0;0.0;0.0;0.0;0.0;0.0;0.0;0.0;0.0
284868000000;117;284868000000;map;24.752310805;-0.0711633703903;0.0;0.0;0.0;-0.00299774056527;0.999995506766;0.00505792813988;0.000565058893019;0.00161791589853;0.0;0.0;0.0;0.0;0.0;0.00109802013958;0.0;0.0;0.0;0.0;0.0;0.0;0.0;0.0;0.0;0.0;0.0;0.0;0.0;0.0;0.0;0.0;0.0;0.0;0.0;0.0;0.0;0.0;0.0;0.0;0.0;0.0;0.0
285262000000;118;285262000000;map;24.9591316703;-0.07292539023;0.0;0.0;0.0;-0.00270698335401;0.999996336114;0.00501521764545;0.000656807557478;0.00147108889208;0.0;0.0;0.0;0.0;0.0;0.00112079353742;0.0;0.0;0.0;0.0;0.0;0.0;0.0;0.0;0.0;0.0;0.0;0.0;0.0;0.0;0.0;0.0;0.0;0.0;0.0;0.0;0.0;0.0;0.0;0.0;0.0;0.0;0.0
285665000000;119;285665000000;map;25.164971275;-0.074796410534;0.0;0.0;0.0;-0.00242816504726;0.999997052003;0.00608643944065;-0.00022934205763;0.00118127250202;0.0;0.0;0.0;0.0;0.0;0.00144678050846;0.0;0.0;0.0;0.0;0.0;0.0;0.0;0.0;0.0;0.0;0.0;0.0;0.0;0.0;0.0;0.0;0.0;0.0;0.0;0.0;0.0;0.0;0.0;0.0;0.0;0.0;0.0
286056000000;120;286056000000;map;25.3614625123;-0.0689557352152;0.0;0.0;0.0;-0.000483576084861;0.999999883077;0.00558286791249;-0.000370705112385;0.00118230466061;0.0;0.0;0.0;0.0;0.0;0.000742243559546;0.0;0.0;0.0;0.0;0.0;0.0;0.0;0.0;0.0;0.0;0.0;0.0;0.0;0.0;0.0;0.0;0.0;0.0;0.0;0.0;0.0;0.0;0.0;0.0;0.0;0.0;0.0
286462000000;121;286462000000;map;25.5641927454;-0.0675291649796;0.0;0.0;0.0;-0.000249443165319;0.999999968889;0.00551764564682;-0.000249635360153;0.00118832889587;0.0;0.0;0.0;0.0;0.0;0.000818843385208;0.0;0.0;0.0;0.0;0.0;0.0;0.0;0.0;0.0;0.0;0.0;0.0;0.0;0.0;0.0;0.0;0.0;0.0;0.0;0.0;0.0;0.0;0.0;0.0;0.0;0.0;0.0
286962000000;122;286962000000;map;25.770646972;-0.0684094019645;0.0;0.0;0.0;-0.000753936611251;0.99999971579;0.00494272098092;-8.84028977453e-05;0.00110236905252;0.0;0.0;0.0;0.0;0.0;0.000988953615472;0.0;0.0;0.0;0.0;0.0;0.0;0.0;0.0;0.0;0.0;0.0;0.0;0.0;0.0;0.0;0.0;0.0;0.0;0.0;0.0;0.0;0.0;0.0;0.0;0.0;0.0;0.0
287260000000;123;287260000000;map;25.9678977374;-0.0663795236507;0.0;0.0;0.0;0.000572330042496;0.999999836219;0.00506461734551;-0.000109466445643;0.000925471574426;0.0;0.0;0.0;0.0;0.0;0.000746363952345;0.0;0.0;0.0;0.0;0.0;0.0;0.0;0.0;0.0;0.0;0.0;0.0;0.0;0.0;0.0;0.0;0.0;0.0;0.0;0.0;0.0;0.0;0.0;0.0;0.0;0.0;0.0
287663000000;124;287663000000;map;26.163400834;-0.0689696871253;0.0;0.0;0.0;0.000628238578608;0.999999802658;0.00485887843035;-2.63524397361e-05;0.000884862462184;0.0;0.0;0.0;0.0;0.0;0.000812121029187;0.0;0.0;0.0;0.0;0.0;0.0;0.0;0.0;0.0;0.0;0.0;0.0;0.0;0.0;0.0;0.0;0.0;0.0;0.0;0.0;0.0;0.0;0.0;0.0;0.0;0.0;0.0
288157000000;125;288157000000;map;26.3771339291;-0.070866602292;0.0;0.0;0.0;0.000658260519917;0.999999783347;0.0045832876624;0.000315278873344;0.00104763912242;0.0;0.0;0.0;0.0;0.0;0.00108263363737;0.0;0.0;0.0;0.0;0.0;0.0;0.0;0.0;0.0;0.0;0.0;0.0;0.0;0.0;0.0;0.0;0.0;0.0;0.0;0.0;0.0;0.0;0.0;0.0;0.0;0.0;0.0
288567000000;126;288567000000;map;26.5789781017;-0.0716608078743;0.0;0.0;0.0;0.00127781867501;0.999999183589;0.00516897342357;0.000142060680821;0.00101512417199;0.0;0.0;0.0;0.0;0.0;0.00103218233997;0.0;0.0;0.0;0.0;0.0;0.0;0.0;0.0;0.0;0.0;0.0;0.0;0.0;0.0;0.0;0.0;0.0;0.0;0.0;0.0;0.0;0.0;0.0;0.0;0.0;0.0;0.0
288965000000;127;288965000000;map;26.7880942853;-0.0737470213892;0.0;0.0;0.0;-0.000212178083907;0.99999997749;0.00479448369936;0.000497773506424;0.00122172722726;0.0;0.0;0.0;0.0;0.0;0.000801076187002;0.0;0.0;0.0;0.0;0.0;0.0;0.0;0.0;0.0;0.0;0.0;0.0;0.0;0.0;0.0;0.0;0.0;0.0;0.0;0.0;0.0;0.0;0.0;0.0;0.0;0.0;0.0
289361000000;128;289361000000;map;26.9972992178;-0.0716866390603;0.0;0.0;0.0;-0.000891565309554;0.999999602556;0.00502904419795;0.00073655808111;0.00145997074855;0.0;0.0;0.0;0.0;0.0;0.000907200976733;0.0;0.0;0.0;0.0;0.0;0.0;0.0;0.0;0.0;0.0;0.0;0.0;0.0;0.0;0.0;0.0;0.0;0.0;0.0;0.0;0.0;0.0;0.0;0.0;0.0;0.0;0.0
289755000000;129;289755000000;map;27.1937358454;-0.079173075653;0.0;0.0;0.0;-0.00216343165139;0.999997659779;0.00414738803931;0.000718771476;0.00154780939225;0.0;0.0;0.0;0.0;0.0;0.000745390982451;0.0;0.0;0.0;0.0;0.0;0.0;0.0;0.0;0.0;0.0;0.0;0.0;0.0;0.0;0.0;0.0;0.0;0.0;0.0;0.0;0.0;0.0;0.0;0.0;0.0;0.0;0.0
290166000000;130;290166000000;map;27.4034326818;-0.0763848750527;0.0;0.0;0.0;-0.00174217514743;0.999998482412;0.00450815314389;0.000746485075259;0.00165930941397;0.0;0.0;0.0;0.0;0.0;0.000859290062134;0.0;0.0;0.0;0.0;0.0;0.0;0.0;0.0;0.0;0.0;0.0;0.0;0.0;0.0;0.0;0.0;0.0;0.0;0.0;0.0;0.0;0.0;0.0;0.0;0.0;0.0;0.0
290564000000;131;290564000000;map;27.6055010708;-0.0752998874673;0.0;0.0;0.0;-0.00144279641271;0.999998959169;0.00480642830394;0.000834040051964;0.00188201645765;0.0;0.0;0.0;0.0;0.0;0.000713310092212;0.0;0.0;0.0;0.0;0.0;0.0;0.0;0.0;0.0;0.0;0.0;0.0;0.0;0.0;0.0;0.0;0.0;0.0;0.0;0.0;0.0;0.0;0.0;0.0;0.0;0.0;0.0
290965000000;132;290965000000;map;27.8169360201;-0.0785845359264;0.0;0.0;0.0;-0.00169179593188;0.999998568912;0.00448089013082;0.000530445155947;0.00192875666413;0.0;0.0;0.0;0.0;0.0;0.000814283525032;0.0;0.0;0.0;0.0;0.0;0.0;0.0;0.0;0.0;0.0;0.0;0.0;0.0;0.0;0.0;0.0;0.0;0.0;0.0;0.0;0.0;0.0;0.0;0.0;0.0;0.0;0.0
291366000000;133;291366000000;map;28.0274862322;-0.0803014881271;0.0;0.0;0.0;-0.00231650530914;0.999997316898;0.00475000962729;0.000484877395074;0.00194540380619;0.0;0.0;0.0;0.0;0.0;0.000749064297966;0.0;0.0;0.0;0.0;0.0;0.0;0.0;0.0;0.0;0.0;0.0;0.0;0.0;0.0;0.0;0.0;0.0;0.0;0.0;0.0;0.0;0.0;0.0;0.0;0.0;0.0;0.0
291778000000;134;291778000000;map;28.226961722;-0.0757768313052;0.0;0.0;0.0;-0.00193052246128;0.99999813654;0.0045063102873;8.96758850977e-05;0.00212997863563;0.0;0.0;0.0;0.0;0.0;0.000758270843205;0.0;0.0;0.0;0.0;0.0;0.0;0.0;0.0;0.0;0.0;0.0;0.0;0.0;0.0;0.0;0.0;0.0;0.0;0.0;0.0;0.0;0.0;0.0;0.0;0.0;0.0;0.0
292166000000;135;292166000000;map;28.4241761582;-0.0759116781718;0.0;0.0;0.0;-0.00105915280726;0.999999439098;0.00430553477793;0.000361510122815;0.00192608223492;0.0;0.0;0.0;0.0;0.0;0.000747192194319;0.0;0.0;0.0;0.0;0.0;0.0;0.0;0.0;0.0;0.0;0.0;0.0;0.0;0.0;0.0;0.0;0.0;0.0;0.0;0.0;0.0;0.0;0.0;0.0;0.0;0.0;0.0
292677000000;136;292677000000;map;28.6288860279;-0.0822618194028;0.0;0.0;0.0;-0.000200151275688;0.99999997997;0.00376701863502;0.000247714954388;0.00238438648922;0.0;0.0;0.0;0.0;0.0;0.000846904283861;0.0;0.0;0.0;0.0;0.0;0.0;0.0;0.0;0.0;0.0;0.0;0.0;0.0;0.0;0.0;0.0;0.0;0.0;0.0;0.0;0.0;0.0;0.0;0.0;0.0;0.0;0.0
293071000000;137;293071000000;map;28.828045949;-0.0883685703087;0.0;0.0;0.0;-0.000317533837355;0.999999949586;0.00418091755978;0.000549883895506;0.00243642889703;0.0;0.0;0.0;0.0;0.0;0.000864701435836;0.0;0.0;0.0;0.0;0.0;0.0;0.0;0.0;0.0;0.0;0.0;0.0;0.0;0.0;0.0;0.0;0.0;0.0;0.0;0.0;0.0;0.0;0.0;0.0;0.0;0.0;0.0
293477000000;138;293477000000;map;29.0344181759;-0.0908854689915;0.0;0.0;0.0;-0.00157538826044;0.999998759075;0.00434625101627;0.000644298211915;0.00236908957398;0.0;0.0;0.0;0.0;0.0;0.000720442445977;0.0;0.0;0.0;0.0;0.0;0.0;0.0;0.0;0.0;0.0;0.0;0.0;0.0;0.0;0.0;0.0;0.0;0.0;0.0;0.0;0.0;0.0;0.0;0.0;0.0;0.0;0.0
293889000000;139;293889000000;map;29.2439500686;-0.0900733581632;0.0;0.0;0.0;-0.00155725769147;0.999998787474;0.0044207755758;0.000728832783535;0.00220835128785;0.0;0.0;0.0;0.0;0.0;0.000857890441883;0.0;0.0;0.0;0.0;0.0;0.0;0.0;0.0;0.0;0.0;0.0;0.0;0.0;0.0;0.0;0.0;0.0;0.0;0.0;0.0;0.0;0.0;0.0;0.0;0.0;0.0;0.0
294268000000;140;294268000000;map;29.4420199166;-0.091115908027;0.0;0.0;0.0;-0.00031209502602;0.999999951298;0.00528690688964;0.000636414133247;0.00209219703559;0.0;0.0;0.0;0.0;0.0;0.000816587758506;0.0;0.0;0.0;0.0;0.0;0.0;0.0;0.0;0.0;0.0;0.0;0.0;0.0;0.0;0.0;0.0;0.0;0.0;0.0;0.0;0.0;0.0;0.0;0.0;0.0;0.0;0.0
294676000000;141;294676000000;map;29.640744353;-0.0904300987241;0.0;0.0;0.0;-0.00297963301955;0.999995560884;0.00546621514934;0.000750383820175;0.00206310290285;0.0;0.0;0.0;0.0;0.0;0.000711582971214;0.0;0.0;0.0;0.0;0.0;0.0;0.0;0.0;0.0;0.0;0.0;0.0;0.0;0.0;0.0;0.0;0.0;0.0;0.0;0.0;0.0;0.0;0.0;0.0;0.0;0.0;0.0
295068000000;142;295068000000;map;29.8433136039;-0.0920879533819;0.0;0.0;0.0;-0.00346518752967;0.99999399622;0.00543038933313;0.000726904174203;0.00196251544863;0.0;0.0;0.0;0.0;0.0;0.000908875330573;0.0;0.0;0.0;0.0;0.0;0.0;0.0;0.0;0.0;0.0;0.0;0.0;0.0;0.0;0.0;0.0;0.0;0.0;0.0;0.0;0.0;0.0;0.0;0.0;0.0;0.0;0.0
295567000000;143;295567000000;map;30.0556247427;-0.0936285855306;0.0;0.0;0.0;-0.00299220517672;0.999995523344;0.00573254262906;0.000685816512485;0.00191353283358;0.0;0.0;0.0;0.0;0.0;0.000923719207919;0.0;0.0;0.0;0.0;0.0;0.0;0.0;0.0;0.0;0.0;0.0;0.0;0.0;0.0;0.0;0.0;0.0;0.0;0.0;0.0;0.0;0.0;0.0;0.0;0.0;0.0;0.0
295969000000;144;295969000000;map;30.2563861922;-0.0977324962688;0.0;0.0;0.0;-0.00332876580273;0.999994459644;0.00575488156596;0.00091935521179;0.00218577691209;0.0;0.0;0.0;0.0;0.0;0.0011380652813;0.0;0.0;0.0;0.0;0.0;0.0;0.0;0.0;0.0;0.0;0.0;0.0;0.0;0.0;0.0;0.0;0.0;0.0;0.0;0.0;0.0;0.0;0.0;0.0;0.0;0.0;0.0
296365000000;145;296365000000;map;30.461835808;-0.0968087310406;0.0;0.0;0.0;-0.00327536875615;0.999994635965;0.00570981062992;0.000470516264657;0.00181785459731;0.0;0.0;0.0;0.0;0.0;0.00118199485163;0.0;0.0;0.0;0.0;0.0;0.0;0.0;0.0;0.0;0.0;0.0;0.0;0.0;0.0;0.0;0.0;0.0;0.0;0.0;0.0;0.0;0.0;0.0;0.0;0.0;0.0;0.0
296769000000;146;296769000000;map;30.6675704929;-0.101610602852;0.0;0.0;0.0;-0.00273329047639;0.999996264555;0.00638672855621;0.00110491344809;0.0020838254276;0.0;0.0;0.0;0.0;0.0;0.00103673008545;0.0;0.0;0.0;0.0;0.0;0.0;0.0;0.0;0.0;0.0;0.0;0.0;0.0;0.0;0.0;0.0;0.0;0.0;0.0;0.0;0.0;0.0;0.0;0.0;0.0;0.0;0.0
297161000000;147;297161000000;map;30.8685626254;-0.10412533428;0.0;0.0;0.0;-0.00255450415962;0.999996737249;0.00649174159514;0.00112533849574;0.00215507657231;0.0;0.0;0.0;0.0;0.0;0.00105009575916;0.0;0.0;0.0;0.0;0.0;0.0;0.0;0.0;0.0;0.0;0.0;0.0;0.0;0.0;0.0;0.0;0.0;0.0;0.0;0.0;0.0;0.0;0.0;0.0;0.0;0.0;0.0
297575539531;148;297575539531;map;31.0730817628;-0.101889929631;0.0;0.0;0.0;-6.84369658993e-05;0.999999997658;0.00620415683579;0.00123283698081;0.00198975953903;0.0;0.0;0.0;0.0;0.0;0.000998914489565;0.0;0.0;0.0;0.0;0.0;0.0;0.0;0.0;0.0;0.0;0.0;0.0;0.0;0.0;0.0;0.0;0.0;0.0;0.0;0.0;0.0;0.0;0.0;0.0;0.0;0.0;0.0
297966000000;149;297966000000;map;31.2743265836;-0.0997246532669;0.0;0.0;0.0;-0.000485302438591;0.999999882241;0.00615722933196;0.0010875927923;0.00236691347756;0.0;0.0;0.0;0.0;0.0;0.00077228864135;0.0;0.0;0.0;0.0;0.0;0.0;0.0;0.0;0.0;0.0;0.0;0.0;0.0;0.0;0.0;0.0;0.0;0.0;0.0;0.0;0.0;0.0;0.0;0.0;0.0;0.0;0.0
298362000000;150;298362000000;map;31.4771383474;-0.0956724094477;0.0;0.0;0.0;0.00025838714144;0.999999966618;0.00652527905481;0.000946467219096;0.00211221881868;0.0;0.0;0.0;0.0;0.0;0.000811502282836;0.0;0.0;0.0;0.0;0.0;0.0;0.0;0.0;0.0;0.0;0.0;0.0;0.0;0.0;0.0;0.0;0.0;0.0;0.0;0.0;0.0;0.0;0.0;0.0;0.0;0.0;0.0
298767000000;151;298767000000;map;31.6832060063;-0.0998540544475;0.0;0.0;0.0;-0.00105096337524;0.999999447738;0.00644269577049;0.0010332402075;0.00183590317686;0.0;0.0;0.0;0.0;0.0;0.00089566579096;0.0;0.0;0.0;0.0;0.0;0.0;0.0;0.0;0.0;0.0;0.0;0.0;0.0;0.0;0.0;0.0;0.0;0.0;0.0;0.0;0.0;0.0;0.0;0.0;0.0;0.0;0.0
299161686900;152;299161686900;map;31.895084259;-0.100403680042;0.0;0.0;0.0;-0.00128609431021;0.99999917298;0.0069016182747;0.00104731223965;0.00207389662334;0.0;0.0;0.0;0.0;0.0;0.00112574907447;0.0;0.0;0.0;0.0;0.0;0.0;0.0;0.0;0.0;0.0;0.0;0.0;0.0;0.0;0.0;0.0;0.0;0.0;0.0;0.0;0.0;0.0;0.0;0.0;0.0;0.0;0.0
299567000000;153;299567000000;map;32.1046268624;-0.100352903602;0.0;0.0;0.0;-0.00200732545025;0.99999798532;0.00693843856743;0.00125310142962;0.0020709808913;0.0;0.0;0.0;0.0;0.0;0.0010392852784;0.0;0.0;0.0;0.0;0.0;0.0;0.0;0.0;0.0;0.0;0.0;0.0;0.0;0.0;0.0;0.0;0.0;0.0;0.0;0.0;0.0;0.0;0.0;0.0;0.0;0.0;0.0
299972000000;154;299972000000;map;32.3128527733;-0.103433148729;0.0;0.0;0.0;-0.00371926324517;0.999993083517;0.00793273011095;0.00170824728913;0.00198914647405;0.0;0.0;0.0;0.0;0.0;0.00126463668973;0.0;0.0;0.0;0.0;0.0;0.0;0.0;0.0;0.0;0.0;0.0;0.0;0.0;0.0;0.0;0.0;0.0;0.0;0.0;0.0;0.0;0.0;0.0;0.0;0.0;0.0;0.0
300364000000;155;300364000000;map;32.5369154986;-0.103823085147;0.0;0.0;0.0;-0.00245712986644;0.999996981252;0.00697275473158;0.00174569803575;0.00215437236628;0.0;0.0;0.0;0.0;0.0;0.00141900867982;0.0;0.0;0.0;0.0;0.0;0.0;0.0;0.0;0.0;0.0;0.0;0.0;0.0;0.0;0.0;0.0;0.0;0.0;0.0;0.0;0.0;0.0;0.0;0.0;0.0;0.0;0.0
300766000000;156;300766000000;map;32.7493946916;-0.103392432352;0.0;0.0;0.0;-0.000626521528544;0.999999803735;0.00590973524777;0.001938813804;0.00250447074816;0.0;0.0;0.0;0.0;0.0;0.00143320787554;0.0;0.0;0.0;0.0;0.0;0.0;0.0;0.0;0.0;0.0;0.0;0.0;0.0;0.0;0.0;0.0;0.0;0.0;0.0;0.0;0.0;0.0;0.0;0.0;0.0;0.0;0.0
301165000000;157;301165000000;map;32.9510177417;-0.0982887708616;0.0;0.0;0.0;0.00124522098717;0.999999224712;0.00621924454913;0.00185045855535;0.00261977743652;0.0;0.0;0.0;0.0;0.0;0.00135114886249;0.0;0.0;0.0;0.0;0.0;0.0;0.0;0.0;0.0;0.0;0.0;0.0;0.0;0.0;0.0;0.0;0.0;0.0;0.0;0.0;0.0;0.0;0.0;0.0;0.0;0.0;0.0
301566000000;158;301566000000;map;33.1482831187;-0.0977836130999;0.0;0.0;0.0;0.00191926464761;0.99999815821;0.00681323800586;0.00167522810219;0.00244435988853;0.0;0.0;0.0;0.0;0.0;0.000946933373228;0.0;0.0;0.0;0.0;0.0;0.0;0.0;0.0;0.0;0.0;0.0;0.0;0.0;0.0;0.0;0.0;0.0;0.0;0.0;0.0;0.0;0.0;0.0;0.0;0.0;0.0;0.0
301972000000;159;301972000000;map;33.364151298;-0.0933502476656;0.0;0.0;0.0;0.00378257772167;0.999992846027;0.00526129620107;0.00147956874621;0.00280302829169;0.0;0.0;0.0;0.0;0.0;0.00109636154218;0.0;0.0;0.0;0.0;0.0;0.0;0.0;0.0;0.0;0.0;0.0;0.0;0.0;0.0;0.0;0.0;0.0;0.0;0.0;0.0;0.0;0.0;0.0;0.0;0.0;0.0;0.0
302366000000;160;302366000000;map;33.5679094405;-0.0891754798499;0.0;0.0;0.0;0.00412286635573;0.99999150095;0.00547284228537;0.00123259473603;0.00261212090904;0.0;0.0;0.0;0.0;0.0;0.00111650054022;0.0;0.0;0.0;0.0;0.0;0.0;0.0;0.0;0.0;0.0;0.0;0.0;0.0;0.0;0.0;0.0;0.0;0.0;0.0;0.0;0.0;0.0;0.0;0.0;0.0;0.0;0.0
302769000000;161;302769000000;map;33.7714930791;-0.0863700163898;0.0;0.0;0.0;0.00385714135542;0.999992561203;0.00444424809029;0.0013121622224;0.00266540291161;0.0;0.0;0.0;0.0;0.0;0.000812085567256;0.0;0.0;0.0;0.0;0.0;0.0;0.0;0.0;0.0;0.0;0.0;0.0;0.0;0.0;0.0;0.0;0.0;0.0;0.0;0.0;0.0;0.0;0.0;0.0;0.0;0.0;0.0
303164000000;162;303164000000;map;33.9694009167;-0.0846040288116;0.0;0.0;0.0;0.00442017938891;0.999990230959;0.00411169448944;0.00123360906295;0.00285058834929;0.0;0.0;0.0;0.0;0.0;0.000809818150939;0.0;0.0;0.0;0.0;0.0;0.0;0.0;0.0;0.0;0.0;0.0;0.0;0.0;0.0;0.0;0.0;0.0;0.0;0.0;0.0;0.0;0.0;0.0;0.0;0.0;0.0;0.0
303577000000;163;303577000000;map;34.1723606606;-0.0903666142899;0.0;0.0;0.0;0.00377546280138;0.999992872915;0.00404468165812;0.00113387045295;0.00300471517215;0.0;0.0;0.0;0.0;0.0;0.000775183052367;0.0;0.0;0.0;0.0;0.0;0.0;0.0;0.0;0.0;0.0;0.0;0.0;0.0;0.0;0.0;0.0;0.0;0.0;0.0;0.0;0.0;0.0;0.0;0.0;0.0;0.0;0.0
304065000000;164;304065000000;map;34.3764024032;-0.0845072611849;0.0;0.0;0.0;0.00430251757462;0.999990744128;0.00362258026098;0.00128712616032;0.0024889759242;0.0;0.0;0.0;0.0;0.0;0.00070088293568;0.0;0.0;0.0;0.0;0.0;0.0;0.0;0.0;0.0;0.0;0.0;0.0;0.0;0.0;0.0;0.0;0.0;0.0;0.0;0.0;0.0;0.0;0.0;0.0;0.0;0.0;0.0
304467000000;165;304467000000;map;34.5740356843;-0.0834731911149;0.0;0.0;0.0;0.00338419603074;0.999994273592;0.00375247064085;0.00127013937537;0.0023108045156;0.0;0.0;0.0;0.0;0.0;0.000839387070839;0.0;0.0;0.0;0.0;0.0;0.0;0.0;0.0;0.0;0.0;0.0;0.0;0.0;0.0;0.0;0.0;0.0;0.0;0.0;0.0;0.0;0.0;0.0;0.0;0.0;0.0;0.0
304871000000;166;304871000000;map;34.7704912696;-0.0856339963937;0.0;0.0;0.0;0.000786514916285;0.999999690697;0.00403990886753;0.00149439426458;0.002513588311;0.0;0.0;0.0;0.0;0.0;0.000785634615421;0.0;0.0;0.0;0.0;0.0;0.0;0.0;0.0;0.0;0.0;0.0;0.0;0.0;0.0;0.0;0.0;0.0;0.0;0.0;0.0;0.0;0.0;0.0;0.0;0.0;0.0;0.0
305263000000;167;305263000000;map;34.9727479535;-0.0850813084089;0.0;0.0;0.0;0.0010536313653;0.99999944493;0.0039673654494;0.00147537759038;0.00238102694374;0.0;0.0;0.0;0.0;0.0;0.000808895600147;0.0;0.0;0.0;0.0;0.0;0.0;0.0;0.0;0.0;0.0;0.0;0.0;0.0;0.0;0.0;0.0;0.0;0.0;0.0;0.0;0.0;0.0;0.0;0.0;0.0;0.0;0.0
305677000000;168;305677000000;map;35.1843682424;-0.0845994804777;0.0;0.0;0.0;0.00112733228841;0.999999364561;0.00438569970174;0.0014198746423;0.00237140708074;0.0;0.0;0.0;0.0;0.0;0.000947074587818;0.0;0.0;0.0;0.0;0.0;0.0;0.0;0.0;0.0;0.0;0.0;0.0;0.0;0.0;0.0;0.0;0.0;0.0;0.0;0.0;0.0;0.0;0.0;0.0;0.0;0.0;0.0
306073000000;169;306073000000;map;35.3834397432;-0.0850280879943;0.0;0.0;0.0;0.00136486669448;0.999999068569;0.00428447439162;0.0014270476361;0.00237316021291;0.0;0.0;0.0;0.0;0.0;0.00108510843056;0.0;0.0;0.0;0.0;0.0;0.0;0.0;0.0;0.0;0.0;0.0;0.0;0.0;0.0;0.0;0.0;0.0;0.0;0.0;0.0;0.0;0.0;0.0;0.0;0.0;0.0;0.0
306473109506;170;306473109506;map;35.5820227566;-0.0836327759709;0.0;0.0;0.0;0.00173908269368;0.999998487795;0.00402950907778;0.00119043688147;0.00215700371648;0.0;0.0;0.0;0.0;0.0;0.00126781518363;0.0;0.0;0.0;0.0;0.0;0.0;0.0;0.0;0.0;0.0;0.0;0.0;0.0;0.0;0.0;0.0;0.0;0.0;0.0;0.0;0.0;0.0;0.0;0.0;0.0;0.0;0.0
306873000000;171;306873000000;map;35.7758860101;-0.0839352688451;0.0;0.0;0.0;0.00299195168318;0.999995524103;0.00370070219401;0.000874348156752;0.00246151789781;0.0;0.0;0.0;0.0;0.0;0.00138400805917;0.0;0.0;0.0;0.0;0.0;0.0;0.0;0.0;0.0;0.0;0.0;0.0;0.0;0.0;0.0;0.0;0.0;0.0;0.0;0.0;0.0;0.0;0.0;0.0;0.0;0.0;0.0
307269000000;172;307269000000;map;35.9753266889;-0.0867036885121;0.0;0.0;0.0;0.00194999618154;0.999998098756;0.00337358832871;0.000716359305386;0.00228813913632;0.0;0.0;0.0;0.0;0.0;0.00129561674042;0.0;0.0;0.0;0.0;0.0;0.0;0.0;0.0;0.0;0.0;0.0;0.0;0.0;0.0;0.0;0.0;0.0;0.0;0.0;0.0;0.0;0.0;0.0;0.0;0.0;0.0;0.0
307678000000;173;307678000000;map;36.1821088834;-0.0919587305763;0.0;0.0;0.0;0.0042056870839;0.999991156059;0.00335185591712;0.000532518317032;0.00250553332406;0.0;0.0;0.0;0.0;0.0;0.00126885112967;0.0;0.0;0.0;0.0;0.0;0.0;0.0;0.0;0.0;0.0;0.0;0.0;0.0;0.0;0.0;0.0;0.0;0.0;0.0;0.0;0.0;0.0;0.0;0.0;0.0;0.0;0.0
308069000000;174;308069000000;map;36.4146017575;-0.0918365807862;0.0;0.0;0.0;0.00128401077624;0.999999175658;0.00338902350745;0.00069493987442;0.00258954315048;0.0;0.0;0.0;0.0;0.0;0.00138092047877;0.0;0.0;0.0;0.0;0.0;0.0;0.0;0.0;0.0;0.0;0.0;0.0;0.0;0.0;0.0;0.0;0.0;0.0;0.0;0.0;0.0;0.0;0.0;0.0;0.0;0.0;0.0
308581000000;175;308581000000;map;36.6234084229;-0.0938790378886;0.0;0.0;0.0;0.000922739903275;0.999999574275;0.00370492644106;0.000878545013497;0.00236268483469;0.0;0.0;0.0;0.0;0.0;0.00130805998603;0.0;0.0;0.0;0.0;0.0;0.0;0.0;0.0;0.0;0.0;0.0;0.0;0.0;0.0;0.0;0.0;0.0;0.0;0.0;0.0;0.0;0.0;0.0;0.0;0.0;0.0;0.0
308978000000;176;308978000000;map;36.8241497146;-0.0943766175547;0.0;0.0;0.0;0.000822076598315;0.999999662095;0.0035994400871;0.000389667199142;0.00198902889516;0.0;0.0;0.0;0.0;0.0;0.00118828718309;0.0;0.0;0.0;0.0;0.0;0.0;0.0;0.0;0.0;0.0;0.0;0.0;0.0;0.0;0.0;0.0;0.0;0.0;0.0;0.0;0.0;0.0;0.0;0.0;0.0;0.0;0.0
310368000000;177;310368000000;map;36.9817083883;-0.0922744922115;0.0;0.0;0.0;0.125178343254;0.992134256228;0.00402381303002;0.000234758516319;0.00201727563808;0.0;0.0;0.0;0.0;0.0;0.00117349345013;0.0;0.0;0.0;0.0;0.0;0.0;0.0;0.0;0.0;0.0;0.0;0.0;0.0;0.0;0.0;0.0;0.0;0.0;0.0;0.0;0.0;0.0;0.0;0.0;0.0;0.0;0.0
311484000000;178;311484000000;map;36.9828219623;-0.0925401488533;0.0;0.0;0.0;0.250865491116;0.968021955003;0.0043352739126;0.000226587416655;0.00188993610765;0.0;0.0;0.0;0.0;0.0;0.00131972411873;0.0;0.0;0.0;0.0;0.0;0.0;0.0;0.0;0.0;0.0;0.0;0.0;0.0;0.0;0.0;0.0;0.0;0.0;0.0;0.0;0.0;0.0;0.0;0.0;0.0;0.0;0.0
312583000000;179;312583000000;map;36.9851123159;-0.0920867781552;0.0;0.0;0.0;0.371953987679;0.928251168084;0.00480754003502;0.000387663269927;0.00172184725105;0.0;0.0;0.0;0.0;0.0;0.00128809061473;0.0;0.0;0.0;0.0;0.0;0.0;0.0;0.0;0.0;0.0;0.0;0.0;0.0;0.0;0.0;0.0;0.0;0.0;0.0;0.0;0.0;0.0;0.0;0.0;0.0;0.0;0.0
313680000000;180;313680000000;map;36.9836404234;-0.0889888906816;0.0;0.0;0.0;0.486504478874;0.873678082612;0.00529133391206;0.000546530912429;0.00184395718736;0.0;0.0;0.0;0.0;0.0;0.00128639188872;0.0;0.0;0.0;0.0;0.0;0.0;0.0;0.0;0.0;0.0;0.0;0.0;0.0;0.0;0.0;0.0;0.0;0.0;0.0;0.0;0.0;0.0;0.0;0.0;0.0;0.0;0.0
314781000000;181;314781000000;map;36.9853858898;-0.0851262039654;0.0;0.0;0.0;0.591625936636;0.806212596713;0.00597277420593;0.00072520219914;0.00187108448374;0.0;0.0;0.0;0.0;0.0;0.00148693967512;0.0;0.0;0.0;0.0;0.0;0.0;0.0;0.0;0.0;0.0;0.0;0.0;0.0;0.0;0.0;0.0;0.0;0.0;0.0;0.0;0.0;0.0;0.0;0.0;0.0;0.0;0.0
315878000000;182;315878000000;map;36.9850139649;-0.0852594630073;0.0;0.0;0.0;0.686621584804;0.727014992474;0.00528428269331;0.000839670027263;0.00217823841879;0.0;0.0;0.0;0.0;0.0;0.00171088706608;0.0;0.0;0.0;0.0;0.0;0.0;0.0;0.0;0.0;0.0;0.0;0.0;0.0;0.0;0.0;0.0;0.0;0.0;0.0;0.0;0.0;0.0;0.0;0.0;0.0;0.0;0.0
317185000000;183;317185000000;map;36.9715638478;0.126522560464;0.0;0.0;0.0;0.733893944772;0.679264070761;0.00502697491856;0.000601917227469;0.00236085024462;0.0;0.0;0.0;0.0;0.0;0.00181595190191;0.0;0.0;0.0;0.0;0.0;0.0;0.0;0.0;0.0;0.0;0.0;0.0;0.0;0.0;0.0;0.0;0.0;0.0;0.0;0.0;0.0;0.0;0.0;0.0;0.0;0.0;0.0
317584000000;184;317584000000;map;36.9597368482;0.330154239896;0.0;0.0;0.0;0.732964920467;0.680266437041;0.00557880450447;0.000632392690509;0.00256500426417;0.0;0.0;0.0;0.0;0.0;0.0018475145913;0.0;0.0;0.0;0.0;0.0;0.0;0.0;0.0;0.0;0.0;0.0;0.0;0.0;0.0;0.0;0.0;0.0;0.0;0.0;0.0;0.0;0.0;0.0;0.0;0.0;0.0;0.0
317978000000;185;317978000000;map;36.9503527684;0.534305136489;0.0;0.0;0.0;0.73267930346;0.680574050549;0.00553333942753;0.000601880308384;0.0024655159324;0.0;0.0;0.0;0.0;0.0;0.00141641189473;0.0;0.0;0.0;0.0;0.0;0.0;0.0;0.0;0.0;0.0;0.0;0.0;0.0;0.0;0.0;0.0;0.0;0.0;0.0;0.0;0.0;0.0;0.0;0.0;0.0;0.0;0.0
318385000000;186;318385000000;map;36.9445647605;0.73224312473;0.0;0.0;0.0;0.732388230026;0.680887274459;0.00548412113312;0.000493483132999;0.00229394921443;0.0;0.0;0.0;0.0;0.0;0.00122438531867;0.0;0.0;0.0;0.0;0.0;0.0;0.0;0.0;0.0;0.0;0.0;0.0;0.0;0.0;0.0;0.0;0.0;0.0;0.0;0.0;0.0;0.0;0.0;0.0;0.0;0.0;0.0
318779000000;187;318779000000;map;36.9397792202;0.935670391002;0.0;0.0;0.0;0.731931198624;0.681378544189;0.00468576776325;0.000431438376154;0.00230344738113;0.0;0.0;0.0;0.0;0.0;0.000953501812482;0.0;0.0;0.0;0.0;0.0;0.0;0.0;0.0;0.0;0.0;0.0;0.0;0.0;0.0;0.0;0.0;0.0;0.0;0.0;0.0;0.0;0.0;0.0;0.0;0.0;0.0;0.0
319176000000;188;319176000000;map;36.9325083048;1.14672351637;0.0;0.0;0.0;0.730955554514;0.682425070851;0.00457021502939;0.000277587843335;0.00251056647522;0.0;0.0;0.0;0.0;0.0;0.000966429619524;0.0;0.0;0.0;0.0;0.0;0.0;0.0;0.0;0.0;0.0;0.0;0.0;0.0;0.0;0.0;0.0;0.0;0.0;0.0;0.0;0.0;0.0;0.0;0.0;0.0;0.0;0.0
319571000000;189;319571000000;map;36.9178032055;1.35521526979;0.0;0.0;0.0;0.73217689163;0.681114527347;0.0045156972501;0.000112345318442;0.00263471466573;0.0;0.0;0.0;0.0;0.0;0.000908271414643;0.0;0.0;0.0;0.0;0.0;0.0;0.0;0.0;0.0;0.0;0.0;0.0;0.0;0.0;0.0;0.0;0.0;0.0;0.0;0.0;0.0;0.0;0.0;0.0;0.0;0.0;0.0
319979000000;190;319979000000;map;36.9031281825;1.55826559101;0.0;0.0;0.0;0.732808029545;0.680435442812;0.00379342905376;-5.20796191026e-05;0.00286343659334;0.0;0.0;0.0;0.0;0.0;0.000977671495046;0.0;0.0;0.0;0.0;0.0;0.0;0.0;0.0;0.0;0.0;0.0;0.0;0.0;0.0;0.0;0.0;0.0;0.0;0.0;0.0;0.0;0.0;0.0;0.0;0.0;0.0;0.0
320381000000;191;320381000000;map;36.885045783;1.76258699259;0.0;0.0;0.0;0.73244955433;0.680821305748;0.0034199811721;-6.07282028824e-05;0.00301283741688;0.0;0.0;0.0;0.0;0.0;0.000874329758594;0.0;0.0;0.0;0.0;0.0;0.0;0.0;0.0;0.0;0.0;0.0;0.0;0.0;0.0;0.0;0.0;0.0;0.0;0.0;0.0;0.0;0.0;0.0;0.0;0.0;0.0;0.0
320767000000;192;320767000000;map;36.8704568753;1.96278824341;0.0;0.0;0.0;0.732731336549;0.680518029474;0.00365138037023;-0.00022879239836;0.00332877253139;0.0;0.0;0.0;0.0;0.0;0.000948489208177;0.0;0.0;0.0;0.0;0.0;0.0;0.0;0.0;0.0;0.0;0.0;0.0;0.0;0.0;0.0;0.0;0.0;0.0;0.0;0.0;0.0;0.0;0.0;0.0;0.0;0.0;0.0
322676000000;193;322676000000;map;36.8579148455;2.16518837067;0.0;0.0;0.0;0.701633238351;0.71253827886;0.00360612155396;-0.000324103040043;0.00384200168833;0.0;0.0;0.0;0.0;0.0;0.00109834763327;0.0;0.0;0.0;0.0;0.0;0.0;0.0;0.0;0.0;0.0;0.0;0.0;0.0;0.0;0.0;0.0;0.0;0.0;0.0;0.0;0.0;0.0;0.0;0.0;0.0;0.0;0.0
323069000000;194;323069000000;map;36.8593537341;2.37145329063;0.0;0.0;0.0;0.701737477589;0.712435619932;0.00403665860995;-0.00029728883996;0.00356447468508;0.0;0.0;0.0;0.0;0.0;0.000946575329567;0.0;0.0;0.0;0.0;0.0;0.0;0.0;0.0;0.0;0.0;0.0;0.0;0.0;0.0;0.0;0.0;0.0;0.0;0.0;0.0;0.0;0.0;0.0;0.0;0.0;0.0;0.0
323473000000;195;323473000000;map;36.8630535643;2.57502273182;0.0;0.0;0.0;0.702147752104;0.71203127334;0.00427800570901;-0.000142769333095;0.00313884607037;0.0;0.0;0.0;0.0;0.0;0.000910683438513;0.0;0.0;0.0;0.0;0.0;0.0;0.0;0.0;0.0;0.0;0.0;0.0;0.0;0.0;0.0;0.0;0.0;0.0;0.0;0.0;0.0;0.0;0.0;0.0;0.0;0.0;0.0
323867000000;196;323867000000;map;36.8736021165;2.77970975479;0.0;0.0;0.0;0.701908384034;0.712267239471;0.00441959441628;-0.000323768835969;0.00264933034147;0.0;0.0;0.0;0.0;0.0;0.000916127074697;0.0;0.0;0.0;0.0;0.0;0.0;0.0;0.0;0.0;0.0;0.0;0.0;0.0;0.0;0.0;0.0;0.0;0.0;0.0;0.0;0.0;0.0;0.0;0.0;0.0;0.0;0.0
324265000000;197;324265000000;map;36.8753883462;2.98435226956;0.0;0.0;0.0;0.702023602232;0.712153678576;0.00437694055381;-0.00027499815404;0.00271623620004;0.0;0.0;0.0;0.0;0.0;0.000813679924501;0.0;0.0;0.0;0.0;0.0;0.0;0.0;0.0;0.0;0.0;0.0;0.0;0.0;0.0;0.0;0.0;0.0;0.0;0.0;0.0;0.0;0.0;0.0;0.0;0.0;0.0;0.0
324671000000;198;324671000000;map;36.876291024;3.19685165935;0.0;0.0;0.0;0.702098948861;0.71207939586;0.00400314707122;-0.000605867870291;0.00287048521882;0.0;0.0;0.0;0.0;0.0;0.000757074759718;0.0;0.0;0.0;0.0;0.0;0.0;0.0;0.0;0.0;0.0;0.0;0.0;0.0;0.0;0.0;0.0;0.0;0.0;0.0;0.0;0.0;0.0;0.0;0.0;0.0;0.0;0.0
325070000000;199;325070000000;map;36.8818772307;3.39881754407;0.0;0.0;0.0;0.701422424675;0.712745804732;0.00453131177778;-0.000357574100292;0.0027932549126;0.0;0.0;0.0;0.0;0.0;0.000905891554721;0.0;0.0;0.0;0.0;0.0;0.0;0.0;0.0;0.0;0.0;0.0;0.0;0.0;0.0;0.0;0.0;0.0;0.0;0.0;0.0;0.0;0.0;0.0;0.0;0.0;0.0;0.0
325478000000;200;325478000000;map;36.8857557155;3.59891170286;0.0;0.0;0.0;0.701476611557;0.712692474661;0.00456776233864;-0.000425980302623;0.00284443227396;0.0;0.0;0.0;0.0;0.0;0.000947592557227;0.0;0.0;0.0;0.0;0.0;0.0;0.0;0.0;0.0;0.0;0.0;0.0;0.0;0.0;0.0;0.0;0.0;0.0;0.0;0.0;0.0;0.0;0.0;0.0;0.0;0.0;0.0
325877329866;201;325877329866;map;36.8829122198;3.80268844459;0.0;0.0;0.0;0.700743344832;0.713413459835;0.00416281070716;-0.000379145264503;0.00303837999297;0.0;0.0;0.0;0.0;0.0;0.000884916400822;0.0;0.0;0.0;0.0;0.0;0.0;0.0;0.0;0.0;0.0;0.0;0.0;0.0;0.0;0.0;0.0;0.0;0.0;0.0;0.0;0.0;0.0;0.0;0.0;0.0;0.0;0.0
326271868638;202;326271868638;map;36.8848053047;4.0064722492;0.0;0.0;0.0;0.700780844022;0.713376624688;0.0041120901617;-0.000300818372125;0.00305470805523;0.0;0.0;0.0;0.0;0.0;0.000828868619895;0.0;0.0;0.0;0.0;0.0;0.0;0.0;0.0;0.0;0.0;0.0;0.0;0.0;0.0;0.0;0.0;0.0;0.0;0.0;0.0;0.0;0.0;0.0;0.0;0.0;0.0;0.0
326687000000;203;326687000000;map;36.8837986962;4.21121496284;0.0;0.0;0.0;0.701065744022;0.713096643211;0.00411791192346;-0.000320757662962;0.00316285200648;0.0;0.0;0.0;0.0;0.0;0.000839653406849;0.0;0.0;0.0;0.0;0.0;0.0;0.0;0.0;0.0;0.0;0.0;0.0;0.0;0.0;0.0;0.0;0.0;0.0;0.0;0.0;0.0;0.0;0.0;0.0;0.0;0.0;0.0
327074000000;204;327074000000;map;36.8806015713;4.41146584398;0.0;0.0;0.0;0.701064941555;0.713097432139;0.00354388867981;-0.000351875755769;0.00334768331362;0.0;0.0;0.0;0.0;0.0;0.000882196662373;0.0;0.0;0.0;0.0;0.0;0.0;0.0;0.0;0.0;0.0;0.0;0.0;0.0;0.0;0.0;0.0;0.0;0.0;0.0;0.0;0.0;0.0;0.0;0.0;0.0;0.0;0.0
327577000000;205;327577000000;map;36.8817339808;4.61250419263;0.0;0.0;0.0;0.700490324395;0.713661898541;0.00392056401483;-3.0670267904e-05;0.00331827766161;0.0;0.0;0.0;0.0;0.0;0.0010949282212;0.0;0.0;0.0;0.0;0.0;0.0;0.0;0.0;0.0;0.0;0.0;0.0;0.0;0.0;0.0;0.0;0.0;0.0;0.0;0.0;0.0;0.0;0.0;0.0;0.0;0.0;0.0
327873285226;206;327873285226;map;36.8882407153;4.80805335455;0.0;0.0;0.0;0.701036193614;0.71312569386;0.00375372617486;-2.4950864173e-05;0.00393236264961;0.0;0.0;0.0;0.0;0.0;0.00112763542381;0.0;0.0;0.0;0.0;0.0;0.0;0.0;0.0;0.0;0.0;0.0;0.0;0.0;0.0;0.0;0.0;0.0;0.0;0.0;0.0;0.0;0.0;0.0;0.0;0.0;0.0;0.0
328271000000;207;328271000000;map;36.8886379716;5.01155595906;0.0;0.0;0.0;0.700886853235;0.713272471755;0.0035426515235;-0.000262506422558;0.00359090221118;0.0;0.0;0.0;0.0;0.0;0.000897826350397;0.0;0.0;0.0;0.0;0.0;0.0;0.0;0.0;0.0;0.0;0.0;0.0;0.0;0.0;0.0;0.0;0.0;0.0;0.0;0.0;0.0;0.0;0.0;0.0;0.0;0.0;0.0
328774000000;208;328774000000;map;36.9071232423;5.20512549166;0.0;0.0;0.0;0.70042303236;0.713727942384;0.00441928209011;-0.000804349906872;0.00335662137975;0.0;0.0;0.0;0.0;0.0;0.000787421858897;0.0;0.0;0.0;0.0;0.0;0.0;0.0;0.0;0.0;0.0;0.0;0.0;0.0;0.0;0.0;0.0;0.0;0.0;0.0;0.0;0.0;0.0;0.0;0.0;0.0;0.0;0.0
329070000000;209;329070000000;map;36.9047384436;5.40740428607;0.0;0.0;0.0;0.6994512641;0.714680298559;0.00372372926176;-0.000730366393782;0.003362272722;0.0;0.0;0.0;0.0;0.0;0.000857114415304;0.0;0.0;0.0;0.0;0.0;0.0;0.0;0.0;0.0;0.0;0.0;0.0;0.0;0.0;0.0;0.0;0.0;0.0;0.0;0.0;0.0;0.0;0.0;0.0;0.0;0.0;0.0
329481000000;210;329481000000;map;36.9129039307;5.60416036727;0.0;0.0;0.0;0.698754376307;0.715361671878;0.00412359299685;-0.000997719856997;0.00346545640389;0.0;0.0;0.0;0.0;0.0;0.00100934336222;0.0;0.0;0.0;0.0;0.0;0.0;0.0;0.0;0.0;0.0;0.0;0.0;0.0;0.0;0.0;0.0;0.0;0.0;0.0;0.0;0.0;0.0;0.0;0.0;0.0;0.0;0.0
329874000000;211;329874000000;map;36.9146363874;5.80423986726;0.0;0.0;0.0;0.699735120374;0.714402380536;0.00441267454585;-0.000873618187455;0.00385549803629;0.0;0.0;0.0;0.0;0.0;0.00113470135277;0.0;0.0;0.0;0.0;0.0;0.0;0.0;0.0;0.0;0.0;0.0;0.0;0.0;0.0;0.0;0.0;0.0;0.0;0.0;0.0;0.0;0.0;0.0;0.0;0.0;0.0;0.0
330270000000;212;330270000000;map;36.9160555411;6.01388225418;0.0;0.0;0.0;0.69993242033;0.714209077911;0.00408994123427;-0.000963152660205;0.00415655383264;0.0;0.0;0.0;0.0;0.0;0.00102812649544;0.0;0.0;0.0;0.0;0.0;0.0;0.0;0.0;0.0;0.0;0.0;0.0;0.0;0.0;0.0;0.0;0.0;0.0;0.0;0.0;0.0;0.0;0.0;0.0;0.0;0.0;0.0
330783269041;213;330783269041;map;36.9186195637;6.22076030427;0.0;0.0;0.0;0.700496558534;0.713655779407;0.00429330613201;-0.000840822519621;0.00402046580707;0.0;0.0;0.0;0.0;0.0;0.00120271261615;0.0;0.0;0.0;0.0;0.0;0.0;0.0;0.0;0.0;0.0;0.0;0.0;0.0;0.0;0.0;0.0;0.0;0.0;0.0;0.0;0.0;0.0;0.0;0.0;0.0;0.0;0.0
331171000000;214;331171000000;map;36.9249435066;6.41976326324;0.0;0.0;0.0;0.700889398274;0.713269970899;0.0041938167526;-0.000761160794553;0.00364694101429;0.0;0.0;0.0;0.0;0.0;0.00115729693158;0.0;0.0;0.0;0.0;0.0;0.0;0.0;0.0;0.0;0.0;0.0;0.0;0.0;0.0;0.0;0.0;0.0;0.0;0.0;0.0;0.0;0.0;0.0;0.0;0.0;0.0;0.0
331579000000;215;331579000000;map;36.9275344777;6.61909873064;0.0;0.0;0.0;0.70066730612;0.71348814015;0.00394668556714;-0.000859908447211;0.00336099973681;0.0;0.0;0.0;0.0;0.0;0.00114277990046;0.0;0.0;0.0;0.0;0.0;0.0;0.0;0.0;0.0;0.0;0.0;0.0;0.0;0.0;0.0;0.0;0.0;0.0;0.0;0.0;0.0;0.0;0.0;0.0;0.0;0.0;0.0
331979000000;216;331979000000;map;36.9305019842;6.83695552006;0.0;0.0;0.0;0.700348345317;0.713801229484;0.00390747488655;-0.000910894595222;0.00320645957073;0.0;0.0;0.0;0.0;0.0;0.00145269530618;0.0;0.0;0.0;0.0;0.0;0.0;0.0;0.0;0.0;0.0;0.0;0.0;0.0;0.0;0.0;0.0;0.0;0.0;0.0;0.0;0.0;0.0;0.0;0.0;0.0;0.0;0.0
332370000000;217;332370000000;map;36.9324709947;7.04387069202;0.0;0.0;0.0;0.699908418304;0.714232599359;0.00378939916527;-0.00114663470458;0.00345436489398;0.0;0.0;0.0;0.0;0.0;0.00129941382675;0.0;0.0;0.0;0.0;0.0;0.0;0.0;0.0;0.0;0.0;0.0;0.0;0.0;0.0;0.0;0.0;0.0;0.0;0.0;0.0;0.0;0.0;0.0;0.0;0.0;0.0;0.0
332778892850;218;332778892850;map;36.9377161045;7.2437848053;0.0;0.0;0.0;0.700179481013;0.713966872039;0.00407225297386;-0.00138562045748;0.00331214160685;0.0;0.0;0.0;0.0;0.0;0.00118696627807;0.0;0.0;0.0;0.0;0.0;0.0;0.0;0.0;0.0;0.0;0.0;0.0;0.0;0.0;0.0;0.0;0.0;0.0;0.0;0.0;0.0;0.0;0.0;0.0;0.0;0.0;0.0
333169000000;219;333169000000;map;36.9432968877;7.44151751473;0.0;0.0;0.0;0.700436510201;0.71371471554;0.00460082993777;-0.00130178717927;0.00339186753759;0.0;0.0;0.0;0.0;0.0;0.00103448435015;0.0;0.0;0.0;0.0;0.0;0.0;0.0;0.0;0.0;0.0;0.0;0.0;0.0;0.0;0.0;0.0;0.0;0.0;0.0;0.0;0.0;0.0;0.0;0.0;0.0;0.0;0.0
333582000000;220;333582000000;map;36.944623121;7.65072974365;0.0;0.0;0.0;0.700602283536;0.713551988509;0.00415086732323;-0.00102739985107;0.00334100056161;0.0;0.0;0.0;0.0;0.0;0.00115085302007;0.0;0.0;0.0;0.0;0.0;0.0;0.0;0.0;0.0;0.0;0.0;0.0;0.0;0.0;0.0;0.0;0.0;0.0;0.0;0.0;0.0;0.0;0.0;0.0;0.0;0.0;0.0
333966000000;221;333966000000;map;36.9454123099;7.8608844691;0.0;0.0;0.0;0.700439026369;0.713712246175;0.00413364407495;-0.000617570953523;0.00305214364361;0.0;0.0;0.0;0.0;0.0;0.000963658480284;0.0;0.0;0.0;0.0;0.0;0.0;0.0;0.0;0.0;0.0;0.0;0.0;0.0;0.0;0.0;0.0;0.0;0.0;0.0;0.0;0.0;0.0;0.0;0.0;0.0;0.0;0.0
334472000000;222;334472000000;map;36.9509212305;8.05671622692;0.0;0.0;0.0;0.699091863278;0.715031864114;0.00370599219809;-0.000774034318795;0.00356822017874;0.0;0.0;0.0;0.0;0.0;0.000985157952765;0.0;0.0;0.0;0.0;0.0;0.0;0.0;0.0;0.0;0.0;0.0;0.0;0.0;0.0;0.0;0.0;0.0;0.0;0.0;0.0;0.0;0.0;0.0;0.0;0.0;0.0;0.0
334882000000;223;334882000000;map;36.9638334577;8.26416088164;0.0;0.0;0.0;0.697542690367;0.716543226271;0.00383801765315;-0.000679629652893;0.00342048670029;0.0;0.0;0.0;0.0;0.0;0.0011075095867;0.0;0.0;0.0;0.0;0.0;0.0;0.0;0.0;0.0;0.0;0.0;0.0;0.0;0.0;0.0;0.0;0.0;0.0;0.0;0.0;0.0;0.0;0.0;0.0;0.0;0.0;0.0
335270730542;224;335270730542;map;36.9684218983;8.46638366682;0.0;0.0;0.0;0.69879046931;0.715326415004;0.00366109221773;-0.000725674078467;0.00354326527578;0.0;0.0;0.0;0.0;0.0;0.000988075266225;0.0;0.0;0.0;0.0;0.0;0.0;0.0;0.0;0.0;0.0;0.0;0.0;0.0;0.0;0.0;0.0;0.0;0.0;0.0;0.0;0.0;0.0;0.0;0.0;0.0;0.0;0.0
335684000000;225;335684000000;map;36.971437469;8.66511237915;0.0;0.0;0.0;0.698623220327;0.715489759549;0.00359305927827;-0.000798552431036;0.00305675986351;0.0;0.0;0.0;0.0;0.0;0.00118171968732;0.0;0.0;0.0;0.0;0.0;0.0;0.0;0.0;0.0;0.0;0.0;0.0;0.0;0.0;0.0;0.0;0.0;0.0;0.0;0.0;0.0;0.0;0.0;0.0;0.0;0.0;0.0
336073000000;226;336073000000;map;36.9757467846;8.86611311664;0.0;0.0;0.0;0.699668665533;0.71446746495;0.004035967042;-0.000642237779857;0.00322013874073;0.0;0.0;0.0;0.0;0.0;0.00108829777945;0.0;0.0;0.0;0.0;0.0;0.0;0.0;0.0;0.0;0.0;0.0;0.0;0.0;0.0;0.0;0.0;0.0;0.0;0.0;0.0;0.0;0.0;0.0;0.0;0.0;0.0;0.0
336478000000;227;336478000000;map;36.9798295109;9.06596551352;0.0;0.0;0.0;0.69911753283;0.715006765905;0.0036652190654;-0.000513119424511;0.00336501672928;0.0;0.0;0.0;0.0;0.0;0.00103021895155;0.0;0.0;0.0;0.0;0.0;0.0;0.0;0.0;0.0;0.0;0.0;0.0;0.0;0.0;0.0;0.0;0.0;0.0;0.0;0.0;0.0;0.0;0.0;0.0;0.0;0.0;0.0
336884000000;228;336884000000;map;36.9851829695;9.26926944864;0.0;0.0;0.0;0.69925807034;0.714869324468;0.00350948607729;-0.000520696082731;0.00341907191829;0.0;0.0;0.0;0.0;0.0;0.00103277147571;0.0;0.0;0.0;0.0;0.0;0.0;0.0;0.0;0.0;0.0;0.0;0.0;0.0;0.0;0.0;0.0;0.0;0.0;0.0;0.0;0.0;0.0;0.0;0.0;0.0;0.0;0.0
337272000000;229;337272000000;map;36.9921086658;9.47931999781;0.0;0.0;0.0;0.698499048498;0.715610983179;0.00394941897503;-0.000584702082335;0.00323070017157;0.0;0.0;0.0;0.0;0.0;0.00125927884362;0.0;0.0;0.0;0.0;0.0;0.0;0.0;0.0;0.0;0.0;0.0;0.0;0.0;0.0;0.0;0.0;0.0;0.0;0.0;0.0;0.0;0.0;0.0;0.0;0.0;0.0;0.0
337683000000;230;337683000000;map;37.0008999832;9.67675267647;0.0;0.0;0.0;0.699064810536;0.715058312776;0.00361316145245;-0.000603839778194;0.00275289744663;0.0;0.0;0.0;0.0;0.0;0.00116729736414;0.0;0.0;0.0;0.0;0.0;0.0;0.0;0.0;0.0;0.0;0.0;0.0;0.0;0.0;0.0;0.0;0.0;0.0;0.0;0.0;0.0;0.0;0.0;0.0;0.0;0.0;0.0
338067000000;231;338067000000;map;37.0070479919;9.89166763464;0.0;0.0;0.0;0.700324954193;0.713824179007;0.00354960890468;-0.000410493625793;0.00277563431416;0.0;0.0;0.0;0.0;0.0;0.00105487915015;0.0;0.0;0.0;0.0;0.0;0.0;0.0;0.0;0.0;0.0;0.0;0.0;0.0;0.0;0.0;0.0;0.0;0.0;0.0;0.0;0.0;0.0;0.0;0.0;0.0;0.0;0.0
338477000000;232;338477000000;map;37.0167019464;10.093255648;0.0;0.0;0.0;0.699876041271;0.714264325621;0.00328090768403;-0.000165218525353;0.00271856580672;0.0;0.0;0.0;0.0;0.0;0.000866224655576;0.0;0.0;0.0;0.0;0.0;0.0;0.0;0.0;0.0;0.0;0.0;0.0;0.0;0.0;0.0;0.0;0.0;0.0;0.0;0.0;0.0;0.0;0.0;0.0;0.0;0.0;0.0
338883520934;233;338883520934;map;37.0253536587;10.2931133416;0.0;0.0;0.0;0.698968026766;0.715152919003;0.00286009025081;-0.000240433880094;0.00265601250956;0.0;0.0;0.0;0.0;0.0;0.000838755343691;0.0;0.0;0.0;0.0;0.0;0.0;0.0;0.0;0.0;0.0;0.0;0.0;0.0;0.0;0.0;0.0;0.0;0.0;0.0;0.0;0.0;0.0;0.0;0.0;0.0;0.0;0.0
339270000000;234;339270000000;map;37.0253066897;10.4982205005;0.0;0.0;0.0;0.699382871506;0.714747227378;0.00290605090663;-0.000200433220357;0.00308971758838;0.0;0.0;0.0;0.0;0.0;0.000883850379843;0.0;0.0;0.0;0.0;0.0;0.0;0.0;0.0;0.0;0.0;0.0;0.0;0.0;0.0;0.0;0.0;0.0;0.0;0.0;0.0;0.0;0.0;0.0;0.0;0.0;0.0;0.0
339683000000;235;339683000000;map;37.03355426;10.6964394176;0.0;0.0;0.0;0.699931007233;0.714210462758;0.00308599048344;-0.000321442623431;0.00291048637285;0.0;0.0;0.0;0.0;0.0;0.000944628850486;0.0;0.0;0.0;0.0;0.0;0.0;0.0;0.0;0.0;0.0;0.0;0.0;0.0;0.0;0.0;0.0;0.0;0.0;0.0;0.0;0.0;0.0;0.0;0.0;0.0;0.0;0.0
340073000000;236;340073000000;map;37.040636179;10.8979196472;0.0;0.0;0.0;0.70021561266;0.713931436335;0.00329616643285;-0.000253431064948;0.00305876795272;0.0;0.0;0.0;0.0;0.0;0.000825815322391;0.0;0.0;0.0;0.0;0.0;0.0;0.0;0.0;0.0;0.0;0.0;0.0;0.0;0.0;0.0;0.0;0.0;0.0;0.0;0.0;0.0;0.0;0.0;0.0;0.0;0.0;0.0
340484000000;237;340484000000;map;37.0430613015;11.0947888821;0.0;0.0;0.0;0.700495461318;0.71365685639;0.00325653452569;-0.000162178295966;0.00307224030681;0.0;0.0;0.0;0.0;0.0;0.000839427459198;0.0;0.0;0.0;0.0;0.0;0.0;0.0;0.0;0.0;0.0;0.0;0.0;0.0;0.0;0.0;0.0;0.0;0.0;0.0;0.0;0.0;0.0;0.0;0.0;0.0;0.0;0.0
340878555289;238;340878555289;map;37.0488687066;11.2941054068;0.0;0.0;0.0;0.700563299498;0.713590262964;0.00266396054508;-7.77147934059e-05;0.00325889224968;0.0;0.0;0.0;0.0;0.0;0.00075309937293;0.0;0.0;0.0;0.0;0.0;0.0;0.0;0.0;0.0;0.0;0.0;0.0;0.0;0.0;0.0;0.0;0.0;0.0;0.0;0.0;0.0;0.0;0.0;0.0;0.0;0.0;0.0
341277000000;239;341277000000;map;37.0538271428;11.4910325136;0.0;0.0;0.0;0.700308025027;0.713840787629;0.0025503231509;8.60057717773e-05;0.00318852981155;0.0;0.0;0.0;0.0;0.0;0.000654124827196;0.0;0.0;0.0;0.0;0.0;0.0;0.0;0.0;0.0;0.0;0.0;0.0;0.0;0.0;0.0;0.0;0.0;0.0;0.0;0.0;0.0;0.0;0.0;0.0;0.0;0.0;0.0
341684000000;240;341684000000;map;37.057416228;11.6926301597;0.0;0.0;0.0;0.700703990769;0.713452112843;0.00272271683343;-1.99147320359e-05;0.00281390143579;0.0;0.0;0.0;0.0;0.0;0.000672664468033;0.0;0.0;0.0;0.0;0.0;0.0;0.0;0.0;0.0;0.0;0.0;0.0;0.0;0.0;0.0;0.0;0.0;0.0;0.0;0.0;0.0;0.0;0.0;0.0;0.0;0.0;0.0
