%time;field.header.seq;field.header.stamp;field.header.frame_id;field.pose.pose.position.x;field.pose.pose.position.y;field.pose.pose.position.z;field.pose.pose.orientation.x;field.pose.pose.orientation.y;field.pose.pose.orientation.z;field.pose.pose.orientation.w;field.pose.covariance0;field.pose.covariance1;field.pose.covariance2;field.pose.covariance3;field.pose.covariance4;field.pose.covariance5;field.pose.covariance6;field.pose.covariance7;field.pose.covariance8;field.pose.covariance9;field.pose.covariance10;field.pose.covariance11;field.pose.covariance12;field.pose.covariance13;field.pose.covariance14;field.pose.covariance15;field.pose.covariance16;field.pose.covariance17;field.pose.covariance18;field.pose.covariance19;field.pose.covariance20;field.pose.covariance21;field.pose.covariance22;field.pose.covariance23;field.pose.covariance24;field.pose.covariance25;field.pose.covariance26;field.pose.covariance27;field.pose.covariance28;field.pose.covariance29;field.pose.covariance30;field.pose.covariance31;field.pose.covariance32;field.pose.covariance33;field.pose.covariance34;field.pose.covariance35
244940000000;24;244940000000;map;4.62531305834;-0.0939052249898;0.0;0.0;0.0;-0.00705023259765;0.999975146801;4.82807603674e-07;2.68231241793e-05;0.0;0.0;0.0;0.0;2.68231241793e-05;0.00169821394931;0.0;0.0;0.0;0.0;0.0;0.0;0.0;0.0;0.0;0.0;0.0;0.0;0.0;0.0;0.0;0.0;0.0;0.0;0.0;0.0;0.0;0.0;0.0;0.0;0.0;0.0;0.0;0.000624997550078
245344000000;25;245344000000;map;4.82704521379;-0.105831254449;0.0;0.0;0.0;-0.00907161156245;0.999958852085;6.95915364446e-07;3.74411599603e-05;0.0;0.0;0.0;0.0;3.74411599603e-05;0.00231999626692;0.0;0.0;0.0;0.0;0.0;0.0;0.0;0.0;0.0;0.0;0.0;0.0;0.0;0.0;0.0;0.0;0.0;0.0;0.0;0.0;0.0;0.0;0.0;0.0;0.0;0.0;0.0;0.000757881780259
245745000000;26;245745000000;map;5.02761350622;-0.0973582128413;0.0;0.0;0.0;-0.00614052836607;0.999981146778;9.35207548736e-07;4.80314250731e-05;0.0;0.0;0.0;0.0;4.80314250731e-05;0.00283808951698;0.0;0.0;0.0;0.0;0.0;0.0;0.0;0.0;0.0;0.0;0.0;0.0;0.0;0.0;0.0;0.0;0.0;0.0;0.0;0.0;0.0;0.0;0.0;0.0;0.0;0.0;0.0;0.000801699343627
246146000000;27;246146000000;map;5.22820853938;-0.0899181947416;0.0;0.0;0.0;-0.00311982231348;0.999995133343;1.02780132849e-06;5.3310862074e-05;0.0;0.0;0.0;0.0;5.3310862074e-05;0.00320336184956;0.0;0.0;0.0;0.0;0.0;0.0;0.0;0.0;0.0;0.0;0.0;0.0;0.0;0.0;0.0;0.0;0.0;0.0;0.0;0.0;0.0;0.0;0.0;0.0;0.0;0.0;0.0;0.000604110373669
246548000000;28;246548000000;map;5.42926423865;-0.0711389995403;0.0;0.0;0.0;-0.00334319379669;0.999994411512;1.34393423679e-06;6.72478038836e-05;0.0;0.0;0.0;0.0;6.72478038834e-05;0.00421823348758;0.0;0.0;0.0;0.0;0.0;0.0;0.0;0.0;0.0;0.0;0.0;0.0;0.0;0.0;0.0;0.0;0.0;0.0;0.0;0.0;0.0;0.0;0.0;0.0;0.0;0.0;0.0;0.00061464423333
246949000000;29;246949000000;map;5.62982043654;-0.0649682196429;0.0;0.0;0.0;-0.00295697307595;0.999995628146;1.61655786712e-06;7.61231383824e-05;0.0;0.0;0.0;0.0;7.61231383824e-05;0.00423395503751;0.0;0.0;0.0;0.0;0.0;0.0;0.0;0.0;0.0;0.0;0.0;0.0;0.0;0.0;0.0;0.0;0.0;0.0;0.0;0.0;0.0;0.0;0.0;0.0;0.0;0.0;0.0;0.0006574473905
247351000000;30;247351000000;map;5.83109693963;-0.0525731656754;0.0;0.0;0.0;-0.000438378052077;0.999999903912;8.95622989106e-07;3.65087103204e-05;0.0;0.0;0.0;0.0;3.65087103204e-05;0.002360494872;0.0;0.0;0.0;0.0;0.0;0.0;0.0;0.0;0.0;0.0;0.0;0.0;0.0;0.0;0.0;0.0;0.0;0.0;0.0;0.0;0.0;0.0;0.0;0.0;0.0;0.0;0.0;0.000435539565055
247752000000;31;247752000000;map;6.03154498462;-0.0525273513722;0.0;0.0;0.0;-0.000342973094699;0.999999941185;1.085885728e-06;4.10033770663e-05;0.0;0.0;0.0;0.0;4.10033770663e-05;0.00281282494463;0.0;0.0;0.0;0.0;0.0;0.0;0.0;0.0;0.0;0.0;0.0;0.0;0.0;0.0;0.0;0.0;0.0;0.0;0.0;0.0;0.0;0.0;0.0;0.0;0.0;0.0;0.0;0.00046388007541
248158000000;32;248158000000;map;6.23460325053;-0.0507742151033;0.0;0.0;0.0;-0.000880609335554;0.999999612264;7.96659556102e-07;2.35490110365e-05;0.0;0.0;0.0;0.0;2.35490110365e-05;0.00223505618062;0.0;0.0;0.0;0.0;0.0;0.0;0.0;0.0;0.0;0.0;0.0;0.0;0.0;0.0;0.0;0.0;0.0;0.0;0.0;0.0;0.0;0.0;0.0;0.0;0.0;0.0;0.0;0.000450053332989
248561000000;33;248561000000;map;6.43624466528;-0.0479169732275;0.0;0.0;0.0;-0.00139954254268;0.99999902064;8.82180373196e-08;-4.50110771705e-06;0.0;0.0;0.0;0.0;-4.50110771705e-06;0.00100283831538;0.0;0.0;0.0;0.0;0.0;0.0;0.0;0.0;0.0;0.0;0.0;0.0;0.0;0.0;0.0;0.0;0.0;0.0;0.0;0.0;0.0;0.0;0.0;0.0;0.0;0.0;0.0;0.000251240822451
248980000000;34;248980000000;map;6.64575927885;-0.051606778981;0.0;0.0;0.0;-0.00256991240055;0.99999669777;8.42718037575e-08;-4.11628031266e-06;0.0;0.0;0.0;0.0;-4.11628031266e-06;0.000945482922396;0.0;0.0;0.0;0.0;0.0;0.0;0.0;0.0;0.0;0.0;0.0;0.0;0.0;0.0;0.0;0.0;0.0;0.0;0.0;0.0;0.0;0.0;0.0;0.0;0.0;0.0;0.0;0.00024965487008
249382000000;35;249382000000;map;6.84683144289;-0.0596088461469;0.0;0.0;0.0;-0.00453507540137;0.999989716493;1.54161909904e-08;1.62934772097e-06;0.0;0.0;0.0;0.0;1.62934772097e-06;0.000308599201079;0.0;0.0;0.0;0.0;0.0;0.0;0.0;0.0;0.0;0.0;0.0;0.0;0.0;0.0;0.0;0.0;0.0;0.0;0.0;0.0;0.0;0.0;0.0;0.0;0.0;0.0;0.0;0.000171604699965
249786000000;36;249786000000;map;7.048842627;-0.0614335537902;0.0;0.0;0.0;-0.00255751244103;0.99999672956;1.73401843995e-08;1.55359652049e-06;0.0;0.0;0.0;0.0;1.5535965206e-06;0.00023125984396;0.0;0.0;0.0;0.0;0.0;0.0;0.0;0.0;0.0;0.0;0.0;0.0;0.0;0.0;0.0;0.0;0.0;0.0;0.0;0.0;0.0;0.0;0.0;0.0;0.0;0.0;0.0;0.000178679804755
250207000000;37;250207000000;map;7.25928894552;-0.0664992236345;0.0;0.0;0.0;-0.00510327585005;0.999986978203;3.13170005484e-08;1.82460952347e-06;0.0;0.0;0.0;0.0;1.82460952347e-06;0.000119343300542;0.0;0.0;0.0;0.0;0.0;0.0;0.0;0.0;0.0;0.0;0.0;0.0;0.0;0.0;0.0;0.0;0.0;0.0;0.0;0.0;0.0;0.0;0.0;0.0;0.0;0.0;0.0;0.000239132053006
250610000000;38;250610000000;map;7.46070669605;-0.0684296262233;0.0;0.0;0.0;-0.00827252546974;0.999965782076;9.29574923703e-08;4.44137488165e-06;0.0;0.0;0.0;0.0;4.44137488165e-06;0.000226351634152;0.0;0.0;0.0;0.0;0.0;0.0;0.0;0.0;0.0;0.0;0.0;0.0;0.0;0.0;0.0;0.0;0.0;0.0;0.0;0.0;0.0;0.0;0.0;0.0;0.0;0.0;0.0;0.000340942907859
251011000000;39;251011000000;map;7.6612514807;-0.0676486525317;0.0;0.0;0.0;-0.00723608028259;0.999973819228;8.91173925766e-08;4.47411817162e-06;0.0;0.0;0.0;0.0;4.47411817173e-06;0.00024273331259;0.0;0.0;0.0;0.0;0.0;0.0;0.0;0.0;0.0;0.0;0.0;0.0;0.0;0.0;0.0;0.0;0.0;0.0;0.0;0.0;0.0;0.0;0.0;0.0;0.0;0.0;0.0;0.000231987556761
251432000000;40;251432000000;map;7.87171961185;-0.0682484461689;0.0;0.0;0.0;-0.00557094476026;0.999984482167;1.19481619265e-07;6.23921658593e-06;0.0;0.0;0.0;0.0;6.23921658582e-06;0.000354922108405;0.0;0.0;0.0;0.0;0.0;0.0;0.0;0.0;0.0;0.0;0.0;0.0;0.0;0.0;0.0;0.0;0.0;0.0;0.0;0.0;0.0;0.0;0.0;0.0;0.0;0.0;0.0;0.000242455041489
251832000000;41;251832000000;map;8.07153414806;-0.0783639618174;0.0;0.0;0.0;-0.00944861139473;0.999955360875;2.2633165031e-07;1.13228840156e-05;0.0;0.0;0.0;0.0;1.13228840156e-05;0.000589325165225;0.0;0.0;0.0;0.0;0.0;0.0;0.0;0.0;0.0;0.0;0.0;0.0;0.0;0.0;0.0;0.0;0.0;0.0;0.0;0.0;0.0;0.0;0.0;0.0;0.0;0.0;0.0;0.000163462168376
252252000000;42;252252000000;map;8.28146750785;-0.0832214061881;0.0;0.0;0.0;-0.00859200324413;0.999963088059;2.254429603e-07;1.23514891489e-05;0.0;0.0;0.0;0.0;1.23514891489e-05;0.000702779833329;0.0;0.0;0.0;0.0;0.0;0.0;0.0;0.0;0.0;0.0;0.0;0.0;0.0;0.0;0.0;0.0;0.0;0.0;0.0;0.0;0.0;0.0;0.0;0.0;0.0;0.0;0.0;0.000266614767682
252654000000;43;252654000000;map;8.48254429315;-0.0812449481734;0.0;0.0;0.0;-0.00881522478425;0.999961145151;2.18839716126e-07;1.15745255319e-05;0.0;0.0;0.0;0.0;1.15745255318e-05;0.000634233119472;0.0;0.0;0.0;0.0;0.0;0.0;0.0;0.0;0.0;0.0;0.0;0.0;0.0;0.0;0.0;0.0;0.0;0.0;0.0;0.0;0.0;0.0;0.0;0.0;0.0;0.0;0.0;0.000199498736646
253057000000;44;253057000000;map;8.68415797756;-0.0741534303764;0.0;0.0;0.0;-0.00533591449829;0.999985763907;1.68575411408e-07;9.71130096139e-06;0.0;0.0;0.0;0.0;9.71130096139e-06;0.000605925018181;0.0;0.0;0.0;0.0;0.0;0.0;0.0;0.0;0.0;0.0;0.0;0.0;0.0;0.0;0.0;0.0;0.0;0.0;0.0;0.0;0.0;0.0;0.0;0.0;0.0;0.0;0.0;0.000313115637783
253479000000;45;253479000000;map;8.89506861197;-0.081131908025;0.0;0.0;0.0;-0.00667736198067;0.99997770617;2.28963585869e-07;1.21738998597e-05;0.0;0.0;0.0;0.0;1.21738998596e-05;0.000699570982163;0.0;0.0;0.0;0.0;0.0;0.0;0.0;0.0;0.0;0.0;0.0;0.0;0.0;0.0;0.0;0.0;0.0;0.0;0.0;0.0;0.0;0.0;0.0;0.0;0.0;0.0;0.0;0.000287996712027
253881000000;46;253881000000;map;9.09618922911;-0.0757680727754;0.0;0.0;0.0;-0.00621959423368;0.999980658137;6.14808328692e-08;4.90424499722e-06;0.0;0.0;0.0;0.0;4.90424499711e-06;0.000427979811615;0.0;0.0;0.0;0.0;0.0;0.0;0.0;0.0;0.0;0.0;0.0;0.0;0.0;0.0;0.0;0.0;0.0;0.0;0.0;0.0;0.0;0.0;0.0;0.0;0.0;0.0;0.0;0.000271154967658
254284000000;47;254284000000;map;9.29773391392;-0.0713979991853;0.0;0.0;0.0;-0.00517954781827;0.999986586052;4.39071499159e-08;3.6965257455e-06;0.0;0.0;0.0;0.0;3.69652574561e-06;0.000375915679178;0.0;0.0;0.0;0.0;0.0;0.0;0.0;0.0;0.0;0.0;0.0;0.0;0.0;0.0;0.0;0.0;0.0;0.0;0.0;0.0;0.0;0.0;0.0;0.0;0.0;0.0;0.0;0.00033091552839
254704000000;48;254704000000;map;9.5076773131;-0.0765675760417;0.0;0.0;0.0;-0.00738538022069;0.999972727708;4.31449223015e-08;3.55523312245e-06;0.0;0.0;0.0;0.0;3.55523312245e-06;0.000333782193547;0.0;0.0;0.0;0.0;0.0;0.0;0.0;0.0;0.0;0.0;0.0;0.0;0.0;0.0;0.0;0.0;0.0;0.0;0.0;0.0;0.0;0.0;0.0;0.0;0.0;0.0;0.0;0.000335291130085
255106000000;49;255106000000;map;9.70867962116;-0.075398075263;0.0;0.0;0.0;-0.00591443815721;0.999982509558;4.58724258579e-08;3.70077841794e-06;0.0;0.0;0.0;0.0;3.70077841794e-06;0.000376255637434;0.0;0.0;0.0;0.0;0.0;0.0;0.0;0.0;0.0;0.0;0.0;0.0;0.0;0.0;0.0;0.0;0.0;0.0;0.0;0.0;0.0;0.0;0.0;0.0;0.0;0.0;0.0;0.000238437054937
255513000000;50;255513000000;map;9.91213310789;-0.0768381927446;0.0;0.0;0.0;-0.0040378036817;0.999991848037;7.43249302104e-08;6.25109794339e-06;0.0;0.0;0.0;0.0;6.25109794339e-06;0.000644311284653;0.0;0.0;0.0;0.0;0.0;0.0;0.0;0.0;0.0;0.0;0.0;0.0;0.0;0.0;0.0;0.0;0.0;0.0;0.0;0.0;0.0;0.0;0.0;0.0;0.0;0.0;0.0;0.000259786835153
255913000000;51;255913000000;map;10.1121341191;-0.0711103033309;0.0;0.0;0.0;-0.00307251834261;0.999995279804;6.70050326335e-08;6.22473840628e-06;0.0;0.0;0.0;0.0;6.22473840628e-06;0.000790178627761;0.0;0.0;0.0;0.0;0.0;0.0;0.0;0.0;0.0;0.0;0.0;0.0;0.0;0.0;0.0;0.0;0.0;0.0;0.0;0.0;0.0;0.0;0.0;0.0;0.0;0.0;0.0;0.000254967762267
256323000000;52;256323000000;map;10.3171252909;-0.0704490048678;0.0;0.0;0.0;-0.00105122211448;0.999999447466;8.04018895906e-08;7.46952602337e-06;0.0;0.0;0.0;0.0;7.46952602326e-06;0.00092818956963;0.0;0.0;0.0;0.0;0.0;0.0;0.0;0.0;0.0;0.0;0.0;0.0;0.0;0.0;0.0;0.0;0.0;0.0;0.0;0.0;0.0;0.0;0.0;0.0;0.0;0.0;0.0;0.000335798593508
256743000000;53;256743000000;map;10.5271617406;-0.0642265299806;0.0;0.0;0.0;0.00144480750546;0.999998956265;2.61001957824e-08;3.2954469259e-06;0.0;0.0;0.0;0.0;3.2954469259e-06;0.000793377548424;0.0;0.0;0.0;0.0;0.0;0.0;0.0;0.0;0.0;0.0;0.0;0.0;0.0;0.0;0.0;0.0;0.0;0.0;0.0;0.0;0.0;0.0;0.0;0.0;0.0;0.0;0.0;0.00030871349645
257146000000;54;257146000000;map;10.728655202;-0.0684067400834;0.0;0.0;0.0;-0.000895653289817;0.999999598903;4.02626341156e-08;4.72980467803e-06;0.0;0.0;0.0;0.0;4.72980467803e-06;0.000799429131395;0.0;0.0;0.0;0.0;0.0;0.0;0.0;0.0;0.0;0.0;0.0;0.0;0.0;0.0;0.0;0.0;0.0;0.0;0.0;0.0;0.0;0.0;0.0;0.0;0.0;0.0;0.0;0.000133778408089
257554000000;55;257554000000;map;10.9326121694;-0.0773019502296;0.0;0.0;0.0;-0.00355041828114;0.999993697245;5.44776668221e-08;5.99781263966e-06;0.0;0.0;0.0;0.0;5.99781263966e-06;0.000797604937448;0.0;0.0;0.0;0.0;0.0;0.0;0.0;0.0;0.0;0.0;0.0;0.0;0.0;0.0;0.0;0.0;0.0;0.0;0.0;0.0;0.0;0.0;0.0;0.0;0.0;0.0;0.0;4.86779146495e-05
257955000000;56;257955000000;map;11.1331308491;-0.0801890659676;0.0;0.0;0.0;-0.00364397790733;0.99999336069;4.25067838705e-08;4.94491282899e-06;0.0;0.0;0.0;0.0;4.94491282899e-06;0.000693475551555;0.0;0.0;0.0;0.0;0.0;0.0;0.0;0.0;0.0;0.0;0.0;0.0;0.0;0.0;0.0;0.0;0.0;0.0;0.0;0.0;0.0;0.0;0.0;0.0;0.0;0.0;0.0;2.63787645251e-05
258357000000;57;258357000000;map;11.3341402496;-0.0804414978151;0.0;0.0;0.0;-0.00375670559846;0.999992943557;3.70844759345e-08;4.49360777532e-06;0.0;0.0;0.0;0.0;4.49360777532e-06;0.000654522911552;0.0;0.0;0.0;0.0;0.0;0.0;0.0;0.0;0.0;0.0;0.0;0.0;0.0;0.0;0.0;0.0;0.0;0.0;0.0;0.0;0.0;0.0;0.0;0.0;0.0;0.0;0.0;9.20028844194e-05
258761000000;58;258761000000;map;11.5361351139;-0.0776086896448;0.0;0.0;0.0;-0.00348029678067;0.999993943749;4.77187711567e-08;5.51899611656e-06;0.0;0.0;0.0;0.0;5.51899611656e-06;0.000735377578678;0.0;0.0;0.0;0.0;0.0;0.0;0.0;0.0;0.0;0.0;0.0;0.0;0.0;0.0;0.0;0.0;0.0;0.0;0.0;0.0;0.0;0.0;0.0;0.0;0.0;0.0;0.0;0.000106026614231
259167000000;59;259167000000;map;11.7390627905;-0.0864108215974;0.0;0.0;0.0;-0.00255294473094;0.999996741231;5.56624399906e-08;6.32223369412e-06;0.0;0.0;0.0;0.0;6.32223369434e-06;0.00081117614955;0.0;0.0;0.0;0.0;0.0;0.0;0.0;0.0;0.0;0.0;0.0;0.0;0.0;0.0;0.0;0.0;0.0;0.0;0.0;0.0;0.0;0.0;0.0;0.0;0.0;0.0;0.0;0.000190804903519
259568000000;60;259568000000;map;11.9394653207;-0.0965662525647;0.0;0.0;0.0;-0.00238772316445;0.999997149385;7.20238233498e-08;7.75567797762e-06;0.0;0.0;0.0;0.0;7.75567797762e-06;0.000948807952046;0.0;0.0;0.0;0.0;0.0;0.0;0.0;0.0;0.0;0.0;0.0;0.0;0.0;0.0;0.0;0.0;0.0;0.0;0.0;0.0;0.0;0.0;0.0;0.0;0.0;0.0;0.0;0.00017239433561
259971000000;61;259971000000;map;12.1410358105;-0.0885783421294;0.0;0.0;0.0;-0.00263489956618;0.999996528646;5.79554750857e-08;6.96587649851e-06;0.0;0.0;0.0;0.0;6.96587649851e-06;0.00097400069992;0.0;0.0;0.0;0.0;0.0;0.0;0.0;0.0;0.0;0.0;0.0;0.0;0.0;0.0;0.0;0.0;0.0;0.0;0.0;0.0;0.0;0.0;0.0;0.0;0.0;0.0;0.0;0.000191154398954
260391000000;62;260391000000;map;12.35103469;-0.088366134496;0.0;0.0;0.0;-0.00179173747346;0.999998394837;4.56220448086e-08;5.81829315016e-06;0.0;0.0;0.0;0.0;5.81829314994e-06;0.000998119934268;0.0;0.0;0.0;0.0;0.0;0.0;0.0;0.0;0.0;0.0;0.0;0.0;0.0;0.0;0.0;0.0;0.0;0.0;0.0;0.0;0.0;0.0;0.0;0.0;0.0;0.0;0.0;0.000294378796164
260797000000;63;260797000000;map;12.5540663473;-0.0819047262287;0.0;0.0;0.0;3.97261314916e-05;0.999999999211;4.18955323767e-08;5.2827875241e-06;0.0;0.0;0.0;0.0;5.2827875241e-06;0.000844143888641;0.0;0.0;0.0;0.0;0.0;0.0;0.0;0.0;0.0;0.0;0.0;0.0;0.0;0.0;0.0;0.0;0.0;0.0;0.0;0.0;0.0;0.0;0.0;0.0;0.0;0.0;0.0;0.000179965258279
261203000000;64;261203000000;map;12.7569964653;-0.086100907742;0.0;0.0;0.0;0.00167414737184;0.999998598614;3.83315921226e-08;4.85559658747e-06;0.0;0.0;0.0;0.0;4.85559658747e-06;0.000857137396408;0.0;0.0;0.0;0.0;0.0;0.0;0.0;0.0;0.0;0.0;0.0;0.0;0.0;0.0;0.0;0.0;0.0;0.0;0.0;0.0;0.0;0.0;0.0;0.0;0.0;0.0;0.0;0.000186495125658
261604000000;65;261604000000;map;12.9574476963;-0.0847860742782;0.0;0.0;0.0;0.00556795431836;0.999984498822;3.98650286115e-08;4.97777259412e-06;0.0;0.0;0.0;0.0;4.97777259412e-06;0.000848640597644;0.0;0.0;0.0;0.0;0.0;0.0;0.0;0.0;0.0;0.0;0.0;0.0;0.0;0.0;0.0;0.0;0.0;0.0;0.0;0.0;0.0;0.0;0.0;0.0;0.0;0.0;0.0;9.46538887745e-05
262025000000;66;262025000000;map;13.1679438211;-0.0846011715777;0.0;0.0;0.0;0.00410721720396;0.999991565348;4.93149343583e-08;5.0429935925e-06;0.0;0.0;0.0;0.0;5.04299359272e-06;0.000723921035052;0.0;0.0;0.0;0.0;0.0;0.0;0.0;0.0;0.0;0.0;0.0;0.0;0.0;0.0;0.0;0.0;0.0;0.0;0.0;0.0;0.0;0.0;0.0;0.0;0.0;0.0;0.0;8.50773814012e-05
262430000000;67;262430000000;map;13.3704288134;-0.0845599156186;0.0;0.0;0.0;0.00461451134601;0.999989353086;7.54036761919e-08;6.85625985719e-06;0.0;0.0;0.0;0.0;6.85625985741e-06;0.000955217148774;0.0;0.0;0.0;0.0;0.0;0.0;0.0;0.0;0.0;0.0;0.0;0.0;0.0;0.0;0.0;0.0;0.0;0.0;0.0;0.0;0.0;0.0;0.0;0.0;0.0;0.0;0.0;0.000188389093226
262831000000;68;262831000000;map;13.5708768433;-0.0945458161794;0.0;0.0;0.0;0.000835129426737;0.999999651279;1.19411424748e-07;1.09561160433e-05;0.0;0.0;0.0;0.0;1.09561160433e-05;0.00121438915499;0.0;0.0;0.0;0.0;0.0;0.0;0.0;0.0;0.0;0.0;0.0;0.0;0.0;0.0;0.0;0.0;0.0;0.0;0.0;0.0;0.0;0.0;0.0;0.0;0.0;0.0;0.0;0.000225013769041
263233000000;69;263233000000;map;13.7719418924;-0.0872408039465;0.0;0.0;0.0;0.000987771663497;0.999999512153;1.19671227594e-07;1.05849148608e-05;0.0;0.0;0.0;0.0;1.05849148608e-05;0.00112380247145;0.0;0.0;0.0;0.0;0.0;0.0;0.0;0.0;0.0;0.0;0.0;0.0;0.0;0.0;0.0;0.0;0.0;0.0;0.0;0.0;0.0;0.0;0.0;0.0;0.0;0.0;0.0;0.000175326326746
263634000000;70;263634000000;map;13.9724342764;-0.0909876122705;0.0;0.0;0.0;-0.000854779851275;0.999999634676;1.22769364452e-07;1.04753667525e-05;0.0;0.0;0.0;0.0;1.04753667525e-05;0.00107674877553;0.0;0.0;0.0;0.0;0.0;0.0;0.0;0.0;0.0;0.0;0.0;0.0;0.0;0.0;0.0;0.0;0.0;0.0;0.0;0.0;0.0;0.0;0.0;0.0;0.0;0.0;0.0;8.75175144696e-05
264035000000;71;264035000000;map;14.1729871919;-0.0856072575174;0.0;0.0;0.0;5.84360538287e-05;0.999999998293;1.10407711418e-07;8.67701892915e-06;0.0;0.0;0.0;0.0;8.67701892915e-06;0.000891864125846;0.0;0.0;0.0;0.0;0.0;0.0;0.0;0.0;0.0;0.0;0.0;0.0;0.0;0.0;0.0;0.0;0.0;0.0;0.0;0.0;0.0;0.0;0.0;0.0;0.0;0.0;0.0;0.000154278454228
264439000000;72;264439000000;map;14.3749806761;-0.081378400475;0.0;0.0;0.0;0.000332701607394;0.999999944655;1.0003569173e-07;4.49787716805e-06;0.0;0.0;0.0;0.0;4.49787716805e-06;0.00057230398074;0.0;0.0;0.0;0.0;0.0;0.0;0.0;0.0;0.0;0.0;0.0;0.0;0.0;0.0;0.0;0.0;0.0;0.0;0.0;0.0;0.0;0.0;0.0;0.0;0.0;0.0;0.0;0.000290136885105
264859000000;73;264859000000;map;14.5849861834;-0.0728507924445;0.0;0.0;0.0;0.0037561544955;0.999992945627;1.01038210687e-07;-1.1330009253e-06;0.0;0.0;0.0;0.0;-1.1330009253e-06;0.000145590624025;0.0;0.0;0.0;0.0;0.0;0.0;0.0;0.0;0.0;0.0;0.0;0.0;0.0;0.0;0.0;0.0;0.0;0.0;0.0;0.0;0.0;0.0;0.0;0.0;0.0;0.0;0.0;0.000305917089472
265262000000;74;265262000000;map;14.7864149292;-0.0682437728952;0.0;0.0;0.0;0.00494757777667;0.999987760662;1.68589508576e-07;-3.50562916784e-06;0.0;0.0;0.0;0.0;-3.50562916784e-06;0.000171029388242;0.0;0.0;0.0;0.0;0.0;0.0;0.0;0.0;0.0;0.0;0.0;0.0;0.0;0.0;0.0;0.0;0.0;0.0;0.0;0.0;0.0;0.0;0.0;0.0;0.0;0.0;0.0;0.000250882764131
265667000000;75;265667000000;map;14.9888038888;-0.0672321238512;0.0;0.0;0.0;0.00717280914576;0.999974275074;2.10651165844e-07;-5.55056070106e-06;0.0;0.0;0.0;0.0;-5.55056070106e-06;0.000296468077428;0.0;0.0;0.0;0.0;0.0;0.0;0.0;0.0;0.0;0.0;0.0;0.0;0.0;0.0;0.0;0.0;0.0;0.0;0.0;0.0;0.0;0.0;0.0;0.0;0.0;0.0;0.0;0.00034180255325
266082000000;76;266082000000;map;15.1962082828;-0.0626080953083;0.0;0.0;0.0;0.00855749701683;0.999963383952;4.00796920985e-07;-1.21791557467e-05;0.0;0.0;0.0;0.0;-1.21791557467e-05;0.000518967361352;0.0;0.0;0.0;0.0;0.0;0.0;0.0;0.0;0.0;0.0;0.0;0.0;0.0;0.0;0.0;0.0;0.0;0.0;0.0;0.0;0.0;0.0;0.0;0.0;0.0;0.0;0.0;0.000565187273896
266485000000;77;266485000000;map;15.397629764;-0.0648553848281;0.0;0.0;0.0;0.00834655434396;0.999965166909;4.35418058942e-07;-1.53036136412e-05;0.0;0.0;0.0;0.0;-1.53036136412e-05;0.000725337342115;0.0;0.0;0.0;0.0;0.0;0.0;0.0;0.0;0.0;0.0;0.0;0.0;0.0;0.0;0.0;0.0;0.0;0.0;0.0;0.0;0.0;0.0;0.0;0.0;0.0;0.0;0.0;0.000385592815568
266886000000;78;266886000000;map;15.5979979321;-0.0578633953753;0.0;0.0;0.0;0.0112964865586;0.99993619266;5.61629036611e-07;-1.99789799715e-05;0.0;0.0;0.0;0.0;-1.99789799715e-05;0.000850905957857;0.0;0.0;0.0;0.0;0.0;0.0;0.0;0.0;0.0;0.0;0.0;0.0;0.0;0.0;0.0;0.0;0.0;0.0;0.0;0.0;0.0;0.0;0.0;0.0;0.0;0.0;0.0;0.000472698759907
267289000000;79;267289000000;map;15.799523706;-0.0630276399718;0.0;0.0;0.0;0.00867042370554;0.99996241117;5.08437523195e-07;-1.94241553095e-05;0.0;0.0;0.0;0.0;-1.94241553095e-05;0.000910985247765;0.0;0.0;0.0;0.0;0.0;0.0;0.0;0.0;0.0;0.0;0.0;0.0;0.0;0.0;0.0;0.0;0.0;0.0;0.0;0.0;0.0;0.0;0.0;0.0;0.0;0.0;0.0;0.000500013368954
267691000000;80;267691000000;map;16.0007708695;-0.0696186858037;0.0;0.0;0.0;0.00434038689899;0.999990580476;1.79650953669e-07;-6.74614941643e-06;0.0;0.0;0.0;0.0;-6.74614941643e-06;0.000444086852823;0.0;0.0;0.0;0.0;0.0;0.0;0.0;0.0;0.0;0.0;0.0;0.0;0.0;0.0;0.0;0.0;0.0;0.0;0.0;0.0;0.0;0.0;0.0;0.0;0.0;0.0;0.0;0.000360307613886
268093000000;81;268093000000;map;16.2015858633;-0.0594072966027;0.0;0.0;0.0;0.00768264711418;0.999970488031;3.06334584366e-07;-1.26183912639e-05;0.0;0.0;0.0;0.0;-1.26183912639e-05;0.000707480056126;0.0;0.0;0.0;0.0;0.0;0.0;0.0;0.0;0.0;0.0;0.0;0.0;0.0;0.0;0.0;0.0;0.0;0.0;0.0;0.0;0.0;0.0;0.0;0.0;0.0;0.0;0.0;0.000420737194207
268494000000;82;268494000000;map;16.4021617736;-0.0623950648173;0.0;0.0;0.0;0.00403680188574;0.999991852082;3.872396519e-07;-1.54413729749e-05;0.0;0.0;0.0;0.0;-1.54413729749e-05;0.000790622894084;0.0;0.0;0.0;0.0;0.0;0.0;0.0;0.0;0.0;0.0;0.0;0.0;0.0;0.0;0.0;0.0;0.0;0.0;0.0;0.0;0.0;0.0;0.0;0.0;0.0;0.0;0.0;0.000538520459989
268901000000;83;268901000000;map;16.6057335949;-0.0668423878718;0.0;0.0;0.0;0.00150490973123;0.999998867623;2.44376053615e-07;-1.12566772958e-05;0.0;0.0;0.0;0.0;-1.12566772958e-05;0.000713034464664;0.0;0.0;0.0;0.0;0.0;0.0;0.0;0.0;0.0;0.0;0.0;0.0;0.0;0.0;0.0;0.0;0.0;0.0;0.0;0.0;0.0;0.0;0.0;0.0;0.0;0.0;0.0;0.000245138840891
269312000000;84;269312000000;map;16.8112953705;-0.0673079927592;0.0;0.0;0.0;-0.000209833724202;0.999999977985;2.10436724046e-07;-9.47440260668e-06;0.0;0.0;0.0;0.0;-9.47440260646e-06;0.000629404432572;0.0;0.0;0.0;0.0;0.0;0.0;0.0;0.0;0.0;0.0;0.0;0.0;0.0;0.0;0.0;0.0;0.0;0.0;0.0;0.0;0.0;0.0;0.0;0.0;0.0;0.0;0.0;0.000235552055908
269714000000;85;269714000000;map;17.0123582861;-0.075032222502;0.0;0.0;0.0;-0.00329728973013;0.999994563925;1.07386370019e-07;-4.53348211549e-06;0.0;0.0;0.0;0.0;-4.53348211527e-06;0.00038842905117;0.0;0.0;0.0;0.0;0.0;0.0;0.0;0.0;0.0;0.0;0.0;0.0;0.0;0.0;0.0;0.0;0.0;0.0;0.0;0.0;0.0;0.0;0.0;0.0;0.0;0.0;0.0;0.000245006228074
270115000000;86;270115000000;map;17.2129365592;-0.080297861157;0.0;0.0;0.0;-0.00615710382059;0.999981044857;3.67745656149e-08;-1.07121310267e-07;0.0;0.0;0.0;0.0;-1.07121310267e-07;0.000210785806555;0.0;0.0;0.0;0.0;0.0;0.0;0.0;0.0;0.0;0.0;0.0;0.0;0.0;0.0;0.0;0.0;0.0;0.0;0.0;0.0;0.0;0.0;0.0;0.0;0.0;0.0;0.0;0.000183562252002
270516000000;87;270516000000;map;17.4133539384;-0.0846251693607;0.0;0.0;0.0;-0.00610270993772;0.999981378292;3.17714921039e-08;-5.95827883476e-07;0.0;0.0;0.0;0.0;-5.95827883476e-07;0.000239890847052;0.0;0.0;0.0;0.0;0.0;0.0;0.0;0.0;0.0;0.0;0.0;0.0;0.0;0.0;0.0;0.0;0.0;0.0;0.0;0.0;0.0;0.0;0.0;0.0;0.0;0.0;0.0;0.000160324346985
270930000000;88;270930000000;map;17.6203748511;-0.0892737417194;0.0;0.0;0.0;-0.00720763298629;0.999974024676;2.29442207456e-08;1.22425656945e-07;0.0;0.0;0.0;0.0;1.22425656945e-07;0.000291300688907;0.0;0.0;0.0;0.0;0.0;0.0;0.0;0.0;0.0;0.0;0.0;0.0;0.0;0.0;0.0;0.0;0.0;0.0;0.0;0.0;0.0;0.0;0.0;0.0;0.0;0.0;0.0;0.000171774300497
271350000000;89;271350000000;map;17.8303573731;-0.0942084441796;0.0;0.0;0.0;-0.00713005198617;0.999974580856;1.95017832993e-08;9.58389887673e-07;0.0;0.0;0.0;0.0;9.58389887229e-07;0.000297527121253;0.0;0.0;0.0;0.0;0.0;0.0;0.0;0.0;0.0;0.0;0.0;0.0;0.0;0.0;0.0;0.0;0.0;0.0;0.0;0.0;0.0;0.0;0.0;0.0;0.0;0.0;0.0;0.000194978101305
271766000000;90;271766000000;map;18.038301289;-0.0961233366765;0.0;0.0;0.0;-0.00615472399191;0.999981059507;3.43581518791e-08;1.55934476398e-06;0.0;0.0;0.0;0.0;1.55934476442e-06;0.000330892777127;0.0;0.0;0.0;0.0;0.0;0.0;0.0;0.0;0.0;0.0;0.0;0.0;0.0;0.0;0.0;0.0;0.0;0.0;0.0;0.0;0.0;0.0;0.0;0.0;0.0;0.0;0.0;0.000206038412278
272176000000;91;272176000000;map;18.2432945254;-0.0954695032479;0.0;0.0;0.0;-0.0054715393813;0.999985031016;4.14530632042e-08;2.56152378109e-06;0.0;0.0;0.0;0.0;2.56152378109e-06;0.000430271236778;0.0;0.0;0.0;0.0;0.0;0.0;0.0;0.0;0.0;0.0;0.0;0.0;0.0;0.0;0.0;0.0;0.0;0.0;0.0;0.0;0.0;0.0;0.0;0.0;0.0;0.0;0.0;0.000248756029875
272583000000;92;272583000000;map;18.4468392294;-0.0936202187211;0.0;0.0;0.0;-0.0035323805308;0.999993761124;4.71153498438e-08;3.97245687789e-06;0.0;0.0;0.0;0.0;3.97245687789e-06;0.00060227795315;0.0;0.0;0.0;0.0;0.0;0.0;0.0;0.0;0.0;0.0;0.0;0.0;0.0;0.0;0.0;0.0;0.0;0.0;0.0;0.0;0.0;0.0;0.0;0.0;0.0;0.0;0.0;0.000312227263344
273008000000;93;273008000000;map;18.6593604675;-0.0912796454694;0.0;0.0;0.0;-0.00188129713044;0.999998230359;5.1867516504e-08;5.20482412369e-06;0.0;0.0;0.0;0.0;5.20482412369e-06;0.000802215084283;0.0;0.0;0.0;0.0;0.0;0.0;0.0;0.0;0.0;0.0;0.0;0.0;0.0;0.0;0.0;0.0;0.0;0.0;0.0;0.0;0.0;0.0;0.0;0.0;0.0;0.0;0.0;0.000231112064143
273410000000;94;273410000000;map;18.8603413571;-0.0855194753006;0.0;0.0;0.0;0.00120734019215;0.999999271165;5.64701281291e-08;5.3086284193e-06;0.0;0.0;0.0;0.0;5.3086284193e-06;0.000829101268346;0.0;0.0;0.0;0.0;0.0;0.0;0.0;0.0;0.0;0.0;0.0;0.0;0.0;0.0;0.0;0.0;0.0;0.0;0.0;0.0;0.0;0.0;0.0;0.0;0.0;0.0;0.0;0.000291192362272
273811000000;95;273811000000;map;19.0607184134;-0.094081439674;0.0;0.0;0.0;0.000215322172975;0.999999976818;5.3927863064e-08;4.95089770824e-06;0.0;0.0;0.0;0.0;4.95089770824e-06;0.000943877245639;0.0;0.0;0.0;0.0;0.0;0.0;0.0;0.0;0.0;0.0;0.0;0.0;0.0;0.0;0.0;0.0;0.0;0.0;0.0;0.0;0.0;0.0;0.0;0.0;0.0;0.0;0.0;0.000315035955236
274212000000;96;274212000000;map;19.2611555543;-0.106969763836;0.0;0.0;0.0;-0.00188486295242;0.999998223644;3.90373884329e-08;2.40329812895e-06;0.0;0.0;0.0;0.0;2.40329812851e-06;0.000537114894006;0.0;0.0;0.0;0.0;0.0;0.0;0.0;0.0;0.0;0.0;0.0;0.0;0.0;0.0;0.0;0.0;0.0;0.0;0.0;0.0;0.0;0.0;0.0;0.0;0.0;0.0;0.0;0.00016933647813
274620000000;97;274620000000;map;19.4651510592;-0.0946813127464;0.0;0.0;0.0;0.000441280600954;0.999999902636;6.01604028816e-08;3.24344718994e-06;0.0;0.0;0.0;0.0;3.24344718994e-06;0.00129850190725;0.0;0.0;0.0;0.0;0.0;0.0;0.0;0.0;0.0;0.0;0.0;0.0;0.0;0.0;0.0;0.0;0.0;0.0;0.0;0.0;0.0;0.0;0.0;0.0;0.0;0.0;0.0;0.000343998960362
275023000000;98;275023000000;map;19.6666352418;-0.0940093841378;0.0;0.0;0.0;0.00117417726577;0.999999310654;7.25834752302e-08;1.89841433262e-06;0.0;0.0;0.0;0.0;1.89841433262e-06;0.00148695695241;0.0;0.0;0.0;0.0;0.0;0.0;0.0;0.0;0.0;0.0;0.0;0.0;0.0;0.0;0.0;0.0;0.0;0.0;0.0;0.0;0.0;0.0;0.0;0.0;0.0;0.0;0.0;0.000395458148937
275424000000;99;275424000000;map;19.8671379377;-0.103053548141;0.0;0.0;0.0;0.00156474240707;0.99999877579;7.14398424861e-08;3.86035039979e-06;0.0;0.0;0.0;0.0;3.86035039979e-06;0.000917629281981;0.0;0.0;0.0;0.0;0.0;0.0;0.0;0.0;0.0;0.0;0.0;0.0;0.0;0.0;0.0;0.0;0.0;0.0;0.0;0.0;0.0;0.0;0.0;0.0;0.0;0.0;0.0;0.000246474351838
275845000000;100;275845000000;map;20.07753806;-0.105731681283;0.0;0.0;0.0;0.00220353045085;0.999997572224;7.90790863903e-08;4.35421380773e-06;0.0;0.0;0.0;0.0;4.35421380729e-06;0.00108220214992;0.0;0.0;0.0;0.0;0.0;0.0;0.0;0.0;0.0;0.0;0.0;0.0;0.0;0.0;0.0;0.0;0.0;0.0;0.0;0.0;0.0;0.0;0.0;0.0;0.0;0.0;0.0;0.00029567299014
276250000000;101;276250000000;map;20.2799932795;-0.115256117926;0.0;0.0;0.0;0.0011625044835;0.999999324291;7.87288172432e-08;5.98446301092e-06;0.0;0.0;0.0;0.0;5.98446301092e-06;0.000610140306656;0.0;0.0;0.0;0.0;0.0;0.0;0.0;0.0;0.0;0.0;0.0;0.0;0.0;0.0;0.0;0.0;0.0;0.0;0.0;0.0;0.0;0.0;0.0;0.0;0.0;0.0;0.0;0.000295715003522
276657000000;102;276657000000;map;20.4834924602;-0.114564585255;0.0;0.0;0.0;0.00166422230844;0.999998615181;5.68961695535e-08;4.37305603151e-06;0.0;0.0;0.0;0.0;4.37305603151e-06;0.000502799519168;0.0;0.0;0.0;0.0;0.0;0.0;0.0;0.0;0.0;0.0;0.0;0.0;0.0;0.0;0.0;0.0;0.0;0.0;0.0;0.0;0.0;0.0;0.0;0.0;0.0;0.0;0.0;0.000125622624223
277060000000;103;277060000000;map;20.6849209811;-0.119818649958;0.0;0.0;0.0;0.00329378558916;0.999994575474;3.79879452339e-08;3.519379006e-06;0.0;0.0;0.0;0.0;3.519379006e-06;0.000466173352154;0.0;0.0;0.0;0.0;0.0;0.0;0.0;0.0;0.0;0.0;0.0;0.0;0.0;0.0;0.0;0.0;0.0;0.0;0.0;0.0;0.0;0.0;0.0;0.0;0.0;0.0;0.0;0.00012719540342
277465000000;104;277465000000;map;20.8874078986;-0.116573971528;0.0;0.0;0.0;0.00240125330948;0.999997116987;1.94438030121e-08;2.53003723749e-06;0.0;0.0;0.0;0.0;2.53003723749e-06;0.000488187666316;0.0;0.0;0.0;0.0;0.0;0.0;0.0;0.0;0.0;0.0;0.0;0.0;0.0;0.0;0.0;0.0;0.0;0.0;0.0;0.0;0.0;0.0;0.0;0.0;0.0;0.0;0.0;0.000124483934332
277881000000;105;277881000000;map;21.0954234893;-0.110815163144;0.0;0.0;0.0;0.00273700194782;0.999996254403;1.03382262751e-08;1.96375859129e-06;0.0;0.0;0.0;0.0;1.96375859174e-06;0.000530453626666;0.0;0.0;0.0;0.0;0.0;0.0;0.0;0.0;0.0;0.0;0.0;0.0;0.0;0.0;0.0;0.0;0.0;0.0;0.0;0.0;0.0;0.0;0.0;0.0;0.0;0.0;0.0;0.000148644951987
278285000000;106;278285000000;map;21.2974138065;-0.108397838622;0.0;0.0;0.0;0.00325235343742;0.999994711085;5.31048272023e-09;1.36006848672e-06;0.0;0.0;0.0;0.0;1.36006848717e-06;0.00051038747143;0.0;0.0;0.0;0.0;0.0;0.0;0.0;0.0;0.0;0.0;0.0;0.0;0.0;0.0;0.0;0.0;0.0;0.0;0.0;0.0;0.0;0.0;0.0;0.0;0.0;0.0;0.0;0.000207144499335
278688000000;107;278688000000;map;21.4988941848;-0.102042243176;0.0;0.0;0.0;0.00394404482258;0.999992222225;6.55728626953e-09;1.30609625293e-06;0.0;0.0;0.0;0.0;1.30609625293e-06;0.000572607762151;0.0;0.0;0.0;0.0;0.0;0.0;0.0;0.0;0.0;0.0;0.0;0.0;0.0;0.0;0.0;0.0;0.0;0.0;0.0;0.0;0.0;0.0;0.0;0.0;0.0;0.0;0.0;0.000188940881622
279094000000;108;279094000000;map;21.7018520808;-0.098770898298;0.0;0.0;0.0;0.00319128725892;0.99999490783;1.4215572719e-08;-3.98533319235e-07;0.0;0.0;0.0;0.0;-3.98533319235e-07;0.000588780462532;0.0;0.0;0.0;0.0;0.0;0.0;0.0;0.0;0.0;0.0;0.0;0.0;0.0;0.0;0.0;0.0;0.0;0.0;0.0;0.0;0.0;0.0;0.0;0.0;0.0;0.0;0.0;0.000304128708993
279496000000;109;279496000000;map;21.9027599963;-0.0909250804226;0.0;0.0;0.0;0.00323723413463;0.999994760144;3.26731992573e-08;-2.49183059053e-06;0.0;0.0;0.0;0.0;-2.49183059076e-06;0.00068112097128;0.0;0.0;0.0;0.0;0.0;0.0;0.0;0.0;0.0;0.0;0.0;0.0;0.0;0.0;0.0;0.0;0.0;0.0;0.0;0.0;0.0;0.0;0.0;0.0;0.0;0.0;0.0;0.000473623083877
279902000000;110;279902000000;map;22.1057983583;-0.100879678692;0.0;0.0;0.0;-0.0023732651116;0.999997183802;3.11252392748e-08;-8.29965399518e-07;0.0;0.0;0.0;0.0;-8.29965399518e-07;0.000773954150124;0.0;0.0;0.0;0.0;0.0;0.0;0.0;0.0;0.0;0.0;0.0;0.0;0.0;0.0;0.0;0.0;0.0;0.0;0.0;0.0;0.0;0.0;0.0;0.0;0.0;0.0;0.0;0.000334396757302
280303000000;111;280303000000;map;22.3062774913;-0.111878293808;0.0;0.0;0.0;-0.00544832794208;0.999985157751;2.27112764151e-08;-9.88792030476e-08;0.0;0.0;0.0;0.0;-9.88792034917e-08;0.000516734027946;0.0;0.0;0.0;0.0;0.0;0.0;0.0;0.0;0.0;0.0;0.0;0.0;0.0;0.0;0.0;0.0;0.0;0.0;0.0;0.0;0.0;0.0;0.0;0.0;0.0;0.0;0.0;0.000337126745854
280710000000;112;280710000000;map;22.5098045217;-0.11369544962;0.0;0.0;0.0;-0.00765913473588;0.999970668397;1.92108018382e-08;1.27877623379e-06;0.0;0.0;0.0;0.0;1.27877623379e-06;0.000304782252355;0.0;0.0;0.0;0.0;0.0;0.0;0.0;0.0;0.0;0.0;0.0;0.0;0.0;0.0;0.0;0.0;0.0;0.0;0.0;0.0;0.0;0.0;0.0;0.0;0.0;0.0;0.0;0.000251983381585
281113000000;113;281113000000;map;22.7111616039;-0.125004354483;0.0;0.0;0.0;-0.0105112904935;0.99994475486;8.56955466588e-08;6.61760763965e-06;0.0;0.0;0.0;0.0;6.6176076392e-06;0.000715273479071;0.0;0.0;0.0;0.0;0.0;0.0;0.0;0.0;0.0;0.0;0.0;0.0;0.0;0.0;0.0;0.0;0.0;0.0;0.0;0.0;0.0;0.0;0.0;0.0;0.0;0.0;0.0;0.000356468032939
281521000000;114;281521000000;map;22.9149762022;-0.137996331224;0.0;0.0;0.0;-0.0125975123162;0.999920648193;1.93880850929e-07;1.42922055808e-05;0.0;0.0;0.0;0.0;1.42922055808e-05;0.00120552656651;0.0;0.0;0.0;0.0;0.0;0.0;0.0;0.0;0.0;0.0;0.0;0.0;0.0;0.0;0.0;0.0;0.0;0.0;0.0;0.0;0.0;0.0;0.0;0.0;0.0;0.0;0.0;0.000322946553458
281926000000;115;281926000000;map;23.1173424845;-0.146946759465;0.0;0.0;0.0;-0.0125198158904;0.999921624034;3.25318637806e-07;2.11083222883e-05;0.0;0.0;0.0;0.0;2.11083222883e-05;0.00149926485447;0.0;0.0;0.0;0.0;0.0;0.0;0.0;0.0;0.0;0.0;0.0;0.0;0.0;0.0;0.0;0.0;0.0;0.0;0.0;0.0;0.0;0.0;0.0;0.0;0.0;0.0;0.0;0.000371886207804
282327000000;116;282327000000;map;23.3178060086;-0.149767729657;0.0;0.0;0.0;-0.0116033513752;0.999932678852;5.09966980644e-07;3.09550075892e-05;0.0;0.0;0.0;0.0;3.09550075892e-05;0.00200179828712;0.0;0.0;0.0;0.0;0.0;0.0;0.0;0.0;0.0;0.0;0.0;0.0;0.0;0.0;0.0;0.0;0.0;0.0;0.0;0.0;0.0;0.0;0.0;0.0;0.0;0.0;0.0;0.00044609418705
282730000000;117;282730000000;map;23.5192694275;-0.145656431367;0.0;0.0;0.0;-0.0109403744245;0.999940152313;7.67363985688e-07;4.40811375637e-05;0.0;0.0;0.0;0.0;4.40811375637e-05;0.00268841434893;0.0;0.0;0.0;0.0;0.0;0.0;0.0;0.0;0.0;0.0;0.0;0.0;0.0;0.0;0.0;0.0;0.0;0.0;0.0;0.0;0.0;0.0;0.0;0.0;0.0;0.0;0.0;0.000637187061912
283136000000;118;283136000000;map;23.7226617071;-0.119299708378;0.0;0.0;0.0;-0.00389587312044;0.999992411058;4.66518486064e-07;2.52895668433e-05;0.0;0.0;0.0;0.0;2.52895668433e-05;0.00158958250961;0.0;0.0;0.0;0.0;0.0;0.0;0.0;0.0;0.0;0.0;0.0;0.0;0.0;0.0;0.0;0.0;0.0;0.0;0.0;0.0;0.0;0.0;0.0;0.0;0.0;0.0;0.0;0.000360717858233
283537000000;119;283537000000;map;23.9233402094;-0.113093557348;0.0;0.0;0.0;-0.00209884577876;0.999997797421;7.07336766936e-09;1.47888767321e-06;0.0;0.0;0.0;0.0;1.47888767277e-06;0.000456497320402;0.0;0.0;0.0;0.0;0.0;0.0;0.0;0.0;0.0;0.0;0.0;0.0;0.0;0.0;0.0;0.0;0.0;0.0;0.0;0.0;0.0;0.0;0.0;0.0;0.0;0.0;0.0;0.000209608967353
283938000000;120;283938000000;map;24.1238067074;-0.112596485351;0.0;0.0;0.0;-0.0020550941623;0.999997888292;1.12414682008e-08;2.05964817379e-06;0.0;0.0;0.0;0.0;2.05964817424e-06;0.00063644545144;0.0;0.0;0.0;0.0;0.0;0.0;0.0;0.0;0.0;0.0;0.0;0.0;0.0;0.0;0.0;0.0;0.0;0.0;0.0;0.0;0.0;0.0;0.0;0.0;0.0;0.0;0.0;0.000263438853493
284339000000;121;284339000000;map;24.3242703581;-0.117642970538;0.0;0.0;0.0;-0.00378744336716;0.999992827611;1.65391611517e-08;2.56511771868e-06;0.0;0.0;0.0;0.0;2.56511771868e-06;0.00067474058953;0.0;0.0;0.0;0.0;0.0;0.0;0.0;0.0;0.0;0.0;0.0;0.0;0.0;0.0;0.0;0.0;0.0;0.0;0.0;0.0;0.0;0.0;0.0;0.0;0.0;0.0;0.0;0.000232611043638
284742000000;122;284742000000;map;24.5257333424;-0.116973256222;0.0;0.0;0.0;-0.00311518394662;0.999995147803;2.59090029431e-08;2.64060407895e-06;0.0;0.0;0.0;0.0;2.64060407851e-06;0.000797277633088;0.0;0.0;0.0;0.0;0.0;0.0;0.0;0.0;0.0;0.0;0.0;0.0;0.0;0.0;0.0;0.0;0.0;0.0;0.0;0.0;0.0;0.0;0.0;0.0;0.0;0.0;0.0;0.000332068866441
285161000000;123;285161000000;map;24.7351965922;-0.122260116627;0.0;0.0;0.0;-0.00702747990258;0.999975306958;3.61266074833e-08;3.70896616531e-06;0.0;0.0;0.0;0.0;3.70896616531e-06;0.00074955422709;0.0;0.0;0.0;0.0;0.0;0.0;0.0;0.0;0.0;0.0;0.0;0.0;0.0;0.0;0.0;0.0;0.0;0.0;0.0;0.0;0.0;0.0;0.0;0.0;0.0;0.0;0.0;0.000221888010891
285564000000;124;285564000000;map;24.9366582306;-0.118405365574;0.0;0.0;0.0;-0.00476741600418;0.999988635808;5.43770966033e-08;4.2526438353e-06;0.0;0.0;0.0;0.0;4.2526438353e-06;0.0012079865131;0.0;0.0;0.0;0.0;0.0;0.0;0.0;0.0;0.0;0.0;0.0;0.0;0.0;0.0;0.0;0.0;0.0;0.0;0.0;0.0;0.0;0.0;0.0;0.0;0.0;0.0;0.0;0.000366678397239
285974000000;125;285974000000;map;25.1416425746;-0.125240040021;0.0;0.0;0.0;-0.00646644436672;0.99997909233;7.43194732422e-08;8.77324849746e-06;0.0;0.0;0.0;0.0;8.77324849746e-06;0.0011148459065;0.0;0.0;0.0;0.0;0.0;0.0;0.0;0.0;0.0;0.0;0.0;0.0;0.0;0.0;0.0;0.0;0.0;0.0;0.0;0.0;0.0;0.0;0.0;0.0;0.0;0.0;0.0;0.000328379418997
286379000000;126;286379000000;map;25.3440600546;-0.131051406277;0.0;0.0;0.0;-0.00788440490558;0.999968917597;9.23664629227e-08;1.04612860876e-05;0.0;0.0;0.0;0.0;1.04612860876e-05;0.00127798227883;0.0;0.0;0.0;0.0;0.0;0.0;0.0;0.0;0.0;0.0;0.0;0.0;0.0;0.0;0.0;0.0;0.0;0.0;0.0;0.0;0.0;0.0;0.0;0.0;0.0;0.0;0.0;0.000331912776189
286800000000;127;286800000000;map;25.5544860072;-0.134520035741;0.0;0.0;0.0;-0.00997074351395;0.999950290901;1.30496573547e-07;1.38954793329e-05;0.0;0.0;0.0;0.0;1.38954793329e-05;0.00156930044215;0.0;0.0;0.0;0.0;0.0;0.0;0.0;0.0;0.0;0.0;0.0;0.0;0.0;0.0;0.0;0.0;0.0;0.0;0.0;0.0;0.0;0.0;0.0;0.0;0.0;0.0;0.0;0.00027842298713
287204000000;128;287204000000;map;25.7563547416;-0.14366557662;0.0;0.0;0.0;-0.00996481668009;0.999950349982;2.05348555937e-07;2.13819829731e-05;0.0;0.0;0.0;0.0;2.13819829731e-05;0.00237160156532;0.0;0.0;0.0;0.0;0.0;0.0;0.0;0.0;0.0;0.0;0.0;0.0;0.0;0.0;0.0;0.0;0.0;0.0;0.0;0.0;0.0;0.0;0.0;0.0;0.0;0.0;0.0;0.000271630900866
287605000000;129;287605000000;map;25.9566766943;-0.163345176714;0.0;0.0;0.0;-0.0113653292786;0.999935412559;2.12026293411e-07;1.94528195019e-05;0.0;0.0;0.0;0.0;1.94528195019e-05;0.00203148301935;0.0;0.0;0.0;0.0;0.0;0.0;0.0;0.0;0.0;0.0;0.0;0.0;0.0;0.0;0.0;0.0;0.0;0.0;0.0;0.0;0.0;0.0;0.0;0.0;0.0;0.0;0.0;0.000253511149471
288024000000;130;288024000000;map;26.1661729524;-0.16219418683;0.0;0.0;0.0;-0.0115635286307;0.999933140168;2.95234599434e-07;2.37331450821e-05;0.0;0.0;0.0;0.0;2.37331450821e-05;0.00207617800468;0.0;0.0;0.0;0.0;0.0;0.0;0.0;0.0;0.0;0.0;0.0;0.0;0.0;0.0;0.0;0.0;0.0;0.0;0.0;0.0;0.0;0.0;0.0;0.0;0.0;0.0;0.0;0.000309924035169
288427000000;131;288427000000;map;26.3675109037;-0.169599243478;0.0;0.0;0.0;-0.0129654863461;0.999915944549;4.0958207137e-07;2.98820751121e-05;0.0;0.0;0.0;0.0;2.98820751121e-05;0.00232690944876;0.0;0.0;0.0;0.0;0.0;0.0;0.0;0.0;0.0;0.0;0.0;0.0;0.0;0.0;0.0;0.0;0.0;0.0;0.0;0.0;0.0;0.0;0.0;0.0;0.0;0.0;0.0;0.000180359481519
288848000000;132;288848000000;map;26.5779285;-0.17789277174;0.0;0.0;0.0;-0.00979622156343;0.99995201587;4.97285213896e-07;3.46175254915e-05;0.0;0.0;0.0;0.0;3.46175254915e-05;0.0026664013635;0.0;0.0;0.0;0.0;0.0;0.0;0.0;0.0;0.0;0.0;0.0;0.0;0.0;0.0;0.0;0.0;0.0;0.0;0.0;0.0;0.0;0.0;0.0;0.0;0.0;0.0;0.0;0.000227444009519
289267000000;133;289267000000;map;26.7871536083;-0.19319432545;0.0;0.0;0.0;-0.00963235601813;0.999953607783;5.75964918426e-07;4.04725780285e-05;0.0;0.0;0.0;0.0;4.04725780294e-05;0.00296392262155;0.0;0.0;0.0;0.0;0.0;0.0;0.0;0.0;0.0;0.0;0.0;0.0;0.0;0.0;0.0;0.0;0.0;0.0;0.0;0.0;0.0;0.0;0.0;0.0;0.0;0.0;0.0;0.000133413091069
289673000000;134;289673000000;map;26.9900802655;-0.196821121889;0.0;0.0;0.0;-0.0108796404839;0.99994081496;5.73899114897e-07;4.15796972053e-05;0.0;0.0;0.0;0.0;4.15796972053e-05;0.00307022692409;0.0;0.0;0.0;0.0;0.0;0.0;0.0;0.0;0.0;0.0;0.0;0.0;0.0;0.0;0.0;0.0;0.0;0.0;0.0;0.0;0.0;0.0;0.0;0.0;0.0;0.0;0.0;8.74486717882e-05
290093000000;135;290093000000;map;27.2001995029;-0.189033088288;0.0;0.0;0.0;-0.00960398988322;0.999953880626;7.71505710873e-07;5.51567883953e-05;0.0;0.0;0.0;0.0;5.51567883953e-05;0.00403295320278;0.0;0.0;0.0;0.0;0.0;0.0;0.0;0.0;0.0;0.0;0.0;0.0;0.0;0.0;0.0;0.0;0.0;0.0;0.0;0.0;0.0;0.0;0.0;0.0;0.0;0.0;0.0;0.000141449783391
290495000000;136;290495000000;map;27.4010751372;-0.197408846263;0.0;0.0;0.0;-0.0106337087831;0.99994346052;9.77566060101e-07;6.60579372056e-05;0.0;0.0;0.0;0.0;6.60579372065e-05;0.00462285754059;0.0;0.0;0.0;0.0;0.0;0.0;0.0;0.0;0.0;0.0;0.0;0.0;0.0;0.0;0.0;0.0;0.0;0.0;0.0;0.0;0.0;0.0;0.0;0.0;0.0;0.0;0.0;0.000168478994535
290915000000;137;290915000000;map;27.6110953084;-0.19631091165;0.0;0.0;0.0;-0.0106879703851;0.999942882013;1.07498328816e-06;7.20140518231e-05;0.0;0.0;0.0;0.0;7.20140518231e-05;0.00499367749186;0.0;0.0;0.0;0.0;0.0;0.0;0.0;0.0;0.0;0.0;0.0;0.0;0.0;0.0;0.0;0.0;0.0;0.0;0.0;0.0;0.0;0.0;0.0;0.0;0.0;0.0;0.0;0.00014152653736
291330000000;138;291330000000;map;27.8188075848;-0.182111269461;0.0;0.0;0.0;-0.0112841875392;0.999936331529;1.03636079984e-06;7.32565004995e-05;0.0;0.0;0.0;0.0;7.32565004986e-05;0.00526343304848;0.0;0.0;0.0;0.0;0.0;0.0;0.0;0.0;0.0;0.0;0.0;0.0;0.0;0.0;0.0;0.0;0.0;0.0;0.0;0.0;0.0;0.0;0.0;0.0;0.0;0.0;0.0;0.000140289541862
291731000000;139;291731000000;map;28.0188400661;-0.214312801615;0.0;0.0;0.0;-0.0128494809332;0.999917442012;8.22170818537e-07;5.81398327411e-05;0.0;0.0;0.0;0.0;5.81398327419e-05;0.0042178316786;0.0;0.0;0.0;0.0;0.0;0.0;0.0;0.0;0.0;0.0;0.0;0.0;0.0;0.0;0.0;0.0;0.0;0.0;0.0;0.0;0.0;0.0;0.0;0.0;0.0;0.0;0.0;0.000270432341193
292134000000;140;292134000000;map;28.2201802101;-0.224108663785;0.0;0.0;0.0;-0.0147225656003;0.999891617158;8.6699037638e-07;5.85771914539e-05;0.0;0.0;0.0;0.0;5.85771914539e-05;0.00416305285026;0.0;0.0;0.0;0.0;0.0;0.0;0.0;0.0;0.0;0.0;0.0;0.0;0.0;0.0;0.0;0.0;0.0;0.0;0.0;0.0;0.0;0.0;0.0;0.0;0.0;0.0;0.0;0.000400265872835
292537000000;141;292537000000;map;28.4217916461;-0.214822296156;0.0;0.0;0.0;-0.0122511852224;0.999924951414;7.97803750174e-07;5.08806525792e-05;0.0;0.0;0.0;0.0;5.08806525792e-05;0.00358053007145;0.0;0.0;0.0;0.0;0.0;0.0;0.0;0.0;0.0;0.0;0.0;0.0;0.0;0.0;0.0;0.0;0.0;0.0;0.0;0.0;0.0;0.0;0.0;0.0;0.0;0.0;0.0;0.000396576318327
292945000000;142;292945000000;map;28.6253526953;-0.235106598406;0.0;0.0;0.0;-0.0149156618254;0.999888755328;9.96348035187e-07;6.74578928876e-05;0.0;0.0;0.0;0.0;6.74578928868e-05;0.00473402955511;0.0;0.0;0.0;0.0;0.0;0.0;0.0;0.0;0.0;0.0;0.0;0.0;0.0;0.0;0.0;0.0;0.0;0.0;0.0;0.0;0.0;0.0;0.0;0.0;0.0;0.0;0.0;0.000492112071904
293357000000;143;293357000000;map;28.8313468114;-0.236422722508;0.0;0.0;0.0;-0.0160029770523;0.999871944164;7.50067783883e-07;5.1764010796e-05;0.0;0.0;0.0;0.0;5.1764010796e-05;0.00378227213466;0.0;0.0;0.0;0.0;0.0;0.0;0.0;0.0;0.0;0.0;0.0;0.0;0.0;0.0;0.0;0.0;0.0;0.0;0.0;0.0;0.0;0.0;0.0;0.0;0.0;0.0;0.0;0.00027762031052
293777000000;144;293777000000;map;29.0410111789;-0.254598490409;0.0;0.0;0.0;-0.0184013687864;0.999830680479;4.11573296333e-07;2.63540372751e-05;0.0;0.0;0.0;0.0;2.63540372742e-05;0.00192990444555;0.0;0.0;0.0;0.0;0.0;0.0;0.0;0.0;0.0;0.0;0.0;0.0;0.0;0.0;0.0;0.0;0.0;0.0;0.0;0.0;0.0;0.0;0.0;0.0;0.0;0.0;0.0;0.000204765696321
294180000000;145;294180000000;map;29.2423746364;-0.257417404356;0.0;0.0;0.0;-0.0184491178049;0.999829800542;5.02755597154e-07;3.08249728667e-05;0.0;0.0;0.0;0.0;3.08249728667e-05;0.00215357279359;0.0;0.0;0.0;0.0;0.0;0.0;0.0;0.0;0.0;0.0;0.0;0.0;0.0;0.0;0.0;0.0;0.0;0.0;0.0;0.0;0.0;0.0;0.0;0.0;0.0;0.0;0.0;0.000291874803141
294582000000;146;294582000000;map;29.4430048745;-0.282681533393;0.0;0.0;0.0;-0.0151231944532;0.999885637955;8.82556605575e-08;2.86934236371e-06;0.0;0.0;0.0;0.0;2.86934236549e-06;0.000289627972824;0.0;0.0;0.0;0.0;0.0;0.0;0.0;0.0;0.0;0.0;0.0;0.0;0.0;0.0;0.0;0.0;0.0;0.0;0.0;0.0;0.0;0.0;0.0;0.0;0.0;0.0;0.0;0.000186184255326
295002000000;147;295002000000;map;29.652895696;-0.288580375626;0.0;0.0;0.0;-0.0154629857566;0.999880440889;1.11992108032e-07;3.21850513885e-06;0.0;0.0;0.0;0.0;3.21850513885e-06;0.000269000849876;0.0;0.0;0.0;0.0;0.0;0.0;0.0;0.0;0.0;0.0;0.0;0.0;0.0;0.0;0.0;0.0;0.0;0.0;0.0;0.0;0.0;0.0;0.0;0.0;0.0;0.0;0.0;0.000183814672895
295422000000;148;295422000000;map;29.8627444369;-0.296195679144;0.0;0.0;0.0;-0.0157797747733;0.999875491603;1.1859094684e-07;4.37702499134e-06;0.0;0.0;0.0;0.0;4.37702499134e-06;0.000338136386478;0.0;0.0;0.0;0.0;0.0;0.0;0.0;0.0;0.0;0.0;0.0;0.0;0.0;0.0;0.0;0.0;0.0;0.0;0.0;0.0;0.0;0.0;0.0;0.0;0.0;0.0;0.0;0.000163403902948
295823000000;149;295823000000;map;30.0631327559;-0.302997773364;0.0;0.0;0.0;-0.0151372281883;0.999885425598;1.49024003804e-07;5.03890772308e-06;0.0;0.0;0.0;0.0;5.03890772308e-06;0.000353539712106;0.0;0.0;0.0;0.0;0.0;0.0;0.0;0.0;0.0;0.0;0.0;0.0;0.0;0.0;0.0;0.0;0.0;0.0;0.0;0.0;0.0;0.0;0.0;0.0;0.0;0.0;0.0;0.000220215471844
296227000000;150;296227000000;map;30.2650371035;-0.307770236687;0.0;0.0;0.0;-0.0153523421275;0.999882145851;1.901972837e-07;5.76755829229e-06;0.0;0.0;0.0;0.0;5.76755829229e-06;0.000338930200317;0.0;0.0;0.0;0.0;0.0;0.0;0.0;0.0;0.0;0.0;0.0;0.0;0.0;0.0;0.0;0.0;0.0;0.0;0.0;0.0;0.0;0.0;0.0;0.0;0.0;0.0;0.0;0.000219645187872
296632000000;151;296632000000;map;30.4675057929;-0.310266280341;0.0;0.0;0.0;-0.0144918110545;0.999894988192;3.51254698217e-07;8.75926420996e-06;0.0;0.0;0.0;0.0;8.75926420996e-06;0.000335447531436;0.0;0.0;0.0;0.0;0.0;0.0;0.0;0.0;0.0;0.0;0.0;0.0;0.0;0.0;0.0;0.0;0.0;0.0;0.0;0.0;0.0;0.0;0.0;0.0;0.0;0.0;0.0;0.000345052587489
297040000000;152;297040000000;map;30.6713255469;-0.316815076984;0.0;0.0;0.0;-0.0172913920747;0.999850492704;5.00219584865e-07;1.23458219896e-05;0.0;0.0;0.0;0.0;1.23458219896e-05;0.000406487873462;0.0;0.0;0.0;0.0;0.0;0.0;0.0;0.0;0.0;0.0;0.0;0.0;0.0;0.0;0.0;0.0;0.0;0.0;0.0;0.0;0.0;0.0;0.0;0.0;0.0;0.0;0.0;0.000315275595361
297441000000;153;297441000000;map;30.8717624979;-0.317555927445;0.0;0.0;0.0;-0.0147309429356;0.999891493773;6.05564537182e-07;1.52617916314e-05;0.0;0.0;0.0;0.0;1.52617916349e-05;0.000436841837423;0.0;0.0;0.0;0.0;0.0;0.0;0.0;0.0;0.0;0.0;0.0;0.0;0.0;0.0;0.0;0.0;0.0;0.0;0.0;0.0;0.0;0.0;0.0;0.0;0.0;0.0;0.0;0.000364035622458
297844000000;154;297844000000;map;31.0732761214;-0.320696525307;0.0;0.0;0.0;-0.0135067887579;0.999908779168;7.04206513547e-07;1.77829653705e-05;0.0;0.0;0.0;0.0;1.77829653705e-05;0.000534264592301;0.0;0.0;0.0;0.0;0.0;0.0;0.0;0.0;0.0;0.0;0.0;0.0;0.0;0.0;0.0;0.0;0.0;0.0;0.0;0.0;0.0;0.0;0.0;0.0;0.0;0.0;0.0;0.000204593717695
298250000000;155;298250000000;map;31.2762879293;-0.324016089258;0.0;0.0;0.0;-0.0135890522534;0.999907664567;8.05395870884e-07;2.00907283627e-05;0.0;0.0;0.0;0.0;2.00907283627e-05;0.000606139956541;0.0;0.0;0.0;0.0;0.0;0.0;0.0;0.0;0.0;0.0;0.0;0.0;0.0;0.0;0.0;0.0;0.0;0.0;0.0;0.0;0.0;0.0;0.0;0.0;0.0;0.0;0.0;0.000236821156689
298660000000;156;298660000000;map;31.4810585643;-0.332408317529;0.0;0.0;0.0;-0.0133732048035;0.999910574698;9.4686254215e-07;2.57593209376e-05;0.0;0.0;0.0;0.0;2.57593209376e-05;0.000809386237581;0.0;0.0;0.0;0.0;0.0;0.0;0.0;0.0;0.0;0.0;0.0;0.0;0.0;0.0;0.0;0.0;0.0;0.0;0.0;0.0;0.0;0.0;0.0;0.0;0.0;0.0;0.0;0.000182914942501
299079000000;157;299079000000;map;31.6906087598;-0.336495098377;0.0;0.0;0.0;-0.0129722098778;0.999915857345;8.91557533578e-07;2.33456198675e-05;0.0;0.0;0.0;0.0;2.33456198657e-05;0.000720300736808;0.0;0.0;0.0;0.0;0.0;0.0;0.0;0.0;0.0;0.0;0.0;0.0;0.0;0.0;0.0;0.0;0.0;0.0;0.0;0.0;0.0;0.0;0.0;0.0;0.0;0.0;0.0;0.000198320880754
299479000000;158;299479000000;map;31.8904509508;-0.3448828305;0.0;0.0;0.0;-0.0151754084305;0.999884846859;8.6801821908e-07;2.32899648989e-05;0.0;0.0;0.0;0.0;2.32899648989e-05;0.000780726648292;0.0;0.0;0.0;0.0;0.0;0.0;0.0;0.0;0.0;0.0;0.0;0.0;0.0;0.0;0.0;0.0;0.0;0.0;0.0;0.0;0.0;0.0;0.0;0.0;0.0;0.0;0.0;0.000294342751186
299881000000;159;299881000000;map;32.0913844054;-0.347605206054;0.0;0.0;0.0;-0.0148409395913;0.999889867191;8.20124796519e-07;2.38054940755e-05;0.0;0.0;0.0;0.0;2.38054940755e-05;0.000866730370414;0.0;0.0;0.0;0.0;0.0;0.0;0.0;0.0;0.0;0.0;0.0;0.0;0.0;0.0;0.0;0.0;0.0;0.0;0.0;0.0;0.0;0.0;0.0;0.0;0.0;0.0;0.0;0.000307806461504
300300000000;160;300300000000;map;32.3007552527;-0.350376210457;0.0;0.0;0.0;-0.0145900098511;0.999893560142;8.20404693513e-07;2.81107947853e-05;0.0;0.0;0.0;0.0;2.81107947853e-05;0.00108895721876;0.0;0.0;0.0;0.0;0.0;0.0;0.0;0.0;0.0;0.0;0.0;0.0;0.0;0.0;0.0;0.0;0.0;0.0;0.0;0.0;0.0;0.0;0.0;0.0;0.0;0.0;0.0;0.000272348464265
300705000000;161;300705000000;map;32.5033153518;-0.346796663409;0.0;0.0;0.0;-0.0125720119757;0.999920969135;1.03273305285e-06;3.88806648388e-05;0.0;0.0;0.0;0.0;3.88806648388e-05;0.00167530685662;0.0;0.0;0.0;0.0;0.0;0.0;0.0;0.0;0.0;0.0;0.0;0.0;0.0;0.0;0.0;0.0;0.0;0.0;0.0;0.0;0.0;0.0;0.0;0.0;0.0;0.0;0.0;0.000386942872388
301108000000;162;301108000000;map;32.7046990365;-0.347684616568;0.0;0.0;0.0;-0.010623375881;0.99994357035;1.29305817609e-06;5.08735166971e-05;0.0;0.0;0.0;0.0;5.08735166971e-05;0.00212954999872;0.0;0.0;0.0;0.0;0.0;0.0;0.0;0.0;0.0;0.0;0.0;0.0;0.0;0.0;0.0;0.0;0.0;0.0;0.0;0.0;0.0;0.0;0.0;0.0;0.0;0.0;0.0;0.0004738950693
301515000000;163;301515000000;map;32.9081067025;-0.35341917811;0.0;0.0;0.0;-0.0130510626819;0.999914831255;1.47897185343e-06;5.53134135295e-05;0.0;0.0;0.0;0.0;5.53134135295e-05;0.00223327624842;0.0;0.0;0.0;0.0;0.0;0.0;0.0;0.0;0.0;0.0;0.0;0.0;0.0;0.0;0.0;0.0;0.0;0.0;0.0;0.0;0.0;0.0;0.0;0.0;0.0;0.0;0.0;0.000448217113535
301916000000;164;301916000000;map;33.1085651635;-0.351938035834;0.0;0.0;0.0;-0.0144383628441;0.999895761406;1.71158194462e-06;6.66586649967e-05;0.0;0.0;0.0;0.0;6.66586649949e-05;0.00284867285717;0.0;0.0;0.0;0.0;0.0;0.0;0.0;0.0;0.0;0.0;0.0;0.0;0.0;0.0;0.0;0.0;0.0;0.0;0.0;0.0;0.0;0.0;0.0;0.0;0.0;0.0;0.0;0.000457815275147
302326000000;165;302326000000;map;33.3136030602;-0.346109249509;0.0;0.0;0.0;-0.0129704358719;0.999915880359;2.46479521593e-06;8.90709322174e-05;0.0;0.0;0.0;0.0;8.90709322174e-05;0.00345832543178;0.0;0.0;0.0;0.0;0.0;0.0;0.0;0.0;0.0;0.0;0.0;0.0;0.0;0.0;0.0;0.0;0.0;0.0;0.0;0.0;0.0;0.0;0.0;0.0;0.0;0.0;0.0;0.000528822941891
302730000000;166;302730000000;map;33.5159114921;-0.333195617726;0.0;0.0;0.0;-0.0120584212752;0.999927294595;1.58771649694e-06;5.86060695174e-05;0.0;0.0;0.0;0.0;5.86060695174e-05;0.00237077074939;0.0;0.0;0.0;0.0;0.0;0.0;0.0;0.0;0.0;0.0;0.0;0.0;0.0;0.0;0.0;0.0;0.0;0.0;0.0;0.0;0.0;0.0;0.0;0.0;0.0;0.0;0.0;0.000271704378931
303132000000;167;303132000000;map;33.7170276676;-0.324369529946;0.0;0.0;0.0;-0.00960126931185;0.999953906752;2.17432466343e-06;7.67457540078e-05;0.0;0.0;0.0;0.0;7.67457540078e-05;0.00273999571611;0.0;0.0;0.0;0.0;0.0;0.0;0.0;0.0;0.0;0.0;0.0;0.0;0.0;0.0;0.0;0.0;0.0;0.0;0.0;0.0;0.0;0.0;0.0;0.0;0.0;0.0;0.0;0.000334241571922
303533000000;168;303533000000;map;33.9177213679;-0.319003786664;0.0;0.0;0.0;-0.00705038712458;0.999975145712;1.25827273223e-06;4.44856503368e-05;0.0;0.0;0.0;0.0;4.44856503368e-05;0.00158973576241;0.0;0.0;0.0;0.0;0.0;0.0;0.0;0.0;0.0;0.0;0.0;0.0;0.0;0.0;0.0;0.0;0.0;0.0;0.0;0.0;0.0;0.0;0.0;0.0;0.0;0.0;0.0;0.000264965771879
303952000000;169;303952000000;map;34.1274200362;-0.313948845041;0.0;0.0;0.0;-0.00570229596958;0.999983741778;4.57748683402e-08;1.71722970599e-06;0.0;0.0;0.0;0.0;1.71722970599e-06;7.80017352167e-05;0.0;0.0;0.0;0.0;0.0;0.0;0.0;0.0;0.0;0.0;0.0;0.0;0.0;0.0;0.0;0.0;0.0;0.0;0.0;0.0;0.0;0.0;0.0;0.0;0.0;0.0;0.0;0.000256726087276
304353000000;170;304353000000;map;34.3279408176;-0.313601841189;0.0;0.0;0.0;-0.00334717239715;0.999994398203;3.66567292076e-08;1.65065411295e-06;0.0;0.0;0.0;0.0;1.65065411295e-06;9.20378382821e-05;0.0;0.0;0.0;0.0;0.0;0.0;0.0;0.0;0.0;0.0;0.0;0.0;0.0;0.0;0.0;0.0;0.0;0.0;0.0;0.0;0.0;0.0;0.0;0.0;0.0;0.0;0.0;0.000191279429724
304754000000;171;304754000000;map;34.528349342;-0.318434189044;0.0;0.0;0.0;-0.00670122656268;0.999977546529;3.57392764272e-08;1.95529132618e-06;0.0;0.0;0.0;0.0;1.95529132796e-06;0.000130570093616;0.0;0.0;0.0;0.0;0.0;0.0;0.0;0.0;0.0;0.0;0.0;0.0;0.0;0.0;0.0;0.0;0.0;0.0;0.0;0.0;0.0;0.0;0.0;0.0;0.0;0.0;0.0;0.000280016795769
305162000000;172;305162000000;map;34.7322938187;-0.322162536796;0.0;0.0;0.0;-0.00568640211849;0.999983832285;4.11741893913e-08;2.33787823767e-06;0.0;0.0;0.0;0.0;2.33787823589e-06;0.000188194263696;0.0;0.0;0.0;0.0;0.0;0.0;0.0;0.0;0.0;0.0;0.0;0.0;0.0;0.0;0.0;0.0;0.0;0.0;0.0;0.0;0.0;0.0;0.0;0.0;0.0;0.0;0.0;0.000218583460666
305566000000;173;305566000000;map;34.9343172035;-0.323055345483;0.0;0.0;0.0;-0.00598139152001;0.999982111318;2.90747266263e-08;1.5195318106e-06;0.0;0.0;0.0;0.0;1.5195318106e-06;0.000177152968949;0.0;0.0;0.0;0.0;0.0;0.0;0.0;0.0;0.0;0.0;0.0;0.0;0.0;0.0;0.0;0.0;0.0;0.0;0.0;0.0;0.0;0.0;0.0;0.0;0.0;0.0;0.0;0.000166881588728
305967000000;174;305967000000;map;35.1347353172;-0.325787738352;0.0;0.0;0.0;-0.0056405999377;0.99998409169;3.59837031283e-08;1.39227672058e-06;0.0;0.0;0.0;0.0;1.39227672058e-06;0.000355352393459;0.0;0.0;0.0;0.0;0.0;0.0;0.0;0.0;0.0;0.0;0.0;0.0;0.0;0.0;0.0;0.0;0.0;0.0;0.0;0.0;0.0;0.0;0.0;0.0;0.0;0.0;0.0;0.000290551494345
306369000000;175;306369000000;map;35.3356103493;-0.333009316663;0.0;0.0;0.0;-0.00715122151775;0.999974429688;3.37029177899e-08;1.38082888768e-06;0.0;0.0;0.0;0.0;1.38082889123e-06;0.000483802413827;0.0;0.0;0.0;0.0;0.0;0.0;0.0;0.0;0.0;0.0;0.0;0.0;0.0;0.0;0.0;0.0;0.0;0.0;0.0;0.0;0.0;0.0;0.0;0.0;0.0;0.0;0.0;0.000240677268462
306775000000;176;306775000000;map;35.5385561974;-0.332159316351;0.0;0.0;0.0;-0.00470376240431;0.999988937248;3.23336735164e-08;6.3505981629e-07;0.0;0.0;0.0;0.0;6.3505981629e-07;0.000845078949756;0.0;0.0;0.0;0.0;0.0;0.0;0.0;0.0;0.0;0.0;0.0;0.0;0.0;0.0;0.0;0.0;0.0;0.0;0.0;0.0;0.0;0.0;0.0;0.0;0.0;0.0;0.0;0.000276958009934
307178000000;177;307178000000;map;35.7400264976;-0.333507915608;0.0;0.0;0.0;-0.00423236363025;0.999991043509;3.94647940993e-08;-5.29213881606e-08;0.0;0.0;0.0;0.0;-5.29213846079e-08;0.00104189952018;0.0;0.0;0.0;0.0;0.0;0.0;0.0;0.0;0.0;0.0;0.0;0.0;0.0;0.0;0.0;0.0;0.0;0.0;0.0;0.0;0.0;0.0;0.0;0.0;0.0;0.0;0.0;0.000377918142355
307597000000;178;307597000000;map;35.9494674185;-0.335977770462;0.0;0.0;0.0;-0.0026684855725;0.999996439586;4.20104697696e-08;-1.10023522559e-06;0.0;0.0;0.0;0.0;-1.10023522559e-06;0.00129746342759;0.0;0.0;0.0;0.0;0.0;0.0;0.0;0.0;0.0;0.0;0.0;0.0;0.0;0.0;0.0;0.0;0.0;0.0;0.0;0.0;0.0;0.0;0.0;0.0;0.0;0.0;0.0;0.000285125787246
308016000000;179;308016000000;map;36.158999079;-0.339905149409;0.0;0.0;0.0;-0.00334880055177;0.999994392752;5.21208676219e-08;-1.12855781076e-06;0.0;0.0;0.0;0.0;-1.12855781076e-06;0.00103240434338;0.0;0.0;0.0;0.0;0.0;0.0;0.0;0.0;0.0;0.0;0.0;0.0;0.0;0.0;0.0;0.0;0.0;0.0;0.0;0.0;0.0;0.0;0.0;0.0;0.0;0.0;0.0;0.000224869871627
308424000000;180;308424000000;map;36.3629407039;-0.348837381767;0.0;0.0;0.0;-0.00469492548062;0.999988978777;5.97840426053e-08;1.23564650956e-06;0.0;0.0;0.0;0.0;1.23564650956e-06;0.000689324450772;0.0;0.0;0.0;0.0;0.0;0.0;0.0;0.0;0.0;0.0;0.0;0.0;0.0;0.0;0.0;0.0;0.0;0.0;0.0;0.0;0.0;0.0;0.0;0.0;0.0;0.0;0.0;0.000231903816855
308825000000;181;308825000000;map;36.5634683591;-0.346928803969;0.0;0.0;0.0;-0.00327340175577;0.999994642406;6.49702087685e-08;4.70323874069e-07;0.0;0.0;0.0;0.0;4.70323874069e-07;0.000724999103255;0.0;0.0;0.0;0.0;0.0;0.0;0.0;0.0;0.0;0.0;0.0;0.0;0.0;0.0;0.0;0.0;0.0;0.0;0.0;0.0;0.0;0.0;0.0;0.0;0.0;0.0;0.0;0.000182283580594
310240000000;182;310240000000;map;36.738950079;-0.349215803187;0.0;0.0;0.0;0.120080943319;0.992764104434;6.58426415612e-08;2.5919201363e-07;0.0;0.0;0.0;0.0;2.5919201363e-07;0.000670167875371;0.0;0.0;0.0;0.0;0.0;0.0;0.0;0.0;0.0;0.0;0.0;0.0;0.0;0.0;0.0;0.0;0.0;0.0;0.0;0.0;0.0;0.0;0.0;0.0;0.0;0.0;0.0;0.000202171989037
311366000000;183;311366000000;map;36.7391848653;-0.346113755247;0.0;0.0;0.0;0.245635036032;0.969362382741;6.06225967203e-08;-6.288602723e-07;0.0;0.0;0.0;0.0;-6.288602723e-07;0.000584535970021;0.0;0.0;0.0;0.0;0.0;0.0;0.0;0.0;0.0;0.0;0.0;0.0;0.0;0.0;0.0;0.0;0.0;0.0;0.0;0.0;0.0;0.0;0.0;0.0;0.0;0.0;0.0;0.000213737992834
312476000000;184;312476000000;map;36.7392911522;-0.345805408318;0.0;0.0;0.0;0.363687199603;0.931521132796;5.92272044742e-08;-6.43562648506e-07;0.0;0.0;0.0;0.0;-6.43562648506e-07;0.000550981600638;0.0;0.0;0.0;0.0;0.0;0.0;0.0;0.0;0.0;0.0;0.0;0.0;0.0;0.0;0.0;0.0;0.0;0.0;0.0;0.0;0.0;0.0;0.0;0.0;0.0;0.0;0.0;0.000234392141715
313600000000;185;313600000000;map;36.7393149919;-0.338351653231;0.0;0.0;0.0;0.478289862882;0.878202030893;6.34693151369e-08;-4.59378595785e-06;0.0;0.0;0.0;0.0;-4.5937859543e-06;0.00126596531019;0.0;0.0;0.0;0.0;0.0;0.0;0.0;0.0;0.0;0.0;0.0;0.0;0.0;0.0;0.0;0.0;0.0;0.0;0.0;0.0;0.0;0.0;0.0;0.0;0.0;0.0;0.0;0.000514647824129
314663000000;186;314663000000;map;36.7393833284;-0.345983648712;0.0;0.0;0.0;0.58334958053;0.812221193331;4.21239292336e-08;-2.12512964026e-06;0.0;0.0;0.0;0.0;-2.12512964026e-06;0.000704002057575;0.0;0.0;0.0;0.0;0.0;0.0;0.0;0.0;0.0;0.0;0.0;0.0;0.0;0.0;0.0;0.0;0.0;0.0;0.0;0.0;0.0;0.0;0.0;0.0;0.0;0.0;0.0;0.000455193586356
315729000000;187;315729000000;map;36.7394122178;-0.345188065944;0.0;0.0;0.0;0.681051233242;0.732235766471;4.31382431998e-08;-2.47000997611e-06;0.0;0.0;0.0;0.0;-2.47000997611e-06;0.000772516180088;0.0;0.0;0.0;0.0;0.0;0.0;0.0;0.0;0.0;0.0;0.0;0.0;0.0;0.0;0.0;0.0;0.0;0.0;0.0;0.0;0.0;0.0;0.0;0.0;0.0;0.0;0.0;0.000549099081846
317058000000;188;317058000000;map;36.726518091;-0.134406943829;0.0;0.0;0.0;0.729253364138;0.684243765696;2.95491172437e-05;-0.000105847083353;0.0;0.0;0.0;0.0;-0.000105847083353;0.000858590898022;0.0;0.0;0.0;0.0;0.0;0.0;0.0;0.0;0.0;0.0;0.0;0.0;0.0;0.0;0.0;0.0;0.0;0.0;0.0;0.0;0.0;0.0;0.0;0.0;0.0;0.0;0.0;0.000669046474193
317479000000;189;317479000000;map;36.7141007914;0.0765741129107;0.0;0.0;0.0;0.72833506498;0.685221156358;0.000127557225596;-0.000229527732305;0.0;0.0;0.0;0.0;-0.000229527732305;0.000911727469489;0.0;0.0;0.0;0.0;0.0;0.0;0.0;0.0;0.0;0.0;0.0;0.0;0.0;0.0;0.0;0.0;0.0;0.0;0.0;0.0;0.0;0.0;0.0;0.0;0.0;0.0;0.0;0.000755377247571
