%time;field.header.seq;field.header.stamp;field.header.frame_id;field.pose.pose.position.x;field.pose.pose.position.y;field.pose.pose.position.z;field.pose.pose.orientation.x;field.pose.pose.orientation.y;field.pose.pose.orientation.z;field.pose.pose.orientation.w;field.pose.covariance0;field.pose.covariance1;field.pose.covariance2;field.pose.covariance3;field.pose.covariance4;field.pose.covariance5;field.pose.covariance6;field.pose.covariance7;field.pose.covariance8;field.pose.covariance9;field.pose.covariance10;field.pose.covariance11;field.pose.covariance12;field.pose.covariance13;field.pose.covariance14;field.pose.covariance15;field.pose.covariance16;field.pose.covariance17;field.pose.covariance18;field.pose.covariance19;field.pose.covariance20;field.pose.covariance21;field.pose.covariance22;field.pose.covariance23;field.pose.covariance24;field.pose.covariance25;field.pose.covariance26;field.pose.covariance27;field.pose.covariance28;field.pose.covariance29;field.pose.covariance30;field.pose.covariance31;field.pose.covariance32;field.pose.covariance33;field.pose.covariance34;field.pose.covariance35
246941000000;39;246941000000;map;5.74366986815;0.0202174270316;0.0;0.0;0.0;-0.000281745336931;0.99999996031;0.00476092919229;0.00113481339816;0.000949594803467;0.0;0.0;0.0;0.0;0.0;0.00017496209669;0.0;0.0;0.0;0.0;0.0;0.0;0.0;0.0;0.0;0.0;0.0;0.0;0.0;0.0;0.0;0.0;0.0;0.0;0.0;0.0;0.0;0.0;0.0;0.0;0.0;0.0;0.0
247144000000;40;247144000000;map;5.8454333262;0.0193360678677;0.0;0.0;0.0;-0.000139173120827;0.999999990315;0.00463520597992;0.00102340093674;0.00109163633982;0.0;0.0;0.0;0.0;0.0;0.000191444004422;0.0;0.0;0.0;0.0;0.0;0.0;0.0;0.0;0.0;0.0;0.0;0.0;0.0;0.0;0.0;0.0;0.0;0.0;0.0;0.0;0.0;0.0;0.0;0.0;0.0;0.0;0.0
247351000000;41;247351000000;map;5.95548333929;0.0166587096377;0.0;0.0;0.0;-0.000688175103101;0.999999763207;0.00464883477117;0.0011312458661;0.0012032255141;0.0;0.0;0.0;0.0;0.0;0.000205800419146;0.0;0.0;0.0;0.0;0.0;0.0;0.0;0.0;0.0;0.0;0.0;0.0;0.0;0.0;0.0;0.0;0.0;0.0;0.0;0.0;0.0;0.0;0.0;0.0;0.0;0.0;0.0
247549000000;42;247549000000;map;6.06537125345;0.0155010527033;0.0;0.0;0.0;-0.000728727790533;0.999999734478;0.0045912615754;0.000968999900212;0.00116583377093;0.0;0.0;0.0;0.0;0.0;0.000202807294763;0.0;0.0;0.0;0.0;0.0;0.0;0.0;0.0;0.0;0.0;0.0;0.0;0.0;0.0;0.0;0.0;0.0;0.0;0.0;0.0;0.0;0.0;0.0;0.0;0.0;0.0;0.0
247853000000;43;247853000000;map;6.17435197912;0.0145272760526;0.0;0.0;0.0;-0.00105811392559;0.999999440197;0.00469391280429;0.0010962484664;0.00111047990729;0.0;0.0;0.0;0.0;0.0;0.000186760186381;0.0;0.0;0.0;0.0;0.0;0.0;0.0;0.0;0.0;0.0;0.0;0.0;0.0;0.0;0.0;0.0;0.0;0.0;0.0;0.0;0.0;0.0;0.0;0.0;0.0;0.0;0.0
248048000000;44;248048000000;map;6.2978586792;0.0164621336196;0.0;0.0;0.0;-0.000703563329346;0.999999752499;0.00471138464179;0.0010429167502;0.0011475968996;0.0;0.0;0.0;0.0;0.0;0.000197459895686;0.0;0.0;0.0;0.0;0.0;0.0;0.0;0.0;0.0;0.0;0.0;0.0;0.0;0.0;0.0;0.0;0.0;0.0;0.0;0.0;0.0;0.0;0.0;0.0;0.0;0.0;0.0
248247000000;45;248247000000;map;6.40258036008;0.0167074631623;0.0;0.0;0.0;-0.00129212454623;0.999999165207;0.0044954096052;0.000926046689227;0.00111371046601;0.0;0.0;0.0;0.0;0.0;0.000182854225144;0.0;0.0;0.0;0.0;0.0;0.0;0.0;0.0;0.0;0.0;0.0;0.0;0.0;0.0;0.0;0.0;0.0;0.0;0.0;0.0;0.0;0.0;0.0;0.0;0.0;0.0;0.0
248450000000;46;248450000000;map;6.50681602034;0.0167882042799;0.0;0.0;0.0;-0.00126168244445;0.999999204078;0.00443864632028;0.000938959954158;0.00114506850634;0.0;0.0;0.0;0.0;0.0;0.000187940383929;0.0;0.0;0.0;0.0;0.0;0.0;0.0;0.0;0.0;0.0;0.0;0.0;0.0;0.0;0.0;0.0;0.0;0.0;0.0;0.0;0.0;0.0;0.0;0.0;0.0;0.0;0.0
248654000000;47;248654000000;map;6.61914083595;0.017316772793;0.0;0.0;0.0;-0.00179459211326;0.999998389718;0.00423680589878;0.000916453952644;0.00110532531354;0.0;0.0;0.0;0.0;0.0;0.000193496332057;0.0;0.0;0.0;0.0;0.0;0.0;0.0;0.0;0.0;0.0;0.0;0.0;0.0;0.0;0.0;0.0;0.0;0.0;0.0;0.0;0.0;0.0;0.0;0.0;0.0;0.0;0.0
248852212720;48;248852212720;map;6.72924800231;0.0179803291831;0.0;0.0;0.0;-0.00134843136971;0.999999090866;0.00425730249025;0.000792058570313;0.00103208658008;0.0;0.0;0.0;0.0;0.0;0.000187531167462;0.0;0.0;0.0;0.0;0.0;0.0;0.0;0.0;0.0;0.0;0.0;0.0;0.0;0.0;0.0;0.0;0.0;0.0;0.0;0.0;0.0;0.0;0.0;0.0;0.0;0.0;0.0
249053000000;49;249053000000;map;6.83644848792;0.0187174461224;0.0;0.0;0.0;-0.00103231758747;0.99999946716;0.0041203538098;0.000745818560804;0.00108244835169;0.0;0.0;0.0;0.0;0.0;0.000189246521868;0.0;0.0;0.0;0.0;0.0;0.0;0.0;0.0;0.0;0.0;0.0;0.0;0.0;0.0;0.0;0.0;0.0;0.0;0.0;0.0;0.0;0.0;0.0;0.0;0.0;0.0;0.0
249352000000;50;249352000000;map;6.99208731787;0.0221040529266;0.0;0.0;0.0;-0.000602900899;0.999999818255;0.00414478660476;0.000736289343232;0.00100416620441;0.0;0.0;0.0;0.0;0.0;0.000201264625737;0.0;0.0;0.0;0.0;0.0;0.0;0.0;0.0;0.0;0.0;0.0;0.0;0.0;0.0;0.0;0.0;0.0;0.0;0.0;0.0;0.0;0.0;0.0;0.0;0.0;0.0;0.0
249656000000;51;249656000000;map;7.10224743895;0.0211264778068;0.0;0.0;0.0;-0.000960437773099;0.99999953878;0.00406980236184;0.000527664192829;0.000972300821003;0.0;0.0;0.0;0.0;0.0;0.000202998588307;0.0;0.0;0.0;0.0;0.0;0.0;0.0;0.0;0.0;0.0;0.0;0.0;0.0;0.0;0.0;0.0;0.0;0.0;0.0;0.0;0.0;0.0;0.0;0.0;0.0;0.0;0.0
249848000000;52;249848000000;map;7.19838184002;0.022239379484;0.0;0.0;0.0;-0.000472727669684;0.999999888264;0.00407939578894;0.000527140113731;0.000851886785556;0.0;0.0;0.0;0.0;0.0;0.000191898507629;0.0;0.0;0.0;0.0;0.0;0.0;0.0;0.0;0.0;0.0;0.0;0.0;0.0;0.0;0.0;0.0;0.0;0.0;0.0;0.0;0.0;0.0;0.0;0.0;0.0;0.0;0.0
250051000000;53;250051000000;map;7.31060692165;0.0214865958677;0.0;0.0;0.0;-0.00027590970415;0.999999961937;0.00376972403596;0.000481200005749;0.000887863612246;0.0;0.0;0.0;0.0;0.0;0.000181762738654;0.0;0.0;0.0;0.0;0.0;0.0;0.0;0.0;0.0;0.0;0.0;0.0;0.0;0.0;0.0;0.0;0.0;0.0;0.0;0.0;0.0;0.0;0.0;0.0;0.0;0.0;0.0
250251000000;54;250251000000;map;7.41475307438;0.0210726670639;0.0;0.0;0.0;6.57812437311e-05;0.999999997836;0.00356141355378;0.000409140763532;0.000946666500934;0.0;0.0;0.0;0.0;0.0;0.00017471562942;0.0;0.0;0.0;0.0;0.0;0.0;0.0;0.0;0.0;0.0;0.0;0.0;0.0;0.0;0.0;0.0;0.0;0.0;0.0;0.0;0.0;0.0;0.0;0.0;0.0;0.0;0.0
250449000000;55;250449000000;map;7.52111666466;0.0203115250356;0.0;0.0;0.0;-8.72931338222e-05;0.99999999619;0.00364026542831;0.000421886589597;0.00105018390604;0.0;0.0;0.0;0.0;0.0;0.000177289620599;0.0;0.0;0.0;0.0;0.0;0.0;0.0;0.0;0.0;0.0;0.0;0.0;0.0;0.0;0.0;0.0;0.0;0.0;0.0;0.0;0.0;0.0;0.0;0.0;0.0;0.0;0.0
250654000000;56;250654000000;map;7.62584576572;0.0218500767192;0.0;0.0;0.0;-0.000422951636323;0.999999910556;0.00337727207622;0.000451214397384;0.00105429912594;0.0;0.0;0.0;0.0;0.0;0.000172087333956;0.0;0.0;0.0;0.0;0.0;0.0;0.0;0.0;0.0;0.0;0.0;0.0;0.0;0.0;0.0;0.0;0.0;0.0;0.0;0.0;0.0;0.0;0.0;0.0;0.0;0.0;0.0
250854000000;57;250854000000;map;7.73873461863;0.0242476556979;0.0;0.0;0.0;0.000198631504464;0.999999980273;0.00351358746761;0.000501372102537;0.00111635904463;0.0;0.0;0.0;0.0;0.0;0.000155009561371;0.0;0.0;0.0;0.0;0.0;0.0;0.0;0.0;0.0;0.0;0.0;0.0;0.0;0.0;0.0;0.0;0.0;0.0;0.0;0.0;0.0;0.0;0.0;0.0;0.0;0.0;0.0
251047000000;58;251047000000;map;7.83835758229;0.0236115123515;0.0;0.0;0.0;-7.06590544291e-05;0.999999997504;0.00372204830149;0.000442443876147;0.00118662552053;0.0;0.0;0.0;0.0;0.0;0.000161384688959;0.0;0.0;0.0;0.0;0.0;0.0;0.0;0.0;0.0;0.0;0.0;0.0;0.0;0.0;0.0;0.0;0.0;0.0;0.0;0.0;0.0;0.0;0.0;0.0;0.0;0.0;0.0
251249000000;59;251249000000;map;7.94765597123;0.0231349799649;0.0;0.0;0.0;-0.000203053003487;0.999999979385;0.00371696052142;0.000357348808381;0.00117941101403;0.0;0.0;0.0;0.0;0.0;0.000141143609397;0.0;0.0;0.0;0.0;0.0;0.0;0.0;0.0;0.0;0.0;0.0;0.0;0.0;0.0;0.0;0.0;0.0;0.0;0.0;0.0;0.0;0.0;0.0;0.0;0.0;0.0;0.0
251551000000;60;251551000000;map;8.05947526609;0.0252428500258;0.0;0.0;0.0;-9.27873221365e-05;0.999999995695;0.00340762210617;0.00028720361224;0.00107357648476;0.0;0.0;0.0;0.0;0.0;0.000134964942836;0.0;0.0;0.0;0.0;0.0;0.0;0.0;0.0;0.0;0.0;0.0;0.0;0.0;0.0;0.0;0.0;0.0;0.0;0.0;0.0;0.0;0.0;0.0;0.0;0.0;0.0;0.0
251754000000;61;251754000000;map;8.17219517682;0.0291096787089;0.0;0.0;0.0;0.000198743537596;0.999999980251;0.00330746408035;0.000303423540883;0.000957325332431;0.0;0.0;0.0;0.0;0.0;0.000119796835119;0.0;0.0;0.0;0.0;0.0;0.0;0.0;0.0;0.0;0.0;0.0;0.0;0.0;0.0;0.0;0.0;0.0;0.0;0.0;0.0;0.0;0.0;0.0;0.0;0.0;0.0;0.0
251944209102;62;251944209102;map;8.27341445257;0.029088503217;0.0;0.0;0.0;0.000133293900376;0.999999991116;0.00323604170354;0.00020544949406;0.000843217987409;0.0;0.0;0.0;0.0;0.0;9.69107616992e-05;0.0;0.0;0.0;0.0;0.0;0.0;0.0;0.0;0.0;0.0;0.0;0.0;0.0;0.0;0.0;0.0;0.0;0.0;0.0;0.0;0.0;0.0;0.0;0.0;0.0;0.0;0.0
252150810542;63;252150810542;map;8.38064057222;0.0270196034215;0.0;0.0;0.0;4.54360045881e-05;0.999999998968;0.00331108741179;0.000213151657056;0.000865192079555;0.0;0.0;0.0;0.0;0.0;9.72353168702e-05;0.0;0.0;0.0;0.0;0.0;0.0;0.0;0.0;0.0;0.0;0.0;0.0;0.0;0.0;0.0;0.0;0.0;0.0;0.0;0.0;0.0;0.0;0.0;0.0;0.0;0.0;0.0
252347000000;64;252347000000;map;8.49144658753;0.0237739410108;0.0;0.0;0.0;-0.000256196986835;0.999999967182;0.0034368939414;0.00010267038505;0.000958633170775;0.0;0.0;0.0;0.0;0.0;0.000106243597285;0.0;0.0;0.0;0.0;0.0;0.0;0.0;0.0;0.0;0.0;0.0;0.0;0.0;0.0;0.0;0.0;0.0;0.0;0.0;0.0;0.0;0.0;0.0;0.0;0.0;0.0;0.0
252552000000;65;252552000000;map;8.59448580726;0.0225971805142;0.0;0.0;0.0;-0.000156482001603;0.999999987757;0.0032926743384;-4.20839557802e-06;0.00102653555066;0.0;0.0;0.0;0.0;0.0;0.000109111204108;0.0;0.0;0.0;0.0;0.0;0.0;0.0;0.0;0.0;0.0;0.0;0.0;0.0;0.0;0.0;0.0;0.0;0.0;0.0;0.0;0.0;0.0;0.0;0.0;0.0;0.0;0.0
252752000000;66;252752000000;map;8.69584114244;0.0229167144378;0.0;0.0;0.0;-0.000384597597078;0.999999926042;0.00333659631556;-1.08364554166e-05;0.00107666232189;0.0;0.0;0.0;0.0;0.0;0.000100458166348;0.0;0.0;0.0;0.0;0.0;0.0;0.0;0.0;0.0;0.0;0.0;0.0;0.0;0.0;0.0;0.0;0.0;0.0;0.0;0.0;0.0;0.0;0.0;0.0;0.0;0.0;0.0
253048000000;67;253048000000;map;8.80616120535;0.0245819061472;0.0;0.0;0.0;-0.00049934665578;0.999999875326;0.0033171413701;1.78969974746e-05;0.00109221453122;0.0;0.0;0.0;0.0;0.0;0.000115388863845;0.0;0.0;0.0;0.0;0.0;0.0;0.0;0.0;0.0;0.0;0.0;0.0;0.0;0.0;0.0;0.0;0.0;0.0;0.0;0.0;0.0;0.0;0.0;0.0;0.0;0.0;0.0
253248000000;68;253248000000;map;8.9215397199;0.0251147262676;0.0;0.0;0.0;-0.000668177403178;0.999999776769;0.00301248544714;-5.8191617146e-06;0.00120458484654;0.0;0.0;0.0;0.0;0.0;0.000123394846739;0.0;0.0;0.0;0.0;0.0;0.0;0.0;0.0;0.0;0.0;0.0;0.0;0.0;0.0;0.0;0.0;0.0;0.0;0.0;0.0;0.0;0.0;0.0;0.0;0.0;0.0;0.0
253448000000;69;253448000000;map;9.03015034225;0.0238402857367;0.0;0.0;0.0;-0.000727421499014;0.999999735429;0.00326469057111;-0.000116259421063;0.00134111998126;0.0;0.0;0.0;0.0;0.0;0.000129534168492;0.0;0.0;0.0;0.0;0.0;0.0;0.0;0.0;0.0;0.0;0.0;0.0;0.0;0.0;0.0;0.0;0.0;0.0;0.0;0.0;0.0;0.0;0.0;0.0;0.0;0.0;0.0
253652000000;70;253652000000;map;9.13086520878;0.0231919558529;0.0;0.0;0.0;-0.000925945827621;0.999999571312;0.00332132513533;-0.000160345033553;0.00122132667744;0.0;0.0;0.0;0.0;0.0;0.000119554013095;0.0;0.0;0.0;0.0;0.0;0.0;0.0;0.0;0.0;0.0;0.0;0.0;0.0;0.0;0.0;0.0;0.0;0.0;0.0;0.0;0.0;0.0;0.0;0.0;0.0;0.0;0.0
253848000000;71;253848000000;map;9.23771316471;0.0228620839794;0.0;0.0;0.0;-0.000611824334171;0.999999812835;0.00324038421913;-0.000191307353451;0.00117566701439;0.0;0.0;0.0;0.0;0.0;0.000126927949767;0.0;0.0;0.0;0.0;0.0;0.0;0.0;0.0;0.0;0.0;0.0;0.0;0.0;0.0;0.0;0.0;0.0;0.0;0.0;0.0;0.0;0.0;0.0;0.0;0.0;0.0;0.0
254046000000;72;254046000000;map;9.34128158092;0.0217420702197;0.0;0.0;0.0;-0.000536347643744;0.999999856166;0.00304125013386;-0.000326768067672;0.00127701791791;0.0;0.0;0.0;0.0;0.0;0.00012729110874;0.0;0.0;0.0;0.0;0.0;0.0;0.0;0.0;0.0;0.0;0.0;0.0;0.0;0.0;0.0;0.0;0.0;0.0;0.0;0.0;0.0;0.0;0.0;0.0;0.0;0.0;0.0
254250000000;73;254250000000;map;9.45486828859;0.0191537216079;0.0;0.0;0.0;-0.000612936542228;0.999999812154;0.00257585046268;-0.000390122271816;0.00122758760926;0.0;0.0;0.0;0.0;0.0;0.00011076051534;0.0;0.0;0.0;0.0;0.0;0.0;0.0;0.0;0.0;0.0;0.0;0.0;0.0;0.0;0.0;0.0;0.0;0.0;0.0;0.0;0.0;0.0;0.0;0.0;0.0;0.0;0.0
254455000000;74;254455000000;map;9.56590495039;0.0184714692595;0.0;0.0;0.0;-0.000561797669083;0.999999842192;0.00266303351145;-0.000420192003958;0.00137892347217;0.0;0.0;0.0;0.0;0.0;0.000107891353868;0.0;0.0;0.0;0.0;0.0;0.0;0.0;0.0;0.0;0.0;0.0;0.0;0.0;0.0;0.0;0.0;0.0;0.0;0.0;0.0;0.0;0.0;0.0;0.0;0.0;0.0;0.0
254652000000;75;254652000000;map;9.66723118741;0.0162889829166;0.0;0.0;0.0;-0.000664196804348;0.999999779421;0.00247102934561;-0.000481754727314;0.00135309838015;0.0;0.0;0.0;0.0;0.0;9.66058078932e-05;0.0;0.0;0.0;0.0;0.0;0.0;0.0;0.0;0.0;0.0;0.0;0.0;0.0;0.0;0.0;0.0;0.0;0.0;0.0;0.0;0.0;0.0;0.0;0.0;0.0;0.0;0.0
254951000000;76;254951000000;map;9.77781238877;0.0147667795368;0.0;0.0;0.0;-0.000396503731478;0.999999921392;0.00264890401967;-0.000489877654594;0.00123658675301;0.0;0.0;0.0;0.0;0.0;9.60110505662e-05;0.0;0.0;0.0;0.0;0.0;0.0;0.0;0.0;0.0;0.0;0.0;0.0;0.0;0.0;0.0;0.0;0.0;0.0;0.0;0.0;0.0;0.0;0.0;0.0;0.0;0.0;0.0
255151000000;77;255151000000;map;9.87994555696;0.0146315271256;0.0;0.0;0.0;-0.0009233358145;0.999999573725;0.00228288259601;-0.000472649623161;0.00124239563894;0.0;0.0;0.0;0.0;0.0;0.000102781320439;0.0;0.0;0.0;0.0;0.0;0.0;0.0;0.0;0.0;0.0;0.0;0.0;0.0;0.0;0.0;0.0;0.0;0.0;0.0;0.0;0.0;0.0;0.0;0.0;0.0;0.0;0.0
255354000000;78;255354000000;map;9.98383654104;0.011194577479;0.0;0.0;0.0;-0.00106186506755;0.999999436221;0.00214550924213;-0.000517844977755;0.00131791977078;0.0;0.0;0.0;0.0;0.0;9.69336606043e-05;0.0;0.0;0.0;0.0;0.0;0.0;0.0;0.0;0.0;0.0;0.0;0.0;0.0;0.0;0.0;0.0;0.0;0.0;0.0;0.0;0.0;0.0;0.0;0.0;0.0;0.0;0.0
255552000000;79;255552000000;map;10.0876598867;0.00977394304426;0.0;0.0;0.0;-0.00126029931278;0.999999205823;0.00183871320188;-0.000460527393232;0.00134594806175;0.0;0.0;0.0;0.0;0.0;0.000105427530373;0.0;0.0;0.0;0.0;0.0;0.0;0.0;0.0;0.0;0.0;0.0;0.0;0.0;0.0;0.0;0.0;0.0;0.0;0.0;0.0;0.0;0.0;0.0;0.0;0.0;0.0;0.0
255751000000;80;255751000000;map;10.188507249;0.00654308722776;0.0;0.0;0.0;-0.000912369749718;0.999999583791;0.00215862837535;-0.000516524002663;0.00141637742482;0.0;0.0;0.0;0.0;0.0;0.00010477187821;0.0;0.0;0.0;0.0;0.0;0.0;0.0;0.0;0.0;0.0;0.0;0.0;0.0;0.0;0.0;0.0;0.0;0.0;0.0;0.0;0.0;0.0;0.0;0.0;0.0;0.0;0.0
255943000000;81;255943000000;map;10.2900021559;0.00497509837392;0.0;0.0;0.0;-0.000778077778973;0.999999697297;0.00218711050343;-0.000585986385918;0.00146710511938;0.0;0.0;0.0;0.0;0.0;0.000109634600609;0.0;0.0;0.0;0.0;0.0;0.0;0.0;0.0;0.0;0.0;0.0;0.0;0.0;0.0;0.0;0.0;0.0;0.0;0.0;0.0;0.0;0.0;0.0;0.0;0.0;0.0;0.0
256149000000;82;256149000000;map;10.3909219294;0.00518075368532;0.0;0.0;0.0;-0.00132472690542;0.999999122549;0.00189169486316;-0.000480524295154;0.00148968455041;0.0;0.0;0.0;0.0;0.0;0.000115937451937;0.0;0.0;0.0;0.0;0.0;0.0;0.0;0.0;0.0;0.0;0.0;0.0;0.0;0.0;0.0;0.0;0.0;0.0;0.0;0.0;0.0;0.0;0.0;0.0;0.0;0.0;0.0
256350000000;83;256350000000;map;10.4948447438;0.00685694091244;0.0;0.0;0.0;-0.00107656557856;0.999999420503;0.00186137039175;-0.000429675463461;0.00150041585011;0.0;0.0;0.0;0.0;0.0;0.000127448414788;0.0;0.0;0.0;0.0;0.0;0.0;0.0;0.0;0.0;0.0;0.0;0.0;0.0;0.0;0.0;0.0;0.0;0.0;0.0;0.0;0.0;0.0;0.0;0.0;0.0;0.0;0.0
256556000000;84;256556000000;map;10.6070852674;0.00976664590121;0.0;0.0;0.0;-0.000710106919656;0.999999747874;0.00175875440542;-0.000377811377904;0.00157253144773;0.0;0.0;0.0;0.0;0.0;0.000134162280633;0.0;0.0;0.0;0.0;0.0;0.0;0.0;0.0;0.0;0.0;0.0;0.0;0.0;0.0;0.0;0.0;0.0;0.0;0.0;0.0;0.0;0.0;0.0;0.0;0.0;0.0;0.0
256772000000;85;256772000000;map;10.7191017802;0.00623180849985;0.0;0.0;0.0;-0.000356573600871;0.999999936428;0.00150669688153;-0.00047389726139;0.00143516071932;0.0;0.0;0.0;0.0;0.0;0.000126075955656;0.0;0.0;0.0;0.0;0.0;0.0;0.0;0.0;0.0;0.0;0.0;0.0;0.0;0.0;0.0;0.0;0.0;0.0;0.0;0.0;0.0;0.0;0.0;0.0;0.0;0.0;0.0
256966000000;86;256966000000;map;10.8168315621;0.00786604981551;0.0;0.0;0.0;-0.000463241749027;0.999999892704;0.0015719873149;-0.000424402188108;0.00138008268563;0.0;0.0;0.0;0.0;0.0;0.000132624514172;0.0;0.0;0.0;0.0;0.0;0.0;0.0;0.0;0.0;0.0;0.0;0.0;0.0;0.0;0.0;0.0;0.0;0.0;0.0;0.0;0.0;0.0;0.0;0.0;0.0;0.0;0.0
257265000000;87;257265000000;map;10.927449315;0.00879304765873;0.0;0.0;0.0;-0.000754140655784;0.999999715636;0.0013812839088;-0.000233075473423;0.00140269527473;0.0;0.0;0.0;0.0;0.0;0.000148414583328;0.0;0.0;0.0;0.0;0.0;0.0;0.0;0.0;0.0;0.0;0.0;0.0;0.0;0.0;0.0;0.0;0.0;0.0;0.0;0.0;0.0;0.0;0.0;0.0;0.0;0.0;0.0
257465000000;88;257465000000;map;11.0319944081;0.00724148424595;0.0;0.0;0.0;-0.000929882030673;0.99999956766;0.00138642744584;-0.000152862731683;0.001384745306;0.0;0.0;0.0;0.0;0.0;0.000159254653534;0.0;0.0;0.0;0.0;0.0;0.0;0.0;0.0;0.0;0.0;0.0;0.0;0.0;0.0;0.0;0.0;0.0;0.0;0.0;0.0;0.0;0.0;0.0;0.0;0.0;0.0;0.0
257668904995;89;257668904995;map;11.1433078958;0.0086915867754;0.0;0.0;0.0;-0.00123312997659;0.999999239695;0.00149585254331;-8.52988856189e-05;0.00129385053029;0.0;0.0;0.0;0.0;0.0;0.000178777390879;0.0;0.0;0.0;0.0;0.0;0.0;0.0;0.0;0.0;0.0;0.0;0.0;0.0;0.0;0.0;0.0;0.0;0.0;0.0;0.0;0.0;0.0;0.0;0.0;0.0;0.0;0.0
257870000000;90;257870000000;map;11.255017202;0.00776306031032;0.0;0.0;0.0;-0.00131944598496;0.999999129531;0.00134629888345;-2.57816831308e-05;0.00135115201543;0.0;0.0;0.0;0.0;0.0;0.000169452236796;0.0;0.0;0.0;0.0;0.0;0.0;0.0;0.0;0.0;0.0;0.0;0.0;0.0;0.0;0.0;0.0;0.0;0.0;0.0;0.0;0.0;0.0;0.0;0.0;0.0;0.0;0.0
258063000000;91;258063000000;map;11.3554663135;0.00646870600687;0.0;0.0;0.0;-0.00103512412098;0.999999464259;0.00163165562276;-0.000145259068318;0.00135159807448;0.0;0.0;0.0;0.0;0.0;0.000144319896846;0.0;0.0;0.0;0.0;0.0;0.0;0.0;0.0;0.0;0.0;0.0;0.0;0.0;0.0;0.0;0.0;0.0;0.0;0.0;0.0;0.0;0.0;0.0;0.0;0.0;0.0;0.0
258268000000;92;258268000000;map;11.4602337001;0.00512876379363;0.0;0.0;0.0;-0.00133832405365;0.999999104444;0.0011061849236;-5.50909278745e-05;0.00149615338783;0.0;0.0;0.0;0.0;0.0;0.000153988900755;0.0;0.0;0.0;0.0;0.0;0.0;0.0;0.0;0.0;0.0;0.0;0.0;0.0;0.0;0.0;0.0;0.0;0.0;0.0;0.0;0.0;0.0;0.0;0.0;0.0;0.0;0.0
258459000000;93;258459000000;map;11.5688546081;0.00258354734796;0.0;0.0;0.0;-0.00137738153607;0.99999905141;0.000973541979363;-2.09632775647e-05;0.00133893336622;0.0;0.0;0.0;0.0;0.0;0.00014993647388;0.0;0.0;0.0;0.0;0.0;0.0;0.0;0.0;0.0;0.0;0.0;0.0;0.0;0.0;0.0;0.0;0.0;0.0;0.0;0.0;0.0;0.0;0.0;0.0;0.0;0.0;0.0
258670000000;94;258670000000;map;11.6720271748;-0.00179921759441;0.0;0.0;0.0;-0.00164975918512;0.999998639146;0.000948194065728;-9.71582535089e-05;0.00139942932665;0.0;0.0;0.0;0.0;0.0;0.000125926805403;0.0;0.0;0.0;0.0;0.0;0.0;0.0;0.0;0.0;0.0;0.0;0.0;0.0;0.0;0.0;0.0;0.0;0.0;0.0;0.0;0.0;0.0;0.0;0.0;0.0;0.0;0.0
258966000000;95;258966000000;map;11.7834456363;0.000977990073887;0.0;0.0;0.0;-0.000963905854075;0.999999535443;0.000980189114614;3.10134948807e-05;0.00130965742634;0.0;0.0;0.0;0.0;0.0;0.000137410583282;0.0;0.0;0.0;0.0;0.0;0.0;0.0;0.0;0.0;0.0;0.0;0.0;0.0;0.0;0.0;0.0;0.0;0.0;0.0;0.0;0.0;0.0;0.0;0.0;0.0;0.0;0.0
259168000000;96;259168000000;map;11.8863181565;0.00111226465886;0.0;0.0;0.0;-0.00113297608246;0.999999358182;0.000983707110976;2.63833248905e-05;0.00130610383485;0.0;0.0;0.0;0.0;0.0;0.000132729366328;0.0;0.0;0.0;0.0;0.0;0.0;0.0;0.0;0.0;0.0;0.0;0.0;0.0;0.0;0.0;0.0;0.0;0.0;0.0;0.0;0.0;0.0;0.0;0.0;0.0;0.0;0.0
259369419343;97;259369419343;map;11.9966522995;0.00089820228017;0.0;0.0;0.0;-0.00160752206415;0.999998707936;0.00104523865139;6.40216075079e-05;0.00124619034153;0.0;0.0;0.0;0.0;0.0;0.00013341791173;0.0;0.0;0.0;0.0;0.0;0.0;0.0;0.0;0.0;0.0;0.0;0.0;0.0;0.0;0.0;0.0;0.0;0.0;0.0;0.0;0.0;0.0;0.0;0.0;0.0;0.0;0.0
259567000000;98;259567000000;map;12.1005299004;-0.00230690502678;0.0;0.0;0.0;-0.0015888566979;0.999998737766;0.00103971683987;3.64932064099e-05;0.00144612251202;0.0;0.0;0.0;0.0;0.0;0.000119189359608;0.0;0.0;0.0;0.0;0.0;0.0;0.0;0.0;0.0;0.0;0.0;0.0;0.0;0.0;0.0;0.0;0.0;0.0;0.0;0.0;0.0;0.0;0.0;0.0;0.0;0.0;0.0
259771000000;99;259771000000;map;12.2119054278;-0.00649762310479;0.0;0.0;0.0;-0.00151665655571;0.999998849876;0.000986250447738;-5.283492723e-05;0.00148346220723;0.0;0.0;0.0;0.0;0.0;0.000118593563793;0.0;0.0;0.0;0.0;0.0;0.0;0.0;0.0;0.0;0.0;0.0;0.0;0.0;0.0;0.0;0.0;0.0;0.0;0.0;0.0;0.0;0.0;0.0;0.0;0.0;0.0;0.0
259968000000;100;259968000000;map;12.3167593929;-0.00338796209403;0.0;0.0;0.0;-0.00193785148076;0.999998122364;0.000914987292049;6.14534261484e-05;0.00146100840538;0.0;0.0;0.0;0.0;0.0;0.000119985248166;0.0;0.0;0.0;0.0;0.0;0.0;0.0;0.0;0.0;0.0;0.0;0.0;0.0;0.0;0.0;0.0;0.0;0.0;0.0;0.0;0.0;0.0;0.0;0.0;0.0;0.0;0.0
260170000000;101;260170000000;map;12.4279035253;-0.00600925093545;0.0;0.0;0.0;-0.00216731977721;0.99999765136;0.00085096291437;5.87234391635e-05;0.00138526306953;0.0;0.0;0.0;0.0;0.0;0.00013392468924;0.0;0.0;0.0;0.0;0.0;0.0;0.0;0.0;0.0;0.0;0.0;0.0;0.0;0.0;0.0;0.0;0.0;0.0;0.0;0.0;0.0;0.0;0.0;0.0;0.0;0.0;0.0
260368000000;102;260368000000;map;12.5391174228;-0.0059777212061;0.0;0.0;0.0;-0.00203008128179;0.999997939383;0.000797004274489;9.85253575584e-05;0.00142725821478;0.0;0.0;0.0;0.0;0.0;0.000146157261905;0.0;0.0;0.0;0.0;0.0;0.0;0.0;0.0;0.0;0.0;0.0;0.0;0.0;0.0;0.0;0.0;0.0;0.0;0.0;0.0;0.0;0.0;0.0;0.0;0.0;0.0;0.0
260571000000;103;260571000000;map;12.6424042883;-0.00508511846613;0.0;0.0;0.0;-0.000995363810352;0.999999504625;0.000751152669494;0.000164193018468;0.00154967397687;0.0;0.0;0.0;0.0;0.0;0.000166359477278;0.0;0.0;0.0;0.0;0.0;0.0;0.0;0.0;0.0;0.0;0.0;0.0;0.0;0.0;0.0;0.0;0.0;0.0;0.0;0.0;0.0;0.0;0.0;0.0;0.0;0.0;0.0
260765853834;104;260765853834;map;12.7459239649;-0.000844764417611;0.0;0.0;0.0;-0.000742926469;0.99999972403;0.000775229798194;0.000229420197949;0.00152690254968;0.0;0.0;0.0;0.0;0.0;0.000178717944632;0.0;0.0;0.0;0.0;0.0;0.0;0.0;0.0;0.0;0.0;0.0;0.0;0.0;0.0;0.0;0.0;0.0;0.0;0.0;0.0;0.0;0.0;0.0;0.0;0.0;0.0;0.0
261070000000;105;261070000000;map;12.8539754765;-0.0017228405126;0.0;0.0;0.0;-0.000872303241761;0.999999619543;0.000830771598714;0.000256587258204;0.00167332202144;0.0;0.0;0.0;0.0;0.0;0.000191725358096;0.0;0.0;0.0;0.0;0.0;0.0;0.0;0.0;0.0;0.0;0.0;0.0;0.0;0.0;0.0;0.0;0.0;0.0;0.0;0.0;0.0;0.0;0.0;0.0;0.0;0.0;0.0
261263000000;106;261263000000;map;12.9581735728;-0.00436840113082;0.0;0.0;0.0;-0.000652184228273;0.999999787328;0.000831994574469;0.000169565134257;0.0016338524917;0.0;0.0;0.0;0.0;0.0;0.000186046786107;0.0;0.0;0.0;0.0;0.0;0.0;0.0;0.0;0.0;0.0;0.0;0.0;0.0;0.0;0.0;0.0;0.0;0.0;0.0;0.0;0.0;0.0;0.0;0.0;0.0;0.0;0.0
261468000000;107;261468000000;map;13.0729749737;-0.00509103107199;0.0;0.0;0.0;-0.00126094623046;0.999999205007;0.00070089207847;0.000197991249979;0.00182161443156;0.0;0.0;0.0;0.0;0.0;0.000164301809836;0.0;0.0;0.0;0.0;0.0;0.0;0.0;0.0;0.0;0.0;0.0;0.0;0.0;0.0;0.0;0.0;0.0;0.0;0.0;0.0;0.0;0.0;0.0;0.0;0.0;0.0;0.0
261663000000;108;261663000000;map;13.1815328353;-0.00523821478595;0.0;0.0;0.0;-0.00184621681311;0.99999829574;0.000669395369101;0.000113243017063;0.00170288457247;0.0;0.0;0.0;0.0;0.0;0.000155182969824;0.0;0.0;0.0;0.0;0.0;0.0;0.0;0.0;0.0;0.0;0.0;0.0;0.0;0.0;0.0;0.0;0.0;0.0;0.0;0.0;0.0;0.0;0.0;0.0;0.0;0.0;0.0
261867000000;109;261867000000;map;13.2910819424;-0.00455188554658;0.0;0.0;0.0;-0.00132912143104;0.999999116718;0.000689521362858;0.000152977893877;0.00176526600679;0.0;0.0;0.0;0.0;0.0;0.000188071214499;0.0;0.0;0.0;0.0;0.0;0.0;0.0;0.0;0.0;0.0;0.0;0.0;0.0;0.0;0.0;0.0;0.0;0.0;0.0;0.0;0.0;0.0;0.0;0.0;0.0;0.0;0.0
262069000000;110;262069000000;map;13.3946889913;-0.00126838740089;0.0;0.0;0.0;-0.000445978075945;0.999999900552;0.000608710691722;0.000174096289175;0.00182928676008;0.0;0.0;0.0;0.0;0.0;0.000200246574802;0.0;0.0;0.0;0.0;0.0;0.0;0.0;0.0;0.0;0.0;0.0;0.0;0.0;0.0;0.0;0.0;0.0;0.0;0.0;0.0;0.0;0.0;0.0;0.0;0.0;0.0;0.0
262263000000;111;262263000000;map;13.4983246072;-0.00138650543816;0.0;0.0;0.0;-0.000716007281124;0.999999743667;0.000616956081359;0.000215088585901;0.00186859518561;0.0;0.0;0.0;0.0;0.0;0.000170367527961;0.0;0.0;0.0;0.0;0.0;0.0;0.0;0.0;0.0;0.0;0.0;0.0;0.0;0.0;0.0;0.0;0.0;0.0;0.0;0.0;0.0;0.0;0.0;0.0;0.0;0.0;0.0
262472000000;112;262472000000;map;13.6004987074;-0.00357637638307;0.0;0.0;0.0;0.000202616157996;0.999999979473;0.000484029533624;0.000162610697997;0.00207323158836;0.0;0.0;0.0;0.0;0.0;0.000188166013488;0.0;0.0;0.0;0.0;0.0;0.0;0.0;0.0;0.0;0.0;0.0;0.0;0.0;0.0;0.0;0.0;0.0;0.0;0.0;0.0;0.0;0.0;0.0;0.0;0.0;0.0;0.0
262661882814;113;262661882814;map;13.6995896932;-0.00318059773645;0.0;0.0;0.0;0.000740280854966;0.999999725992;0.000551860010205;9.16443686397e-05;0.00197650129196;0.0;0.0;0.0;0.0;0.0;0.00019027186071;0.0;0.0;0.0;0.0;0.0;0.0;0.0;0.0;0.0;0.0;0.0;0.0;0.0;0.0;0.0;0.0;0.0;0.0;0.0;0.0;0.0;0.0;0.0;0.0;0.0;0.0;0.0
262967808147;114;262967808147;map;13.810182475;-0.00670021766495;0.0;0.0;0.0;-0.000335135980021;0.999999943842;0.000531341432833;0.000128967200659;0.00195011895796;0.0;0.0;0.0;0.0;0.0;0.00014732898287;0.0;0.0;0.0;0.0;0.0;0.0;0.0;0.0;0.0;0.0;0.0;0.0;0.0;0.0;0.0;0.0;0.0;0.0;0.0;0.0;0.0;0.0;0.0;0.0;0.0;0.0;0.0
263167000000;115;263167000000;map;13.9098874534;-0.00827274080584;0.0;0.0;0.0;-0.000131996744003;0.999999991288;0.000575110485983;0.000122633099057;0.00190319596876;0.0;0.0;0.0;0.0;0.0;0.000138128016101;0.0;0.0;0.0;0.0;0.0;0.0;0.0;0.0;0.0;0.0;0.0;0.0;0.0;0.0;0.0;0.0;0.0;0.0;0.0;0.0;0.0;0.0;0.0;0.0;0.0;0.0;0.0
263370000000;116;263370000000;map;14.0108356972;-0.00578973877181;0.0;0.0;0.0;-0.000117052439088;0.999999993149;0.000595849389867;0.000156152561925;0.00200482266612;0.0;0.0;0.0;0.0;0.0;0.000158280093711;0.0;0.0;0.0;0.0;0.0;0.0;0.0;0.0;0.0;0.0;0.0;0.0;0.0;0.0;0.0;0.0;0.0;0.0;0.0;0.0;0.0;0.0;0.0;0.0;0.0;0.0;0.0
263566000000;117;263566000000;map;14.1139946193;-0.00464084413214;0.0;0.0;0.0;-0.000139170614868;0.999999990316;0.00051250952265;0.000188954803854;0.00221097488849;0.0;0.0;0.0;0.0;0.0;0.000166217090118;0.0;0.0;0.0;0.0;0.0;0.0;0.0;0.0;0.0;0.0;0.0;0.0;0.0;0.0;0.0;0.0;0.0;0.0;0.0;0.0;0.0;0.0;0.0;0.0;0.0;0.0;0.0
263768000000;118;263768000000;map;14.2226050902;-0.00388452480361;0.0;0.0;0.0;-0.000220425825006;0.999999975706;0.000608214354429;0.000259353954451;0.00223726020138;0.0;0.0;0.0;0.0;0.0;0.000167753148001;0.0;0.0;0.0;0.0;0.0;0.0;0.0;0.0;0.0;0.0;0.0;0.0;0.0;0.0;0.0;0.0;0.0;0.0;0.0;0.0;0.0;0.0;0.0;0.0;0.0;0.0;0.0
263968827573;119;263968827573;map;14.3321672648;-0.000174444703694;0.0;0.0;0.0;8.97202479294e-05;0.999999995975;0.00058090942062;0.000261336966754;0.00245629113801;0.0;0.0;0.0;0.0;0.0;0.000180271760459;0.0;0.0;0.0;0.0;0.0;0.0;0.0;0.0;0.0;0.0;0.0;0.0;0.0;0.0;0.0;0.0;0.0;0.0;0.0;0.0;0.0;0.0;0.0;0.0;0.0;0.0;0.0
264169000000;120;264169000000;map;14.433236398;0.00256972245702;0.0;0.0;0.0;0.000165624463257;0.999999986284;0.000570264587424;0.000266527806226;0.00250665233538;0.0;0.0;0.0;0.0;0.0;0.000168783312069;0.0;0.0;0.0;0.0;0.0;0.0;0.0;0.0;0.0;0.0;0.0;0.0;0.0;0.0;0.0;0.0;0.0;0.0;0.0;0.0;0.0;0.0;0.0;0.0;0.0;0.0;0.0
264366000000;121;264366000000;map;14.5330321592;0.00275866010559;0.0;0.0;0.0;0.000307175548867;0.999999952822;0.000573024546526;0.000307009365919;0.00271703286848;0.0;0.0;0.0;0.0;0.0;0.000190639698214;0.0;0.0;0.0;0.0;0.0;0.0;0.0;0.0;0.0;0.0;0.0;0.0;0.0;0.0;0.0;0.0;0.0;0.0;0.0;0.0;0.0;0.0;0.0;0.0;0.0;0.0;0.0
264572000000;122;264572000000;map;14.6354316544;0.000925988310433;0.0;0.0;0.0;0.000320897673593;0.999999948512;0.000522864360931;0.00023214201892;0.00249639659968;0.0;0.0;0.0;0.0;0.0;0.000156719013054;0.0;0.0;0.0;0.0;0.0;0.0;0.0;0.0;0.0;0.0;0.0;0.0;0.0;0.0;0.0;0.0;0.0;0.0;0.0;0.0;0.0;0.0;0.0;0.0;0.0;0.0;0.0
264765000000;123;264765000000;map;14.7461352729;0.00321504791044;0.0;0.0;0.0;0.000902208875534;0.999999593009;0.000508946591026;0.000202812329226;0.00257268708547;0.0;0.0;0.0;0.0;0.0;0.000161271960895;0.0;0.0;0.0;0.0;0.0;0.0;0.0;0.0;0.0;0.0;0.0;0.0;0.0;0.0;0.0;0.0;0.0;0.0;0.0;0.0;0.0;0.0;0.0;0.0;0.0;0.0;0.0
265068000000;124;265068000000;map;14.8563965282;0.00390362590693;0.0;0.0;0.0;0.000285943703078;0.999999959118;0.000476901924117;0.000269705914094;0.00267318602062;0.0;0.0;0.0;0.0;0.0;0.000161733696808;0.0;0.0;0.0;0.0;0.0;0.0;0.0;0.0;0.0;0.0;0.0;0.0;0.0;0.0;0.0;0.0;0.0;0.0;0.0;0.0;0.0;0.0;0.0;0.0;0.0;0.0;0.0
265166000000;125;265166000000;map;14.9567366797;0.00540855933646;0.0;0.0;0.0;2.78989272837e-05;0.999999999611;0.000543230325349;0.000361044861661;0.00269150350939;0.0;0.0;0.0;0.0;0.0;0.000149322254138;0.0;0.0;0.0;0.0;0.0;0.0;0.0;0.0;0.0;0.0;0.0;0.0;0.0;0.0;0.0;0.0;0.0;0.0;0.0;0.0;0.0;0.0;0.0;0.0;0.0;0.0;0.0
265466000000;126;265466000000;map;15.0634388714;0.00357174884967;0.0;0.0;0.0;0.000739455157635;0.999999726603;0.000507945428467;0.000330114545571;0.00278362291543;0.0;0.0;0.0;0.0;0.0;0.00018106407525;0.0;0.0;0.0;0.0;0.0;0.0;0.0;0.0;0.0;0.0;0.0;0.0;0.0;0.0;0.0;0.0;0.0;0.0;0.0;0.0;0.0;0.0;0.0;0.0;0.0;0.0;0.0
265667000000;127;265667000000;map;15.1701729195;0.00618661620426;0.0;0.0;0.0;0.000437341194691;0.999999904366;0.000504811466271;0.000349418780493;0.0029237696873;0.0;0.0;0.0;0.0;0.0;0.000177662087642;0.0;0.0;0.0;0.0;0.0;0.0;0.0;0.0;0.0;0.0;0.0;0.0;0.0;0.0;0.0;0.0;0.0;0.0;0.0;0.0;0.0;0.0;0.0;0.0;0.0;0.0;0.0
265868000000;128;265868000000;map;15.2723626633;0.00422356985647;0.0;0.0;0.0;0.000107478623269;0.999999994224;0.000603492985022;0.000348657724261;0.00302475831294;0.0;0.0;0.0;0.0;0.0;0.000175524421464;0.0;0.0;0.0;0.0;0.0;0.0;0.0;0.0;0.0;0.0;0.0;0.0;0.0;0.0;0.0;0.0;0.0;0.0;0.0;0.0;0.0;0.0;0.0;0.0;0.0;0.0;0.0
266072000000;129;266072000000;map;15.3758487051;0.00676882689905;0.0;0.0;0.0;0.000468741154641;0.999999890141;0.000577606004725;0.000320868261829;0.00311288361134;0.0;0.0;0.0;0.0;0.0;0.00018404269335;0.0;0.0;0.0;0.0;0.0;0.0;0.0;0.0;0.0;0.0;0.0;0.0;0.0;0.0;0.0;0.0;0.0;0.0;0.0;0.0;0.0;0.0;0.0;0.0;0.0;0.0;0.0
266272000000;130;266272000000;map;15.4790836893;0.00464096594265;0.0;0.0;0.0;0.000446315403002;0.999999900401;0.000569076880993;0.000234094447448;0.00304601731512;0.0;0.0;0.0;0.0;0.0;0.000174463214317;0.0;0.0;0.0;0.0;0.0;0.0;0.0;0.0;0.0;0.0;0.0;0.0;0.0;0.0;0.0;0.0;0.0;0.0;0.0;0.0;0.0;0.0;0.0;0.0;0.0;0.0;0.0
266473000000;131;266473000000;map;15.5802401243;0.00642506495839;0.0;0.0;0.0;0.000334545142177;0.99999994404;0.000579554047306;0.00025364476429;0.0030694047489;0.0;0.0;0.0;0.0;0.0;0.00017370905068;0.0;0.0;0.0;0.0;0.0;0.0;0.0;0.0;0.0;0.0;0.0;0.0;0.0;0.0;0.0;0.0;0.0;0.0;0.0;0.0;0.0;0.0;0.0;0.0;0.0;0.0;0.0
266666000000;132;266666000000;map;15.6905141996;0.00669000053928;0.0;0.0;0.0;0.000576320947772;0.999999833927;0.000571228736732;0.000270316009565;0.00260102961936;0.0;0.0;0.0;0.0;0.0;0.00016049732648;0.0;0.0;0.0;0.0;0.0;0.0;0.0;0.0;0.0;0.0;0.0;0.0;0.0;0.0;0.0;0.0;0.0;0.0;0.0;0.0;0.0;0.0;0.0;0.0;0.0;0.0;0.0
266866122876;133;266866122876;map;15.793088637;0.00643843654321;0.0;0.0;0.0;0.000458137093184;0.999999895055;0.000476370943659;0.000275015164103;0.00274266317926;0.0;0.0;0.0;0.0;0.0;0.000169226602631;0.0;0.0;0.0;0.0;0.0;0.0;0.0;0.0;0.0;0.0;0.0;0.0;0.0;0.0;0.0;0.0;0.0;0.0;0.0;0.0;0.0;0.0;0.0;0.0;0.0;0.0;0.0
267070405234;134;267070405234;map;15.8931551012;0.00761839420812;0.0;0.0;0.0;0.00106086662877;0.999999437281;0.000487527575501;0.000335786469096;0.00266309815172;0.0;0.0;0.0;0.0;0.0;0.000152449323299;0.0;0.0;0.0;0.0;0.0;0.0;0.0;0.0;0.0;0.0;0.0;0.0;0.0;0.0;0.0;0.0;0.0;0.0;0.0;0.0;0.0;0.0;0.0;0.0;0.0;0.0;0.0
267270000000;135;267270000000;map;16.0022537641;0.00955626814231;0.0;0.0;0.0;0.000935650601182;0.999999562279;0.000532413993881;0.000397332601925;0.00285128689443;0.0;0.0;0.0;0.0;0.0;0.000158872514862;0.0;0.0;0.0;0.0;0.0;0.0;0.0;0.0;0.0;0.0;0.0;0.0;0.0;0.0;0.0;0.0;0.0;0.0;0.0;0.0;0.0;0.0;0.0;0.0;0.0;0.0;0.0
267473000000;136;267473000000;map;16.1027319001;0.0122495375259;0.0;0.0;0.0;0.0012693079756;0.999999194428;0.000529526190633;0.000326917692881;0.00289200588441;0.0;0.0;0.0;0.0;0.0;0.000169523442942;0.0;0.0;0.0;0.0;0.0;0.0;0.0;0.0;0.0;0.0;0.0;0.0;0.0;0.0;0.0;0.0;0.0;0.0;0.0;0.0;0.0;0.0;0.0;0.0;0.0;0.0;0.0
267666000000;137;267666000000;map;16.2061739561;0.00792874816275;0.0;0.0;0.0;0.000586433760905;0.999999828048;0.000436283578892;0.000325486349605;0.00314288146176;0.0;0.0;0.0;0.0;0.0;0.000178388424174;0.0;0.0;0.0;0.0;0.0;0.0;0.0;0.0;0.0;0.0;0.0;0.0;0.0;0.0;0.0;0.0;0.0;0.0;0.0;0.0;0.0;0.0;0.0;0.0;0.0;0.0;0.0
267867000000;138;267867000000;map;16.3073565492;0.0125861695886;0.0;0.0;0.0;0.00105977758394;0.999999438436;0.000412213385914;0.0002947351418;0.00315233922751;0.0;0.0;0.0;0.0;0.0;0.000165395742401;0.0;0.0;0.0;0.0;0.0;0.0;0.0;0.0;0.0;0.0;0.0;0.0;0.0;0.0;0.0;0.0;0.0;0.0;0.0;0.0;0.0;0.0;0.0;0.0;0.0;0.0;0.0
268072000000;139;268072000000;map;16.4158810847;0.0161309594055;0.0;0.0;0.0;0.00131764942565;0.9999991319;0.00048576812577;0.000362404238232;0.00283408976557;0.0;0.0;0.0;0.0;0.0;0.000137665735044;0.0;0.0;0.0;0.0;0.0;0.0;0.0;0.0;0.0;0.0;0.0;0.0;0.0;0.0;0.0;0.0;0.0;0.0;0.0;0.0;0.0;0.0;0.0;0.0;0.0;0.0;0.0
268270000000;140;268270000000;map;16.5181712143;0.0198536164723;0.0;0.0;0.0;0.00172928062637;0.999998504793;0.000399440795093;0.000342168758401;0.00297374325672;0.0;0.0;0.0;0.0;0.0;0.000144480353809;0.0;0.0;0.0;0.0;0.0;0.0;0.0;0.0;0.0;0.0;0.0;0.0;0.0;0.0;0.0;0.0;0.0;0.0;0.0;0.0;0.0;0.0;0.0;0.0;0.0;0.0;0.0
268477548919;141;268477548919;map;16.6187147265;0.0144239874065;0.0;0.0;0.0;0.00145983981146;0.999998934433;0.000346530580259;0.0003224309668;0.00250797564541;0.0;0.0;0.0;0.0;0.0;0.000132525769348;0.0;0.0;0.0;0.0;0.0;0.0;0.0;0.0;0.0;0.0;0.0;0.0;0.0;0.0;0.0;0.0;0.0;0.0;0.0;0.0;0.0;0.0;0.0;0.0;0.0;0.0;0.0
268665000000;142;268665000000;map;16.7203850701;0.0219844029665;0.0;0.0;0.0;0.00182745760173;0.999998330198;0.000361709995957;0.000368776208439;0.0026488547378;0.0;0.0;0.0;0.0;0.0;0.000130607850444;0.0;0.0;0.0;0.0;0.0;0.0;0.0;0.0;0.0;0.0;0.0;0.0;0.0;0.0;0.0;0.0;0.0;0.0;0.0;0.0;0.0;0.0;0.0;0.0;0.0;0.0;0.0
268976000000;143;268976000000;map;16.8258459365;0.0214894545807;0.0;0.0;0.0;0.00127787770957;0.999999183514;0.000265481767997;0.000278284335056;0.00282767704381;0.0;0.0;0.0;0.0;0.0;0.000134060175228;0.0;0.0;0.0;0.0;0.0;0.0;0.0;0.0;0.0;0.0;0.0;0.0;0.0;0.0;0.0;0.0;0.0;0.0;0.0;0.0;0.0;0.0;0.0;0.0;0.0;0.0;0.0
269070000000;144;269070000000;map;16.9274355736;0.0240478145975;0.0;0.0;0.0;0.00159071310222;0.999998734815;0.000230936128048;0.000261201652743;0.00267555298368;0.0;0.0;0.0;0.0;0.0;0.000143314305766;0.0;0.0;0.0;0.0;0.0;0.0;0.0;0.0;0.0;0.0;0.0;0.0;0.0;0.0;0.0;0.0;0.0;0.0;0.0;0.0;0.0;0.0;0.0;0.0;0.0;0.0;0.0
269269000000;145;269269000000;map;17.0296480136;0.0242954523893;0.0;0.0;0.0;0.00160540638696;0.999998711334;0.000166431021398;0.000210262069235;0.00281562117626;0.0;0.0;0.0;0.0;0.0;0.000106903422553;0.0;0.0;0.0;0.0;0.0;0.0;0.0;0.0;0.0;0.0;0.0;0.0;0.0;0.0;0.0;0.0;0.0;0.0;0.0;0.0;0.0;0.0;0.0;0.0;0.0;0.0;0.0
269574000000;146;269574000000;map;17.1349135004;0.0217918481333;0.0;0.0;0.0;0.0014905678958;0.999998889103;0.000182525809578;0.000201658810188;0.00251087939183;0.0;0.0;0.0;0.0;0.0;9.71937490974e-05;0.0;0.0;0.0;0.0;0.0;0.0;0.0;0.0;0.0;0.0;0.0;0.0;0.0;0.0;0.0;0.0;0.0;0.0;0.0;0.0;0.0;0.0;0.0;0.0;0.0;0.0;0.0
269769000000;147;269769000000;map;17.2448694298;0.0217530992682;0.0;0.0;0.0;0.00136456096851;0.999999068986;0.0002250789193;0.000187723409829;0.00297643909563;0.0;0.0;0.0;0.0;0.0;0.000105704903458;0.0;0.0;0.0;0.0;0.0;0.0;0.0;0.0;0.0;0.0;0.0;0.0;0.0;0.0;0.0;0.0;0.0;0.0;0.0;0.0;0.0;0.0;0.0;0.0;0.0;0.0;0.0
269965000000;148;269965000000;map;17.3549094179;0.0167005826996;0.0;0.0;0.0;0.00081387901553;0.9999996688;0.000205992145084;0.000166536377518;0.00292586121386;0.0;0.0;0.0;0.0;0.0;0.000112440185097;0.0;0.0;0.0;0.0;0.0;0.0;0.0;0.0;0.0;0.0;0.0;0.0;0.0;0.0;0.0;0.0;0.0;0.0;0.0;0.0;0.0;0.0;0.0;0.0;0.0;0.0;0.0
270167000000;149;270167000000;map;17.4652048766;0.0188844149466;0.0;0.0;0.0;0.000917572483752;0.99999957903;0.000143123884754;0.000115855660251;0.00269637092637;0.0;0.0;0.0;0.0;0.0;0.000123952191763;0.0;0.0;0.0;0.0;0.0;0.0;0.0;0.0;0.0;0.0;0.0;0.0;0.0;0.0;0.0;0.0;0.0;0.0;0.0;0.0;0.0;0.0;0.0;0.0;0.0;0.0;0.0
270467000000;150;270467000000;map;17.5757155434;0.0198313371054;0.0;0.0;0.0;0.00104363236572;0.999999455416;0.000174727756644;0.000137701717194;0.00287188914158;0.0;0.0;0.0;0.0;0.0;0.000112821294297;0.0;0.0;0.0;0.0;0.0;0.0;0.0;0.0;0.0;0.0;0.0;0.0;0.0;0.0;0.0;0.0;0.0;0.0;0.0;0.0;0.0;0.0;0.0;0.0;0.0;0.0;0.0
270668000000;151;270668000000;map;17.6821423001;0.0130570199363;0.0;0.0;0.0;0.0014289013804;0.99999897912;0.000158157522549;0.000137589053071;0.00260127869653;0.0;0.0;0.0;0.0;0.0;9.38754081558e-05;0.0;0.0;0.0;0.0;0.0;0.0;0.0;0.0;0.0;0.0;0.0;0.0;0.0;0.0;0.0;0.0;0.0;0.0;0.0;0.0;0.0;0.0;0.0;0.0;0.0;0.0;0.0
270870000000;152;270870000000;map;17.7820389043;0.00892396109571;0.0;0.0;0.0;0.00142753411072;0.999998981073;0.000178498470973;0.000157913383273;0.00254975741922;0.0;0.0;0.0;0.0;0.0;0.000104693789304;0.0;0.0;0.0;0.0;0.0;0.0;0.0;0.0;0.0;0.0;0.0;0.0;0.0;0.0;0.0;0.0;0.0;0.0;0.0;0.0;0.0;0.0;0.0;0.0;0.0;0.0;0.0
271074000000;153;271074000000;map;17.8842817141;0.0081709993082;0.0;0.0;0.0;0.001152351723;0.999999336043;0.000108070542581;0.000139871082216;0.00283729846547;0.0;0.0;0.0;0.0;0.0;0.000137503355614;0.0;0.0;0.0;0.0;0.0;0.0;0.0;0.0;0.0;0.0;0.0;0.0;0.0;0.0;0.0;0.0;0.0;0.0;0.0;0.0;0.0;0.0;0.0;0.0;0.0;0.0;0.0
271268000000;154;271268000000;map;17.9842351559;0.00628598767326;0.0;0.0;0.0;0.000679242492437;0.999999769315;0.000129786286777;0.000182936654116;0.00303634225281;0.0;0.0;0.0;0.0;0.0;0.000118857627117;0.0;0.0;0.0;0.0;0.0;0.0;0.0;0.0;0.0;0.0;0.0;0.0;0.0;0.0;0.0;0.0;0.0;0.0;0.0;0.0;0.0;0.0;0.0;0.0;0.0;0.0;0.0
271468000000;155;271468000000;map;18.0935140908;0.00417781055497;0.0;0.0;0.0;0.000711370132832;0.999999746976;0.000114776282146;0.000144018205893;0.00278772094403;0.0;0.0;0.0;0.0;0.0;0.000128958557262;0.0;0.0;0.0;0.0;0.0;0.0;0.0;0.0;0.0;0.0;0.0;0.0;0.0;0.0;0.0;0.0;0.0;0.0;0.0;0.0;0.0;0.0;0.0;0.0;0.0;0.0;0.0
271672000000;156;271672000000;map;18.2017177404;0.00530823926426;0.0;0.0;0.0;0.000432217961418;0.999999906594;0.000115832551387;0.000149713560039;0.00280505461824;0.0;0.0;0.0;0.0;0.0;0.000114406513961;0.0;0.0;0.0;0.0;0.0;0.0;0.0;0.0;0.0;0.0;0.0;0.0;0.0;0.0;0.0;0.0;0.0;0.0;0.0;0.0;0.0;0.0;0.0;0.0;0.0;0.0;0.0
271868000000;157;271868000000;map;18.3116121459;0.00242802936447;0.0;0.0;0.0;0.000451047123404;0.999999898278;0.000119238039133;0.000148598546832;0.00268968895454;0.0;0.0;0.0;0.0;0.0;0.000120452275699;0.0;0.0;0.0;0.0;0.0;0.0;0.0;0.0;0.0;0.0;0.0;0.0;0.0;0.0;0.0;0.0;0.0;0.0;0.0;0.0;0.0;0.0;0.0;0.0;0.0;0.0;0.0
272066419254;158;272066419254;map;18.4165348551;-0.00435689433244;0.0;0.0;0.0;0.000583015035967;0.999999830047;0.000119904350299;0.000162588449886;0.00235871981259;0.0;0.0;0.0;0.0;0.0;0.000126009359255;0.0;0.0;0.0;0.0;0.0;0.0;0.0;0.0;0.0;0.0;0.0;0.0;0.0;0.0;0.0;0.0;0.0;0.0;0.0;0.0;0.0;0.0;0.0;0.0;0.0;0.0;0.0
272270000000;159;272270000000;map;18.5179048053;-0.00459376323082;0.0;0.0;0.0;0.000795910939909;0.999999683263;0.000109633461932;0.000153750312569;0.00223962073995;0.0;0.0;0.0;0.0;0.0;0.000137268787573;0.0;0.0;0.0;0.0;0.0;0.0;0.0;0.0;0.0;0.0;0.0;0.0;0.0;0.0;0.0;0.0;0.0;0.0;0.0;0.0;0.0;0.0;0.0;0.0;0.0;0.0;0.0
272474000000;160;272474000000;map;18.6181499199;-0.00161741263697;0.0;0.0;0.0;0.00115226677571;0.99999933614;9.67589961647e-05;0.000144556740343;0.0023540889568;0.0;0.0;0.0;0.0;0.0;0.000132206014951;0.0;0.0;0.0;0.0;0.0;0.0;0.0;0.0;0.0;0.0;0.0;0.0;0.0;0.0;0.0;0.0;0.0;0.0;0.0;0.0;0.0;0.0;0.0;0.0;0.0;0.0;0.0
272668000000;161;272668000000;map;18.7206809543;-0.00421160747734;0.0;0.0;0.0;0.00129990480208;0.999999155123;9.41422239862e-05;9.92639691445e-05;0.00228146716419;0.0;0.0;0.0;0.0;0.0;0.000143078066967;0.0;0.0;0.0;0.0;0.0;0.0;0.0;0.0;0.0;0.0;0.0;0.0;0.0;0.0;0.0;0.0;0.0;0.0;0.0;0.0;0.0;0.0;0.0;0.0;0.0;0.0;0.0
272966000000;162;272966000000;map;18.8226434383;-0.00195742387961;0.0;0.0;0.0;0.0014888077823;0.999998891725;9.33885373797e-05;5.53202359674e-05;0.00216896500044;0.0;0.0;0.0;0.0;0.0;0.000144846232843;0.0;0.0;0.0;0.0;0.0;0.0;0.0;0.0;0.0;0.0;0.0;0.0;0.0;0.0;0.0;0.0;0.0;0.0;0.0;0.0;0.0;0.0;0.0;0.0;0.0;0.0;0.0
273169000000;163;273169000000;map;18.9240319537;-0.0042942908696;0.0;0.0;0.0;0.00170482575512;0.999998546784;8.22121443775e-05;6.08325855661e-05;0.00191770447796;0.0;0.0;0.0;0.0;0.0;0.000143231233364;0.0;0.0;0.0;0.0;0.0;0.0;0.0;0.0;0.0;0.0;0.0;0.0;0.0;0.0;0.0;0.0;0.0;0.0;0.0;0.0;0.0;0.0;0.0;0.0;0.0;0.0;0.0
273367000000;164;273367000000;map;19.0269850113;-0.0047567199835;0.0;0.0;0.0;0.00150391807067;0.999998869115;7.71350041759e-05;5.60396178815e-05;0.00186488121848;0.0;0.0;0.0;0.0;0.0;0.000128397519725;0.0;0.0;0.0;0.0;0.0;0.0;0.0;0.0;0.0;0.0;0.0;0.0;0.0;0.0;0.0;0.0;0.0;0.0;0.0;0.0;0.0;0.0;0.0;0.0;0.0;0.0;0.0
273576000000;165;273576000000;map;19.1282962219;-0.0015267339203;0.0;0.0;0.0;0.00118745857054;0.999999294971;7.58160733767e-05;3.98323377944e-05;0.00188895479705;0.0;0.0;0.0;0.0;0.0;0.000122017875311;0.0;0.0;0.0;0.0;0.0;0.0;0.0;0.0;0.0;0.0;0.0;0.0;0.0;0.0;0.0;0.0;0.0;0.0;0.0;0.0;0.0;0.0;0.0;0.0;0.0;0.0;0.0
273768000000;166;273768000000;map;19.2380003244;-0.0022684143767;0.0;0.0;0.0;0.00113056527644;0.999999360911;6.71992992807e-05;4.11956924498e-05;0.00188019950407;0.0;0.0;0.0;0.0;0.0;0.000117582677551;0.0;0.0;0.0;0.0;0.0;0.0;0.0;0.0;0.0;0.0;0.0;0.0;0.0;0.0;0.0;0.0;0.0;0.0;0.0;0.0;0.0;0.0;0.0;0.0;0.0;0.0;0.0
273968000000;167;273968000000;map;19.3491308216;-0.00254306426091;0.0;0.0;0.0;0.000855597844706;0.999999633976;7.53299510166e-05;6.02700405187e-05;0.00184275294447;0.0;0.0;0.0;0.0;0.0;0.000104635308641;0.0;0.0;0.0;0.0;0.0;0.0;0.0;0.0;0.0;0.0;0.0;0.0;0.0;0.0;0.0;0.0;0.0;0.0;0.0;0.0;0.0;0.0;0.0;0.0;0.0;0.0;0.0
274174000000;168;274174000000;map;19.4584852609;-0.00577675700024;0.0;0.0;0.0;0.000968846708661;0.999999530668;6.92582955821e-05;9.19802964574e-05;0.0017121056909;0.0;0.0;0.0;0.0;0.0;0.000116253069258;0.0;0.0;0.0;0.0;0.0;0.0;0.0;0.0;0.0;0.0;0.0;0.0;0.0;0.0;0.0;0.0;0.0;0.0;0.0;0.0;0.0;0.0;0.0;0.0;0.0;0.0;0.0
274369000000;169;274369000000;map;19.5877755518;-0.00968731433611;0.0;0.0;0.0;0.000588745041271;0.99999982669;6.25884932788e-05;0.000151497745785;0.0016734951443;0.0;0.0;0.0;0.0;0.0;0.000138766431822;0.0;0.0;0.0;0.0;0.0;0.0;0.0;0.0;0.0;0.0;0.0;0.0;0.0;0.0;0.0;0.0;0.0;0.0;0.0;0.0;0.0;0.0;0.0;0.0;0.0;0.0;0.0
274663288830;170;274663288830;map;19.6920558854;-0.00940310333563;0.0;0.0;0.0;0.0010999684922;0.999999395034;6.95096647974e-05;0.000162145774464;0.00188224439289;0.0;0.0;0.0;0.0;0.0;0.000132664503875;0.0;0.0;0.0;0.0;0.0;0.0;0.0;0.0;0.0;0.0;0.0;0.0;0.0;0.0;0.0;0.0;0.0;0.0;0.0;0.0;0.0;0.0;0.0;0.0;0.0;0.0;0.0
274869000000;171;274869000000;map;19.7924201832;-0.0145438731213;0.0;0.0;0.0;0.000871767408819;0.999999620011;7.27881489979e-05;0.000177886633758;0.00133620912823;0.0;0.0;0.0;0.0;0.0;0.000137081442644;0.0;0.0;0.0;0.0;0.0;0.0;0.0;0.0;0.0;0.0;0.0;0.0;0.0;0.0;0.0;0.0;0.0;0.0;0.0;0.0;0.0;0.0;0.0;0.0;0.0;0.0;0.0
275069000000;172;275069000000;map;19.8921438918;-0.0164728128054;0.0;0.0;0.0;0.000989420299757;0.999999510524;6.97422169083e-05;0.000173674988243;0.00133466753885;0.0;0.0;0.0;0.0;0.0;0.00014923784654;0.0;0.0;0.0;0.0;0.0;0.0;0.0;0.0;0.0;0.0;0.0;0.0;0.0;0.0;0.0;0.0;0.0;0.0;0.0;0.0;0.0;0.0;0.0;0.0;0.0;0.0;0.0
275275000000;173;275275000000;map;19.993843953;-0.0184993395779;0.0;0.0;0.0;0.000614186133681;0.999999811388;7.17367252037e-05;0.000196136875901;0.00135155966308;0.0;0.0;0.0;0.0;0.0;0.000128876587752;0.0;0.0;0.0;0.0;0.0;0.0;0.0;0.0;0.0;0.0;0.0;0.0;0.0;0.0;0.0;0.0;0.0;0.0;0.0;0.0;0.0;0.0;0.0;0.0;0.0;0.0;0.0
275471733467;174;275471733467;map;20.1031779633;-0.0257580169217;0.0;0.0;0.0;0.000102788020578;0.999999994717;8.36639461568e-05;0.000200966037836;0.00124285506983;0.0;0.0;0.0;0.0;0.0;0.00014783315026;0.0;0.0;0.0;0.0;0.0;0.0;0.0;0.0;0.0;0.0;0.0;0.0;0.0;0.0;0.0;0.0;0.0;0.0;0.0;0.0;0.0;0.0;0.0;0.0;0.0;0.0;0.0
275670000000;175;275670000000;map;20.2040391114;-0.0265807940988;0.0;0.0;0.0;-0.000142435410047;0.999999989856;8.885198298e-05;0.000197211888445;0.00125408156662;0.0;0.0;0.0;0.0;0.0;0.000184656969652;0.0;0.0;0.0;0.0;0.0;0.0;0.0;0.0;0.0;0.0;0.0;0.0;0.0;0.0;0.0;0.0;0.0;0.0;0.0;0.0;0.0;0.0;0.0;0.0;0.0;0.0;0.0
275868000000;176;275868000000;map;20.3136926154;-0.0298339747316;0.0;0.0;0.0;-0.000488929749646;0.999999880474;9.96560214048e-05;0.000193818214218;0.00119739928702;0.0;0.0;0.0;0.0;0.0;0.000181090806628;0.0;0.0;0.0;0.0;0.0;0.0;0.0;0.0;0.0;0.0;0.0;0.0;0.0;0.0;0.0;0.0;0.0;0.0;0.0;0.0;0.0;0.0;0.0;0.0;0.0;0.0;0.0
276074000000;177;276074000000;map;20.4163028898;-0.0303592988825;0.0;0.0;0.0;-0.000783361904608;0.999999693172;0.000106380140721;0.000217277419806;0.00127376416868;0.0;0.0;0.0;0.0;0.0;0.000183288228842;0.0;0.0;0.0;0.0;0.0;0.0;0.0;0.0;0.0;0.0;0.0;0.0;0.0;0.0;0.0;0.0;0.0;0.0;0.0;0.0;0.0;0.0;0.0;0.0;0.0;0.0;0.0
276363000000;178;276363000000;map;20.5279214204;-0.0306298000146;0.0;0.0;0.0;-0.000625383051749;0.999999804448;0.000107633236041;0.000187003214002;0.00110234375335;0.0;0.0;0.0;0.0;0.0;0.000200392098231;0.0;0.0;0.0;0.0;0.0;0.0;0.0;0.0;0.0;0.0;0.0;0.0;0.0;0.0;0.0;0.0;0.0;0.0;0.0;0.0;0.0;0.0;0.0;0.0;0.0;0.0;0.0
276570000000;179;276570000000;map;20.6375039081;-0.034654834893;0.0;0.0;0.0;-0.000987374420477;0.999999512546;0.000112276447112;0.000233119085049;0.00117264368725;0.0;0.0;0.0;0.0;0.0;0.000152363285368;0.0;0.0;0.0;0.0;0.0;0.0;0.0;0.0;0.0;0.0;0.0;0.0;0.0;0.0;0.0;0.0;0.0;0.0;0.0;0.0;0.0;0.0;0.0;0.0;0.0;0.0;0.0
276769000000;180;276769000000;map;20.7400423357;-0.0377603172801;0.0;0.0;0.0;-0.00157184874303;0.999998764645;0.000123135065451;0.000232644259215;0.00102365834496;0.0;0.0;0.0;0.0;0.0;0.000115264312654;0.0;0.0;0.0;0.0;0.0;0.0;0.0;0.0;0.0;0.0;0.0;0.0;0.0;0.0;0.0;0.0;0.0;0.0;0.0;0.0;0.0;0.0;0.0;0.0;0.0;0.0;0.0
276969000000;181;276969000000;map;20.8415590485;-0.0414739883082;0.0;0.0;0.0;-0.00154995088751;0.999998798825;0.000139297524129;0.000249928297051;0.00101481077676;0.0;0.0;0.0;0.0;0.0;0.000136615545359;0.0;0.0;0.0;0.0;0.0;0.0;0.0;0.0;0.0;0.0;0.0;0.0;0.0;0.0;0.0;0.0;0.0;0.0;0.0;0.0;0.0;0.0;0.0;0.0;0.0;0.0;0.0
277166000000;182;277166000000;map;20.9496829918;-0.0451692809287;0.0;0.0;0.0;-0.00198852489947;0.999998022882;0.000147040632328;0.000282025458715;0.00104605570556;0.0;0.0;0.0;0.0;0.0;0.000136194353205;0.0;0.0;0.0;0.0;0.0;0.0;0.0;0.0;0.0;0.0;0.0;0.0;0.0;0.0;0.0;0.0;0.0;0.0;0.0;0.0;0.0;0.0;0.0;0.0;0.0;0.0;0.0
277366000000;183;277366000000;map;21.0604389217;-0.0434584666622;0.0;0.0;0.0;-0.00114280701145;0.999999346996;0.00013870108279;0.000274605279807;0.00108777911938;0.0;0.0;0.0;0.0;0.0;0.000123445583851;0.0;0.0;0.0;0.0;0.0;0.0;0.0;0.0;0.0;0.0;0.0;0.0;0.0;0.0;0.0;0.0;0.0;0.0;0.0;0.0;0.0;0.0;0.0;0.0;0.0;0.0;0.0
277571000000;184;277571000000;map;21.1676939845;-0.0409392303838;0.0;0.0;0.0;-0.00116568193157;0.999999320593;0.000137483442245;0.000270924994883;0.0011374977963;0.0;0.0;0.0;0.0;0.0;0.000122055081175;0.0;0.0;0.0;0.0;0.0;0.0;0.0;0.0;0.0;0.0;0.0;0.0;0.0;0.0;0.0;0.0;0.0;0.0;0.0;0.0;0.0;0.0;0.0;0.0;0.0;0.0;0.0
277768795077;185;277768795077;map;21.2703043954;-0.0443038733285;0.0;0.0;0.0;-0.000888394872085;0.999999605377;0.000139368070677;0.000279533995043;0.00107753495756;0.0;0.0;0.0;0.0;0.0;0.000102975458755;0.0;0.0;0.0;0.0;0.0;0.0;0.0;0.0;0.0;0.0;0.0;0.0;0.0;0.0;0.0;0.0;0.0;0.0;0.0;0.0;0.0;0.0;0.0;0.0;0.0;0.0;0.0
277966000000;186;277966000000;map;21.3800590408;-0.0468922780483;0.0;0.0;0.0;-0.001220712718;0.99999925493;0.000146245245276;0.000257079112425;0.000958512580406;0.0;0.0;0.0;0.0;0.0;0.000116703472826;0.0;0.0;0.0;0.0;0.0;0.0;0.0;0.0;0.0;0.0;0.0;0.0;0.0;0.0;0.0;0.0;0.0;0.0;0.0;0.0;0.0;0.0;0.0;0.0;0.0;0.0;0.0
278170000000;187;278170000000;map;21.4806902276;-0.0474407646455;0.0;0.0;0.0;-0.0010492856198;0.9999994495;0.000145169223117;0.000276288882341;0.00100364660816;0.0;0.0;0.0;0.0;0.0;0.000125128180513;0.0;0.0;0.0;0.0;0.0;0.0;0.0;0.0;0.0;0.0;0.0;0.0;0.0;0.0;0.0;0.0;0.0;0.0;0.0;0.0;0.0;0.0;0.0;0.0;0.0;0.0;0.0
278371000000;188;278371000000;map;21.5828905131;-0.0489753690333;0.0;0.0;0.0;-0.00119184271159;0.999999289755;0.00015385116717;0.000259878203213;0.00090061056498;0.0;0.0;0.0;0.0;0.0;0.000120952309688;0.0;0.0;0.0;0.0;0.0;0.0;0.0;0.0;0.0;0.0;0.0;0.0;0.0;0.0;0.0;0.0;0.0;0.0;0.0;0.0;0.0;0.0;0.0;0.0;0.0;0.0;0.0
278668000000;189;278668000000;map;21.6856003427;-0.0466867432841;0.0;0.0;0.0;-0.0009477615851;0.999999550874;0.000155020956129;0.000252974309179;0.000852252780481;0.0;0.0;0.0;0.0;0.0;0.00012673246067;0.0;0.0;0.0;0.0;0.0;0.0;0.0;0.0;0.0;0.0;0.0;0.0;0.0;0.0;0.0;0.0;0.0;0.0;0.0;0.0;0.0;0.0;0.0;0.0;0.0;0.0;0.0
278869000000;190;278869000000;map;21.7847191871;-0.0505708711079;0.0;0.0;0.0;-0.00139102685589;0.999999032522;0.000159959970972;0.000231612044707;0.000738637188636;0.0;0.0;0.0;0.0;0.0;0.000123660087192;0.0;0.0;0.0;0.0;0.0;0.0;0.0;0.0;0.0;0.0;0.0;0.0;0.0;0.0;0.0;0.0;0.0;0.0;0.0;0.0;0.0;0.0;0.0;0.0;0.0;0.0;0.0
279070000000;191;279070000000;map;21.8862647229;-0.0508017961997;0.0;0.0;0.0;-0.00205445432173;0.999997889606;0.000174232491247;0.000240241928053;0.000786923241797;0.0;0.0;0.0;0.0;0.0;0.000128994933767;0.0;0.0;0.0;0.0;0.0;0.0;0.0;0.0;0.0;0.0;0.0;0.0;0.0;0.0;0.0;0.0;0.0;0.0;0.0;0.0;0.0;0.0;0.0;0.0;0.0;0.0;0.0
279266000000;192;279266000000;map;21.9891991561;-0.0492131962807;0.0;0.0;0.0;-0.00208846383948;0.999997819157;0.000163824577669;0.00023049150146;0.000788417154789;0.0;0.0;0.0;0.0;0.0;0.000121062788946;0.0;0.0;0.0;0.0;0.0;0.0;0.0;0.0;0.0;0.0;0.0;0.0;0.0;0.0;0.0;0.0;0.0;0.0;0.0;0.0;0.0;0.0;0.0;0.0;0.0;0.0;0.0
279471000000;193;279471000000;map;22.0901674873;-0.0493588699102;0.0;0.0;0.0;-0.00191998764419;0.999998156822;0.000156366532337;0.000217746936899;0.000825688354306;0.0;0.0;0.0;0.0;0.0;0.000119561522191;0.0;0.0;0.0;0.0;0.0;0.0;0.0;0.0;0.0;0.0;0.0;0.0;0.0;0.0;0.0;0.0;0.0;0.0;0.0;0.0;0.0;0.0;0.0;0.0;0.0;0.0;0.0
279667000000;194;279667000000;map;22.2007554529;-0.0461668230158;0.0;0.0;0.0;-0.00168510937404;0.999998580202;0.000160453938236;0.000199388700974;0.00077205374353;0.0;0.0;0.0;0.0;0.0;0.000122319089962;0.0;0.0;0.0;0.0;0.0;0.0;0.0;0.0;0.0;0.0;0.0;0.0;0.0;0.0;0.0;0.0;0.0;0.0;0.0;0.0;0.0;0.0;0.0;0.0;0.0;0.0;0.0
279869000000;195;279869000000;map;22.3043204828;-0.0471823544785;0.0;0.0;0.0;-0.00146827577338;0.999998922083;0.000173222730211;0.000236478259515;0.000772933119698;0.0;0.0;0.0;0.0;0.0;0.000109279566124;0.0;0.0;0.0;0.0;0.0;0.0;0.0;0.0;0.0;0.0;0.0;0.0;0.0;0.0;0.0;0.0;0.0;0.0;0.0;0.0;0.0;0.0;0.0;0.0;0.0;0.0;0.0
280073000000;196;280073000000;map;22.4154835309;-0.0446744323432;0.0;0.0;0.0;-0.000469666463687;0.999999889707;0.000193318962715;0.000248791361877;0.000685383910643;0.0;0.0;0.0;0.0;0.0;8.85656118182e-05;0.0;0.0;0.0;0.0;0.0;0.0;0.0;0.0;0.0;0.0;0.0;0.0;0.0;0.0;0.0;0.0;0.0;0.0;0.0;0.0;0.0;0.0;0.0;0.0;0.0;0.0;0.0
280272000000;197;280272000000;map;22.5241249072;-0.0461166286944;0.0;0.0;0.0;-0.000229317640326;0.999999973707;0.000193637242432;0.000259584536824;0.000706579954845;0.0;0.0;0.0;0.0;0.0;8.6307459234e-05;0.0;0.0;0.0;0.0;0.0;0.0;0.0;0.0;0.0;0.0;0.0;0.0;0.0;0.0;0.0;0.0;0.0;0.0;0.0;0.0;0.0;0.0;0.0;0.0;0.0;0.0;0.0
280469000000;198;280469000000;map;22.6244827543;-0.0465533754265;0.0;0.0;0.0;-0.000134108788163;0.999999991007;0.000208309318282;0.000264251082056;0.000637387352863;0.0;0.0;0.0;0.0;0.0;6.53934472542e-05;0.0;0.0;0.0;0.0;0.0;0.0;0.0;0.0;0.0;0.0;0.0;0.0;0.0;0.0;0.0;0.0;0.0;0.0;0.0;0.0;0.0;0.0;0.0;0.0;0.0;0.0;0.0
280669000000;199;280669000000;map;22.7242286385;-0.0477526992472;0.0;0.0;0.0;-0.000643766427962;0.999999792782;0.000217281085384;0.000273962318739;0.000624136053691;0.0;0.0;0.0;0.0;0.0;7.33062144467e-05;0.0;0.0;0.0;0.0;0.0;0.0;0.0;0.0;0.0;0.0;0.0;0.0;0.0;0.0;0.0;0.0;0.0;0.0;0.0;0.0;0.0;0.0;0.0;0.0;0.0;0.0;0.0
280868000000;200;280868000000;map;22.8259826013;-0.0498927343942;0.0;0.0;0.0;-0.00100843243398;0.999999491532;0.000237643124478;0.000303594529898;0.000670037270528;0.0;0.0;0.0;0.0;0.0;9.11001696377e-05;0.0;0.0;0.0;0.0;0.0;0.0;0.0;0.0;0.0;0.0;0.0;0.0;0.0;0.0;0.0;0.0;0.0;0.0;0.0;0.0;0.0;0.0;0.0;0.0;0.0;0.0;0.0
281066000000;201;281066000000;map;22.9274060903;-0.0489761043249;0.0;0.0;0.0;-0.00039792827852;0.999999920827;0.000236286774111;0.000298100546964;0.00070740885331;0.0;0.0;0.0;0.0;0.0;9.88402911042e-05;0.0;0.0;0.0;0.0;0.0;0.0;0.0;0.0;0.0;0.0;0.0;0.0;0.0;0.0;0.0;0.0;0.0;0.0;0.0;0.0;0.0;0.0;0.0;0.0;0.0;0.0;0.0
281269000000;202;281269000000;map;23.0267586001;-0.0502865764849;0.0;0.0;0.0;-0.000361917170575;0.999999934508;0.000235014514487;0.000294367850606;0.000694701327537;0.0;0.0;0.0;0.0;0.0;9.08464911062e-05;0.0;0.0;0.0;0.0;0.0;0.0;0.0;0.0;0.0;0.0;0.0;0.0;0.0;0.0;0.0;0.0;0.0;0.0;0.0;0.0;0.0;0.0;0.0;0.0;0.0;0.0;0.0
281470000000;203;281470000000;map;23.1258966134;-0.051144184743;0.0;0.0;0.0;-0.000704798959219;0.999999751629;0.000253495263223;0.000337291477087;0.000784307932729;0.0;0.0;0.0;0.0;0.0;8.64477826185e-05;0.0;0.0;0.0;0.0;0.0;0.0;0.0;0.0;0.0;0.0;0.0;0.0;0.0;0.0;0.0;0.0;0.0;0.0;0.0;0.0;0.0;0.0;0.0;0.0;0.0;0.0;0.0
281669000000;204;281669000000;map;23.2313573126;-0.050673357323;0.0;0.0;0.0;-0.000950276850445;0.999999548487;0.000240501415647;0.000337116078758;0.000798284807761;0.0;0.0;0.0;0.0;0.0;0.000104088570528;0.0;0.0;0.0;0.0;0.0;0.0;0.0;0.0;0.0;0.0;0.0;0.0;0.0;0.0;0.0;0.0;0.0;0.0;0.0;0.0;0.0;0.0;0.0;0.0;0.0;0.0;0.0
281968265275;205;281968265275;map;23.3308830276;-0.0508786204518;0.0;0.0;0.0;-0.000569950906095;0.999999837578;0.000221913184873;0.000302780915729;0.000773414386787;0.0;0.0;0.0;0.0;0.0;7.70526388647e-05;0.0;0.0;0.0;0.0;0.0;0.0;0.0;0.0;0.0;0.0;0.0;0.0;0.0;0.0;0.0;0.0;0.0;0.0;0.0;0.0;0.0;0.0;0.0;0.0;0.0;0.0;0.0
282165000000;206;282165000000;map;23.4393757038;-0.05397871643;0.0;0.0;0.0;-0.000100887610336;0.999999994911;0.000244516576231;0.000302880468182;0.000678539740811;0.0;0.0;0.0;0.0;0.0;6.32267109153e-05;0.0;0.0;0.0;0.0;0.0;0.0;0.0;0.0;0.0;0.0;0.0;0.0;0.0;0.0;0.0;0.0;0.0;0.0;0.0;0.0;0.0;0.0;0.0;0.0;0.0;0.0;0.0
282366000000;207;282366000000;map;23.5387393735;-0.0544199508416;0.0;0.0;0.0;-0.000491763216993;0.999999879084;0.000220488380478;0.000300658461532;0.000656806474412;0.0;0.0;0.0;0.0;0.0;6.36964801465e-05;0.0;0.0;0.0;0.0;0.0;0.0;0.0;0.0;0.0;0.0;0.0;0.0;0.0;0.0;0.0;0.0;0.0;0.0;0.0;0.0;0.0;0.0;0.0;0.0;0.0;0.0;0.0
282564000000;208;282564000000;map;23.6404752512;-0.0531084138723;0.0;0.0;0.0;-0.000406832972767;0.999999917243;0.000252932017133;0.000335766905962;0.00076379346622;0.0;0.0;0.0;0.0;0.0;6.97801269164e-05;0.0;0.0;0.0;0.0;0.0;0.0;0.0;0.0;0.0;0.0;0.0;0.0;0.0;0.0;0.0;0.0;0.0;0.0;0.0;0.0;0.0;0.0;0.0;0.0;0.0;0.0;0.0
282769000000;209;282769000000;map;23.740994698;-0.0526614450105;0.0;0.0;0.0;0.000207189051593;0.999999978536;0.000253058812177;0.000374549432455;0.00076107052314;0.0;0.0;0.0;0.0;0.0;5.83325349355e-05;0.0;0.0;0.0;0.0;0.0;0.0;0.0;0.0;0.0;0.0;0.0;0.0;0.0;0.0;0.0;0.0;0.0;0.0;0.0;0.0;0.0;0.0;0.0;0.0;0.0;0.0;0.0
282963000000;210;282963000000;map;23.8477757311;-0.0518943244189;0.0;0.0;0.0;0.000876870594947;0.999999615549;0.000233231388961;0.000379038597172;0.00089281626336;0.0;0.0;0.0;0.0;0.0;5.81380968112e-05;0.0;0.0;0.0;0.0;0.0;0.0;0.0;0.0;0.0;0.0;0.0;0.0;0.0;0.0;0.0;0.0;0.0;0.0;0.0;0.0;0.0;0.0;0.0;0.0;0.0;0.0;0.0
283169000000;211;283169000000;map;23.9562618527;-0.0503468935583;0.0;0.0;0.0;0.00183895718368;0.999998309117;0.000244043008024;0.000380291601157;0.000884392493737;0.0;0.0;0.0;0.0;0.0;8.40584452748e-05;0.0;0.0;0.0;0.0;0.0;0.0;0.0;0.0;0.0;0.0;0.0;0.0;0.0;0.0;0.0;0.0;0.0;0.0;0.0;0.0;0.0;0.0;0.0;0.0;0.0;0.0;0.0
283369000000;212;283369000000;map;24.0642569366;-0.0509026257656;0.0;0.0;0.0;0.00202261760591;0.999997954507;0.000232584749028;0.000384395341654;0.000857573899139;0.0;0.0;0.0;0.0;0.0;7.20173444707e-05;0.0;0.0;0.0;0.0;0.0;0.0;0.0;0.0;0.0;0.0;0.0;0.0;0.0;0.0;0.0;0.0;0.0;0.0;0.0;0.0;0.0;0.0;0.0;0.0;0.0;0.0;0.0
283565000000;213;283565000000;map;24.1659648138;-0.0471913793405;0.0;0.0;0.0;0.00311735622156;0.999995141033;0.000217997156369;0.000374354849218;0.000808846183068;0.0;0.0;0.0;0.0;0.0;7.3768931699e-05;0.0;0.0;0.0;0.0;0.0;0.0;0.0;0.0;0.0;0.0;0.0;0.0;0.0;0.0;0.0;0.0;0.0;0.0;0.0;0.0;0.0;0.0;0.0;0.0;0.0;0.0;0.0
283767000000;214;283767000000;map;24.2652217989;-0.0465202514027;0.0;0.0;0.0;0.00343991805043;0.999994083464;0.000240778051761;0.000404877552551;0.000824130153952;0.0;0.0;0.0;0.0;0.0;7.36829796261e-05;0.0;0.0;0.0;0.0;0.0;0.0;0.0;0.0;0.0;0.0;0.0;0.0;0.0;0.0;0.0;0.0;0.0;0.0;0.0;0.0;0.0;0.0;0.0;0.0;0.0;0.0;0.0
283970000000;215;283970000000;map;24.3743358591;-0.0476738237367;0.0;0.0;0.0;0.00311385463393;0.999995151943;0.000253266469826;0.000427184749848;0.000890624724401;0.0;0.0;0.0;0.0;0.0;7.76039478277e-05;0.0;0.0;0.0;0.0;0.0;0.0;0.0;0.0;0.0;0.0;0.0;0.0;0.0;0.0;0.0;0.0;0.0;0.0;0.0;0.0;0.0;0.0;0.0;0.0;0.0;0.0;0.0
284271000000;216;284271000000;map;24.4836017516;-0.0496808634575;0.0;0.0;0.0;0.00252374329901;0.999996815355;0.000242856983277;0.000399297887368;0.000846073782707;0.0;0.0;0.0;0.0;0.0;0.000100010827529;0.0;0.0;0.0;0.0;0.0;0.0;0.0;0.0;0.0;0.0;0.0;0.0;0.0;0.0;0.0;0.0;0.0;0.0;0.0;0.0;0.0;0.0;0.0;0.0;0.0;0.0;0.0
284472000000;217;284472000000;map;24.5905237206;-0.0536053215666;0.0;0.0;0.0;0.00258123181437;0.999996668616;0.000290054788024;0.000452882125511;0.000836794732991;0.0;0.0;0.0;0.0;0.0;8.96997913188e-05;0.0;0.0;0.0;0.0;0.0;0.0;0.0;0.0;0.0;0.0;0.0;0.0;0.0;0.0;0.0;0.0;0.0;0.0;0.0;0.0;0.0;0.0;0.0;0.0;0.0;0.0;0.0
284664000000;218;284664000000;map;24.6896367678;-0.0536934210642;0.0;0.0;0.0;0.00205283602185;0.99999789293;0.000269442624926;0.000410970796846;0.000734813553201;0.0;0.0;0.0;0.0;0.0;7.57614548766e-05;0.0;0.0;0.0;0.0;0.0;0.0;0.0;0.0;0.0;0.0;0.0;0.0;0.0;0.0;0.0;0.0;0.0;0.0;0.0;0.0;0.0;0.0;0.0;0.0;0.0;0.0;0.0
284869000000;219;284869000000;map;24.7900558872;-0.0530703401914;0.0;0.0;0.0;0.00193151168439;0.99999813463;0.00025618769223;0.000397204084929;0.000722130074368;0.0;0.0;0.0;0.0;0.0;7.66797989403e-05;0.0;0.0;0.0;0.0;0.0;0.0;0.0;0.0;0.0;0.0;0.0;0.0;0.0;0.0;0.0;0.0;0.0;0.0;0.0;0.0;0.0;0.0;0.0;0.0;0.0;0.0;0.0
285076000000;220;285076000000;map;24.9322558295;-0.0544562294546;0.0;0.0;0.0;0.00169057729797;0.999998570973;0.000199268183792;0.000304410967206;0.000585020613886;0.0;0.0;0.0;0.0;0.0;0.000115527801623;0.0;0.0;0.0;0.0;0.0;0.0;0.0;0.0;0.0;0.0;0.0;0.0;0.0;0.0;0.0;0.0;0.0;0.0;0.0;0.0;0.0;0.0;0.0;0.0;0.0;0.0;0.0
285379000000;221;285379000000;map;25.0383615807;-0.053867722997;0.0;0.0;0.0;0.00139760804154;0.999999023345;0.000155699472657;0.00024301874736;0.000535367845767;0.0;0.0;0.0;0.0;0.0;9.36118837178e-05;0.0;0.0;0.0;0.0;0.0;0.0;0.0;0.0;0.0;0.0;0.0;0.0;0.0;0.0;0.0;0.0;0.0;0.0;0.0;0.0;0.0;0.0;0.0;0.0;0.0;0.0;0.0
285578000000;222;285578000000;map;25.139894627;-0.0544986231027;0.0;0.0;0.0;0.000982253475935;0.999999517589;0.000164346287875;0.00023604386755;0.000505369248814;0.0;0.0;0.0;0.0;0.0;0.000100204887361;0.0;0.0;0.0;0.0;0.0;0.0;0.0;0.0;0.0;0.0;0.0;0.0;0.0;0.0;0.0;0.0;0.0;0.0;0.0;0.0;0.0;0.0;0.0;0.0;0.0;0.0;0.0
285784000000;223;285784000000;map;25.2412468485;-0.0581895579161;0.0;0.0;0.0;0.000697726925401;0.999999756589;0.000133886664116;0.000178511099407;0.000416901159453;0.0;0.0;0.0;0.0;0.0;7.91567514624e-05;0.0;0.0;0.0;0.0;0.0;0.0;0.0;0.0;0.0;0.0;0.0;0.0;0.0;0.0;0.0;0.0;0.0;0.0;0.0;0.0;0.0;0.0;0.0;0.0;0.0;0.0;0.0
285981000000;224;285981000000;map;25.3433258454;-0.0581759446394;0.0;0.0;0.0;0.000811585226503;0.999999670665;0.000148787074068;0.000183804041859;0.000388788304717;0.0;0.0;0.0;0.0;0.0;9.17794116149e-05;0.0;0.0;0.0;0.0;0.0;0.0;0.0;0.0;0.0;0.0;0.0;0.0;0.0;0.0;0.0;0.0;0.0;0.0;0.0;0.0;0.0;0.0;0.0;0.0;0.0;0.0;0.0
286178000000;225;286178000000;map;25.4423230153;-0.0601987749303;0.0;0.0;0.0;0.000349691968293;0.999999938858;0.000117234012919;0.000108312905809;0.000265242959568;0.0;0.0;0.0;0.0;0.0;7.27481685215e-05;0.0;0.0;0.0;0.0;0.0;0.0;0.0;0.0;0.0;0.0;0.0;0.0;0.0;0.0;0.0;0.0;0.0;0.0;0.0;0.0;0.0;0.0;0.0;0.0;0.0;0.0;0.0
286377000000;226;286377000000;map;25.5446408609;-0.0611367896934;0.0;0.0;0.0;-0.000289063206222;0.999999958221;0.000112145772391;8.28280058243e-05;0.000208563691507;0.0;0.0;0.0;0.0;0.0;9.84287777983e-05;0.0;0.0;0.0;0.0;0.0;0.0;0.0;0.0;0.0;0.0;0.0;0.0;0.0;0.0;0.0;0.0;0.0;0.0;0.0;0.0;0.0;0.0;0.0;0.0;0.0;0.0;0.0
286575000000;227;286575000000;map;25.6459704251;-0.0612904745398;0.0;0.0;0.0;0.000331078086239;0.999999945194;0.000125839549582;8.17114493155e-05;0.000219832257061;0.0;0.0;0.0;0.0;0.0;0.000102709798127;0.0;0.0;0.0;0.0;0.0;0.0;0.0;0.0;0.0;0.0;0.0;0.0;0.0;0.0;0.0;0.0;0.0;0.0;0.0;0.0;0.0;0.0;0.0;0.0;0.0;0.0;0.0
286776000000;228;286776000000;map;25.7479314436;-0.0598985213955;0.0;0.0;0.0;8.47713525342e-05;0.999999996407;0.000115692344139;6.11068666792e-05;0.000191896489489;0.0;0.0;0.0;0.0;0.0;9.00999924964e-05;0.0;0.0;0.0;0.0;0.0;0.0;0.0;0.0;0.0;0.0;0.0;0.0;0.0;0.0;0.0;0.0;0.0;0.0;0.0;0.0;0.0;0.0;0.0;0.0;0.0;0.0;0.0
286976000000;229;286976000000;map;25.8486511717;-0.0581297430713;0.0;0.0;0.0;0.000209099761445;0.999999978139;0.000111859966523;4.82348369917e-05;0.000166151690164;0.0;0.0;0.0;0.0;0.0;9.24785425218e-05;0.0;0.0;0.0;0.0;0.0;0.0;0.0;0.0;0.0;0.0;0.0;0.0;0.0;0.0;0.0;0.0;0.0;0.0;0.0;0.0;0.0;0.0;0.0;0.0;0.0;0.0;0.0
