%time,field.header.seq,field.header.stamp,field.header.frame_id,field.child_frame_id,field.pose.pose.position.x,field.pose.pose.position.y,field.pose.pose.position.z,field.pose.pose.orientation.x,field.pose.pose.orientation.y,field.pose.pose.orientation.z,field.pose.pose.orientation.w,field.pose.covariance0,field.pose.covariance1,field.pose.covariance2,field.pose.covariance3,field.pose.covariance4,field.pose.covariance5,field.pose.covariance6,field.pose.covariance7,field.pose.covariance8,field.pose.covariance9,field.pose.covariance10,field.pose.covariance11,field.pose.covariance12,field.pose.covariance13,field.pose.covariance14,field.pose.covariance15,field.pose.covariance16,field.pose.covariance17,field.pose.covariance18,field.pose.covariance19,field.pose.covariance20,field.pose.covariance21,field.pose.covariance22,field.pose.covariance23,field.pose.covariance24,field.pose.covariance25,field.pose.covariance26,field.pose.covariance27,field.pose.covariance28,field.pose.covariance29,field.pose.covariance30,field.pose.covariance31,field.pose.covariance32,field.pose.covariance33,field.pose.covariance34,field.pose.covariance35,field.twist.twist.linear.x,field.twist.twist.linear.y,field.twist.twist.linear.z,field.twist.twist.angular.x,field.twist.twist.angular.y,field.twist.twist.angular.z,field.twist.covariance0,field.twist.covariance1,field.twist.covariance2,field.twist.covariance3,field.twist.covariance4,field.twist.covariance5,field.twist.covariance6,field.twist.covariance7,field.twist.covariance8,field.twist.covariance9,field.twist.covariance10,field.twist.covariance11,field.twist.covariance12,field.twist.covariance13,field.twist.covariance14,field.twist.covariance15,field.twist.covariance16,field.twist.covariance17,field.twist.covariance18,field.twist.covariance19,field.twist.covariance20,field.twist.covariance21,field.twist.covariance22,field.twist.covariance23,field.twist.covariance24,field.twist.covariance25,field.twist.covariance26,field.twist.covariance27,field.twist.covariance28,field.twist.covariance29,field.twist.covariance30,field.twist.covariance31,field.twist.covariance32,field.twist.covariance33,field.twist.covariance34,field.twist.covariance35
49480000000,2449,49480000000,odom,base_link,2.01483298327e-05,1.66317314863e-09,0.0,0.0,0.0,4.19033234795e-05,0.999999999122,2.45033151161,-2.77652712722e-14,0.0,0.0,0.0,-2.13408788668e-09,-2.77652712499e-14,2.45033151195,0.0,0.0,0.0,2.57423499319e-05,0.0,0.0,4.99791811249e-07,-3.89190060283e-30,-5.76316358128e-22,0.0,0.0,0.0,-3.89190060283e-30,4.99583911198e-07,8.19910609033e-37,0.0,0.0,0.0,-5.76316358128e-22,-8.19931083659e-37,4.99583911198e-07,0.0,-2.13408788668e-09,2.57423499319e-05,0.0,0.0,0.0,2.93880001139,2.49676098559e-07,0.0,0.0,0.0,0.0,-1.37762141591e-07,0.00102524672117,0.0,0.0,0.0,0.0,0.0,0.0,0.00102524672117,0.0,0.0,0.0,0.0,0.0,0.0,4.9968782518e-07,-1.32997184975e-35,-1.58695257243e-31,0.0,0.0,0.0,-1.32997184975e-35,4.98755183289e-07,6.64031423876e-39,0.0,0.0,0.0,-1.58695257243e-31,-6.64031423876e-39,4.98755183289e-07,0.0,0.0,0.0,0.0,0.0,0.0,9.99957501812e-10
49500000000,2450,49500000000,odom,base_link,2.01533355599e-05,1.66359266161e-09,0.0,0.0,0.0,4.19019458708e-05,0.999999999122,2.45133196161,-2.77867307583e-14,0.0,0.0,0.0,-2.1353191115e-09,-2.77867307359e-14,2.45133196195,0.0,0.0,0.0,2.57570411869e-05,0.0,0.0,4.99791811249e-07,1.58997239249e-30,-5.77071839793e-22,0.0,0.0,0.0,1.58997239249e-30,4.99583911198e-07,-5.47101594717e-37,0.0,0.0,0.0,-5.77071839793e-22,5.47110418275e-37,4.99583911198e-07,0.0,-2.1353191115e-09,2.57570411869e-05,0.0,0.0,0.0,2.94000001139,2.5000472988e-07,0.0,0.0,0.0,0.0,3.6664326119e-07,0.00102524672071,0.0,0.0,0.0,0.0,0.0,0.0,0.00102524672071,0.0,0.0,0.0,0.0,0.0,0.0,4.9968782518e-07,-1.33167150094e-35,-1.58903287704e-31,0.0,0.0,0.0,-1.33167150094e-35,4.98755183289e-07,6.15921364236e-39,0.0,0.0,0.0,-1.58903287704e-31,-6.15921364236e-39,4.98755183289e-07,0.0,0.0,0.0,0.0,0.0,0.0,9.99957501812e-10
49520000000,2451,49520000000,odom,base_link,2.01583477339e-05,1.6640127011e-09,0.0,0.0,0.0,4.19056122915e-05,0.999999999122,2.45233241161,-2.78082302924e-14,0.0,0.0,0.0,-2.1365524095e-09,-2.780823027e-14,2.45233241195,0.0,0.0,0.0,2.57717576633e-05,0.0,0.0,4.99791811249e-07,-4.23712412443e-30,-5.778265926e-22,0.0,0.0,0.0,-4.23712412443e-30,4.99583911198e-07,8.20543767196e-37,0.0,0.0,0.0,-5.778265926e-22,-8.20566216671e-37,4.99583911198e-07,0.0,-2.1365524095e-09,2.57717576633e-05,0.0,0.0,0.0,2.94120001139,2.50333026264e-07,0.0,0.0,0.0,0.0,-1.02908008123e-07,0.00102524672025,0.0,0.0,0.0,0.0,0.0,0.0,0.00102524672025,0.0,0.0,0.0,0.0,0.0,0.0,4.9968782518e-07,-1.33352988491e-35,-1.59111117465e-31,0.0,0.0,0.0,-1.33352988491e-35,4.98755183289e-07,-4.28274173027e-39,0.0,0.0,0.0,-1.59111117465e-31,4.28274173027e-39,4.98755183289e-07,0.0,0.0,0.0,0.0,0.0,0.0,9.99957501812e-10
49540000000,2452,49540000000,odom,base_link,2.01633663498e-05,1.6644333172e-09,0.0,0.0,0.0,4.1904583214e-05,0.999999999122,2.45333286161,-2.78297712034e-14,0.0,0.0,0.0,-2.13778792903e-09,-2.78297711811e-14,2.45333286195,0.0,0.0,0.0,2.57864993585e-05,0.0,0.0,4.99791811249e-07,1.1908108956e-30,-5.78580624126e-22,0.0,0.0,0.0,1.1908108956e-30,4.99583911198e-07,6.14130774636e-37,0.0,0.0,0.0,-5.78580624126e-22,-6.14124696557e-37,4.99583911198e-07,0.0,-2.13778792903e-09,2.57864993585e-05,0.0,0.0,0.0,2.94240001139,2.50660991249e-07,0.0,0.0,0.0,0.0,-1.65602997726e-09,0.00102524671981,0.0,0.0,0.0,0.0,0.0,0.0,0.00102524671981,0.0,0.0,0.0,0.0,0.0,0.0,4.9968782518e-07,-1.33523729515e-35,-1.59318748614e-31,0.0,0.0,0.0,-1.33523729515e-35,4.98755183289e-07,-8.66265029792e-39,0.0,0.0,0.0,-1.59318748614e-31,8.66265029792e-39,4.98755183289e-07,0.0,0.0,0.0,0.0,0.0,0.0,9.99957501812e-10
49560000000,2453,49560000000,odom,base_link,2.01683914024e-05,1.66485446246e-09,0.0,0.0,0.0,4.19045666592e-05,0.999999999122,2.45433331161,-2.78513523063e-14,0.0,0.0,0.0,-2.13902553156e-09,-2.78513522839e-14,2.45433331195,0.0,0.0,0.0,2.58012662698e-05,0.0,0.0,4.99791811249e-07,1.91880695003e-32,-5.79333938977e-22,0.0,0.0,0.0,1.91880695003e-32,4.99583911198e-07,3.49517725849e-37,0.0,0.0,0.0,-5.79333938977e-22,-3.49517618948e-37,4.99583911198e-07,0.0,-2.13902553156e-09,2.58012662698e-05,0.0,0.0,0.0,2.94360001139,2.50988627078e-07,0.0,0.0,0.0,0.0,2.18480991075e-07,0.00102524671937,0.0,0.0,0.0,0.0,0.0,0.0,0.00102524671937,0.0,0.0,0.0,0.0,0.0,0.0,4.9968782518e-07,-1.33697505681e-35,-1.59526182418e-31,0.0,0.0,0.0,-1.33697505681e-35,4.98755183289e-07,2.69774935162e-39,0.0,0.0,0.0,-1.59526182418e-31,-2.69774935162e-39,4.98755183289e-07,0.0,0.0,0.0,0.0,0.0,0.0,9.99957501812e-10
49580000000,2454,49580000000,odom,base_link,2.01734228867e-05,1.6652761466e-09,0.0,0.0,0.0,4.19067514628e-05,0.999999999122,2.45533376162,-2.78729738892e-14,0.0,0.0,0.0,-2.14026524673e-09,-2.78729738669e-14,2.45533376195,0.0,0.0,0.0,2.58160583946e-05,0.0,0.0,4.99791811249e-07,-2.5347575286e-30,-5.8008653595e-22,0.0,0.0,0.0,-2.5347575286e-30,4.99583911198e-07,8.17873517136e-37,0.0,0.0,0.0,-5.8008653595e-22,-8.17887109661e-37,4.99583911198e-07,0.0,-2.14026524673e-09,2.58160583946e-05,0.0,0.0,0.0,2.94480001139,2.51315933456e-07,0.0,0.0,0.0,0.0,-3.13274748249e-08,0.00102524671895,0.0,0.0,0.0,0.0,0.0,0.0,0.00102524671895,0.0,0.0,0.0,0.0,0.0,0.0,4.9968782518e-07,-1.33878185319e-35,-1.59733418546e-31,0.0,0.0,0.0,-1.33878185319e-35,4.98755183289e-07,1.10543522179e-39,0.0,0.0,0.0,-1.59733418546e-31,-1.10543522179e-39,4.98755183289e-07,0.0,0.0,0.0,0.0,0.0,0.0,9.99957501812e-10
49600000000,2455,49600000000,odom,base_link,2.01784607975e-05,1.66569839133e-09,0.0,0.0,0.0,4.19064381802e-05,0.999999999122,2.45633421162,-2.78946365513e-14,0.0,0.0,0.0,-2.14150713954e-09,-2.78946365289e-14,2.45633421195,0.0,0.0,0.0,2.58308757303e-05,0.0,0.0,4.99791811249e-07,3.63923613284e-31,-5.80838415237e-22,0.0,0.0,0.0,3.63923613284e-31,4.99583911198e-07,-3.7613881158e-37,0.0,0.0,0.0,-5.80838415237e-22,3.7614029675e-37,4.99583911198e-07,0.0,-2.14150713954e-09,2.58308757303e-05,0.0,0.0,0.0,2.94600001139,2.51642910697e-07,0.0,0.0,0.0,0.0,-3.45192425492e-07,0.00102524671854,0.0,0.0,0.0,0.0,0.0,0.0,0.00102524671854,0.0,0.0,0.0,0.0,0.0,0.0,4.9968782518e-07,-1.34050707864e-35,-1.59940457051e-31,0.0,0.0,0.0,-1.34050707864e-35,4.98755183289e-07,-2.87716729442e-39,0.0,0.0,0.0,-1.59940457051e-31,2.87716729442e-39,4.98755183289e-07,0.0,0.0,0.0,0.0,0.0,0.0,9.99957501812e-10
49620000000,2456,49620000000,odom,base_link,2.01835051297e-05,1.66612117112e-09,0.0,0.0,0.0,4.19029862641e-05,0.999999999122,2.45733466162,-2.79163396712e-14,0.0,0.0,0.0,-2.14275113583e-09,-2.79163396488e-14,2.45733466195,0.0,0.0,0.0,2.58457182742e-05,0.0,0.0,4.99791811249e-07,4.0152062458e-30,-5.81589577721e-22,0.0,0.0,0.0,4.0152062458e-30,4.99583911198e-07,2.72763043796e-37,0.0,0.0,0.0,-5.81589577721e-22,-2.72741682167e-37,4.99583911198e-07,0.0,-2.14275113583e-09,2.58457182742e-05,0.0,0.0,0.0,2.94720001139,2.5196955941e-07,0.0,0.0,0.0,0.0,-2.4638559991e-08,0.00102524671814,0.0,0.0,0.0,0.0,0.0,0.0,0.00102524671814,0.0,0.0,0.0,0.0,0.0,0.0,4.9968782518e-07,-1.34212980983e-35,-1.60147298176e-31,0.0,0.0,0.0,-1.34212980983e-35,4.98755183289e-07,-1.30564374463e-39,0.0,0.0,0.0,-1.60147298176e-31,1.30564374463e-39,4.98755183289e-07,0.0,0.0,0.0,0.0,0.0,0.0,9.99957501812e-10
49640000000,2457,49640000000,odom,base_link,2.0188555878e-05,1.66654445385e-09,0.0,0.0,0.0,4.1902739887e-05,0.999999999122,2.45833511162,-2.79380824565e-14,0.0,0.0,0.0,-2.14399714203e-09,-2.79380824341e-14,2.45833511195,0.0,0.0,0.0,2.58605860235e-05,0.0,0.0,4.99791811249e-07,2.86960996748e-31,-5.8234002031e-22,0.0,0.0,0.0,2.86960996748e-31,4.99583911198e-07,9.88480642923e-37,0.0,0.0,0.0,-5.8234002031e-22,-9.88479583501e-37,4.99583911198e-07,0.0,-2.14399714203e-09,2.58605860235e-05,0.0,0.0,0.0,2.94840001139,2.5229587847e-07,0.0,0.0,0.0,0.0,3.15285611e-07,0.00102524671774,0.0,0.0,0.0,0.0,0.0,0.0,0.00102524671774,0.0,0.0,0.0,0.0,0.0,0.0,4.9968782518e-07,-1.34385370233e-35,-1.6035394107e-31,0.0,0.0,0.0,-1.34385370233e-35,4.98755183289e-07,-6.64827208623e-39,0.0,0.0,0.0,-1.6035394107e-31,6.64827208623e-39,4.98755183289e-07,0.0,0.0,0.0,0.0,0.0,0.0,9.99957501812e-10
49660000000,2458,49660000000,odom,base_link,2.01936130377e-05,1.66696827139e-09,0.0,0.0,0.0,4.19058927446e-05,0.999999999122,2.45933556162,-2.79598657686e-14,0.0,0.0,0.0,-2.14524525305e-09,-2.79598657462e-14,2.45933556195,0.0,0.0,0.0,2.58754789758e-05,0.0,0.0,4.99791811249e-07,-3.6767960409e-30,-5.83089759467e-22,0.0,0.0,0.0,-3.6767960409e-30,4.99583911198e-07,2.74044186601e-37,0.0,0.0,0.0,-5.83089759467e-22,-2.74063708563e-37,4.99583911198e-07,0.0,-2.14524525305e-09,2.58754789758e-05,0.0,0.0,0.0,2.94960001139,2.52621875273e-07,0.0,0.0,0.0,0.0,3.79687152058e-07,0.00102524671736,0.0,0.0,0.0,0.0,0.0,0.0,0.00102524671736,0.0,0.0,0.0,0.0,0.0,0.0,4.9968782518e-07,-1.34568545742e-35,-1.60560390266e-31,0.0,0.0,0.0,-1.34568545742e-35,4.98755183289e-07,-7.93763190405e-39,0.0,0.0,0.0,-1.60560390266e-31,7.93763190405e-39,4.98755183289e-07,0.0,0.0,0.0,0.0,0.0,0.0,9.99957501812e-10
49680000000,2459,49680000000,odom,base_link,2.01986766035e-05,1.66739265768e-09,0.0,0.0,0.0,4.19096896021e-05,0.999999999122,2.46033601162,-2.79816905248e-14,0.0,0.0,0.0,-2.14649557008e-09,-2.79816905024e-14,2.46033601196,0.0,0.0,0.0,2.58903971286e-05,0.0,0.0,4.99791811249e-07,-4.43352212578e-30,-5.83838786934e-22,0.0,0.0,0.0,-4.43352212578e-30,4.99583911198e-07,5.45196716586e-37,0.0,0.0,0.0,-5.83838786934e-22,-5.45220513732e-37,4.99583911198e-07,0.0,-2.14649557008e-09,2.58903971286e-05,0.0,0.0,0.0,2.9508000114,2.52947546437e-07,0.0,0.0,0.0,0.0,-1.75716732234e-07,0.00102524671699,0.0,0.0,0.0,0.0,0.0,0.0,0.00102524671699,0.0,0.0,0.0,0.0,0.0,0.0,4.9968782518e-07,-1.34753640122e-35,-1.6076664349e-31,0.0,0.0,0.0,-1.34753640122e-35,4.98755183289e-07,-1.242598017e-39,0.0,0.0,0.0,-1.6076664349e-31,1.242598017e-39,4.98755183289e-07,0.0,0.0,0.0,0.0,0.0,0.0,9.99957501812e-10
49700000000,2460,49700000000,odom,base_link,2.02037465702e-05,1.66781761893e-09,0.0,0.0,0.0,4.19079324397e-05,0.999999999122,2.46133646162,-2.80035569246e-14,0.0,0.0,0.0,-2.14774811246e-09,-2.80035569022e-14,2.46133646196,0.0,0.0,0.0,2.59053404793e-05,0.0,0.0,4.99791811249e-07,2.0544339531e-30,-5.84587103643e-22,0.0,0.0,0.0,2.0544339531e-30,4.99583911198e-07,6.8243973606e-37,0.0,0.0,0.0,-5.84587103643e-22,-6.82428734101e-37,4.99583911198e-07,0.0,-2.14774811246e-09,2.59053404793e-05,0.0,0.0,0.0,2.9520000114,2.53272892581e-07,0.0,0.0,0.0,0.0,2.03833742351e-08,0.00102524671663,0.0,0.0,0.0,0.0,0.0,0.0,0.00102524671663,0.0,0.0,0.0,0.0,0.0,0.0,4.9968782518e-07,-1.34920672842e-35,-1.60972700999e-31,0.0,0.0,0.0,-1.34920672842e-35,4.98755183289e-07,2.0924523057e-39,0.0,0.0,0.0,-1.60972700999e-31,-2.0924523057e-39,4.98755183289e-07,0.0,0.0,0.0,0.0,0.0,0.0,9.99957501812e-10
49720000000,2461,49720000000,odom,base_link,2.02088229329e-05,1.66824309847e-09,0.0,0.0,0.0,4.19081362806e-05,0.999999999122,2.46233691162,-2.802546354e-14,0.0,0.0,0.0,-2.1490027141e-09,-2.80254635176e-14,2.46233691196,0.0,0.0,0.0,2.59203090254e-05,0.0,0.0,4.99791811249e-07,-2.38621606585e-31,-5.85334715107e-22,0.0,0.0,0.0,-2.38621606585e-31,4.99583911198e-07,-9.90623631719e-37,0.0,0.0,0.0,-5.85334715107e-22,9.90622288526e-37,4.99583911198e-07,0.0,-2.1490027141e-09,2.59203090254e-05,0.0,0.0,0.0,2.9532000114,2.53597916321e-07,0.0,0.0,0.0,0.0,3.03340466912e-07,0.00102524671627,0.0,0.0,0.0,0.0,0.0,0.0,0.00102524671627,0.0,0.0,0.0,0.0,0.0,0.0,4.9968782518e-07,-1.35093856769e-35,-1.6117856431e-31,0.0,0.0,0.0,-1.35093856769e-35,4.98755183289e-07,5.10736553178e-39,0.0,0.0,0.0,-1.6117856431e-31,-5.10736553178e-39,4.98755183289e-07,0.0,0.0,0.0,0.0,0.0,0.0,9.99957501812e-10
49740000000,2462,49740000000,odom,base_link,2.02139112456e-05,1.66866958154e-09,0.0,0.0,0.0,4.19111696777e-05,0.999999999122,2.46333690978,-2.80474109131e-14,0.0,0.0,0.0,-2.15025943343e-09,-2.80474108907e-14,2.46333691012,0.0,0.0,0.0,2.59353027646e-05,0.0,0.0,3.33240792156e-07,-1.58094475139e-30,-2.60589167333e-22,0.0,0.0,0.0,-1.58094475139e-30,3.33148353665e-07,2.4341358956e-37,0.0,0.0,0.0,-2.60589167333e-22,-2.43421740788e-37,3.33148353665e-07,0.0,-2.15025943343e-09,2.59353027646e-05,0.0,0.0,0.0,2.9544000114,2.54111029139e-07,0.0,0.0,0.0,0.0,5.62620507948e-09,0.000506232997622,0.0,0.0,0.0,0.0,0.0,0.0,0.000506232997622,0.0,0.0,0.0,0.0,0.0,0.0,3.33194560088e-07,-6.02102385551e-36,-7.18307686417e-32,0.0,0.0,0.0,-6.02102385551e-36,3.32779621949e-07,-3.84672648828e-39,0.0,0.0,0.0,-7.18307686417e-32,3.84672648828e-39,3.32779621949e-07,0.0,0.0,0.0,0.0,0.0,0.0,9.99957468482e-10
49760000000,2463,49760000000,odom,base_link,2.02190003075e-05,1.66909615843e-09,0.0,0.0,0.0,4.19112259452e-05,0.999999999122,2.46433735978,-2.80693998183e-14,0.0,0.0,0.0,-2.15151835526e-09,-2.80693997959e-14,2.46433736012,0.0,0.0,0.0,2.59503216943e-05,0.0,0.0,3.33240792156e-07,-2.93601387509e-32,-2.60920953514e-22,0.0,0.0,0.0,-2.93601387509e-32,3.33148353665e-07,-1.03334783605e-37,0.0,0.0,0.0,-2.60920953514e-22,1.03334902922e-37,3.33148353665e-07,0.0,-2.15151835526e-09,2.59503216943e-05,0.0,0.0,0.0,2.9556000114,2.54432785578e-07,0.0,0.0,0.0,0.0,2.23556340876e-07,0.00050623299754,0.0,0.0,0.0,0.0,0.0,0.0,0.00050623299754,0.0,0.0,0.0,0.0,0.0,0.0,3.33194560088e-07,-6.02869797401e-36,-7.1922224694e-32,0.0,0.0,0.0,-6.02869797401e-36,3.32779621949e-07,2.42977591384e-39,0.0,0.0,0.0,-7.1922224694e-32,-2.42977591384e-39,3.32779621949e-07,0.0,0.0,0.0,0.0,0.0,0.0,9.99957468482e-10
49780000000,2464,49780000000,odom,base_link,2.02240957511e-05,1.66952327083e-09,0.0,0.0,0.0,4.19134615113e-05,0.999999999122,2.46533780978,-2.80914294998e-14,0.0,0.0,0.0,-2.15277939011e-09,-2.80914294774e-14,2.46533781012,0.0,0.0,0.0,2.59653658122e-05,0.0,0.0,3.33240792156e-07,-1.16809273781e-30,-2.61252428191e-22,0.0,0.0,0.0,-1.16809273781e-30,3.33148353665e-07,9.70208431508e-37,0.0,0.0,0.0,-2.61252428191e-22,-9.70214841878e-37,3.33148353665e-07,0.0,-2.15277939011e-09,2.59653658122e-05,0.0,0.0,0.0,2.9568000114,2.54754256079e-07,0.0,0.0,0.0,0.0,3.31039917377e-07,0.00050623299746,0.0,0.0,0.0,0.0,0.0,0.0,0.00050623299746,0.0,0.0,0.0,0.0,0.0,0.0,3.33194560088e-07,-6.03667863904e-36,-7.20135948809e-32,0.0,0.0,0.0,-6.03667863904e-36,3.32779621949e-07,-1.4426760093e-39,0.0,0.0,0.0,-7.20135948809e-32,1.4426760093e-39,3.32779621949e-07,0.0,0.0,0.0,0.0,0.0,0.0,9.99957468482e-10
49800000000,2465,49800000000,odom,base_link,2.02291975715e-05,1.66995094055e-09,0.0,0.0,0.0,4.19167719119e-05,0.999999999121,2.46633825978,-2.81135005627e-14,0.0,0.0,0.0,-2.15404260347e-09,-2.81135005403e-14,2.46633826012,0.0,0.0,0.0,2.59804351159e-05,0.0,0.0,3.33240792156e-07,-1.73189239194e-30,-2.61583592826e-22,0.0,0.0,0.0,-1.73189239194e-30,3.33148353665e-07,1.21434089983e-37,0.0,0.0,0.0,-2.61583592826e-22,-1.21443129552e-37,3.33148353665e-07,0.0,-2.15404260347e-09,2.59804351159e-05,0.0,0.0,0.0,2.9580000114,2.55075443304e-07,0.0,0.0,0.0,0.0,3.89203001166e-07,0.000506232997382,0.0,0.0,0.0,0.0,0.0,0.0,0.000506232997382,0.0,0.0,0.0,0.0,0.0,0.0,3.33194560088e-07,-6.04480893035e-36,-7.21048796053e-32,0.0,0.0,0.0,-6.04480893035e-36,3.32779621949e-07,1.50455801674e-39,0.0,0.0,0.0,-7.21048796053e-32,-1.50455801674e-39,3.32779621949e-07,0.0,0.0,0.0,0.0,0.0,0.0,9.99957468482e-10
49820000000,2466,49820000000,odom,base_link,2.02343057633e-05,1.67037917818e-09,0.0,0.0,0.0,4.19206639398e-05,0.999999999121,2.46733870978,-2.81356133229e-14,0.0,0.0,0.0,-2.15530802783e-09,-2.81356133005e-14,2.46733871012,0.0,0.0,0.0,2.59955296031e-05,0.0,0.0,3.33240792156e-07,-2.03875806095e-30,-2.61914450373e-22,0.0,0.0,0.0,-2.03875806095e-30,3.33148353665e-07,-1.2244961775e-37,0.0,0.0,0.0,-2.61914450373e-22,1.22438679474e-37,3.33148353665e-07,0.0,-2.15530802783e-09,2.59955296031e-05,0.0,0.0,0.0,2.9592000114,2.55396343214e-07,0.0,0.0,0.0,0.0,3.05573953771e-07,0.000506232997306,0.0,0.0,0.0,0.0,0.0,0.0,0.000506232997306,0.0,0.0,0.0,0.0,0.0,0.0,3.33194560088e-07,-6.05301693442e-36,-7.21960796817e-32,0.0,0.0,0.0,-6.05301693442e-36,3.32779621949e-07,-3.93653891396e-39,0.0,0.0,0.0,-7.21960796817e-32,3.93653891396e-39,3.32779621949e-07,0.0,0.0,0.0,0.0,0.0,0.0,9.99957468482e-10
49840000000,2467,49840000000,odom,base_link,2.02394151402e-05,1.67080755513e-09,0.0,0.0,0.0,4.19237196783e-05,0.999999999121,2.46833961162,-2.81577679666e-14,0.0,0.0,0.0,-2.1565756809e-09,-2.81577679442e-14,2.46833961196,0.0,0.0,0.0,2.60106492714e-05,0.0,0.0,4.99791811249e-07,-3.6045858553e-30,-5.89805695163e-22,0.0,0.0,0.0,-3.6045858553e-30,4.99583911198e-07,1.08957122219e-36,0.0,0.0,0.0,-5.89805695163e-22,-1.08959111965e-36,4.99583911198e-07,0.0,-2.1565756809e-09,2.60106492714e-05,0.0,0.0,0.0,2.9604000114,2.55541352692e-07,0.0,0.0,0.0,0.0,2.61844605014e-07,0.00102524671433,0.0,0.0,0.0,0.0,0.0,0.0,0.00102524671433,0.0,0.0,0.0,0.0,0.0,0.0,4.9968782518e-07,-1.3617641219e-35,-1.62409699471e-31,0.0,0.0,0.0,-1.3617641219e-35,4.98755183289e-07,3.25271589994e-39,0.0,0.0,0.0,-1.62409699471e-31,-3.25271589994e-39,4.98755183289e-07,0.0,0.0,0.0,0.0,0.0,0.0,9.99957501812e-10
49860000000,2468,49860000000,odom,base_link,2.02445361328e-05,1.671236937e-09,0.0,0.0,0.0,4.19263381226e-05,0.999999999121,2.46934006162,-2.8179964304e-14,0.0,0.0,0.0,-2.15784553756e-09,-2.81799642816e-14,2.46934006196,0.0,0.0,0.0,2.60257941186e-05,0.0,0.0,4.99791811249e-07,-3.0926388425e-30,-5.90548429136e-22,0.0,0.0,0.0,-3.0926388425e-30,4.99583911198e-07,-6.83710985535e-37,0.0,0.0,0.0,-5.90548429136e-22,6.83693969726e-37,4.99583911198e-07,0.0,-2.15784553756e-09,2.60257941186e-05,0.0,0.0,0.0,2.9616000114,2.55864151114e-07,0.0,0.0,0.0,0.0,1.97032797183e-07,0.00102524671403,0.0,0.0,0.0,0.0,0.0,0.0,0.00102524671403,0.0,0.0,0.0,0.0,0.0,0.0,4.9968782518e-07,-1.36356406255e-35,-1.6261421971e-31,0.0,0.0,0.0,-1.36356406255e-35,4.98755183289e-07,-5.89987638154e-39,0.0,0.0,0.0,-1.6261421971e-31,5.89987638154e-39,4.98755183289e-07,0.0,0.0,0.0,0.0,0.0,0.0,9.99957501812e-10
49880000000,2469,49880000000,odom,base_link,2.02496634808e-05,1.67166687862e-09,0.0,0.0,0.0,4.19283084574e-05,0.999999999121,2.47034051162,-2.82022022501e-14,0.0,0.0,0.0,-2.15911758467e-09,-2.82022022277e-14,2.47034051196,0.0,0.0,0.0,2.60409641425e-05,0.0,0.0,4.99791811249e-07,-2.33007269952e-30,-5.91290471436e-22,0.0,0.0,0.0,-2.33007269952e-30,4.99583911198e-07,2.7492551426e-37,0.0,0.0,0.0,-5.91290471436e-22,-2.74938216004e-37,4.99583911198e-07,0.0,-2.15911758467e-09,2.60409641425e-05,0.0,0.0,0.0,2.9628000114,2.56186634646e-07,0.0,0.0,0.0,0.0,4.71047658989e-07,0.00102524671374,0.0,0.0,0.0,0.0,0.0,0.0,0.00102524671374,0.0,0.0,0.0,0.0,0.0,0.0,4.9968782518e-07,-1.36534152515e-35,-1.62818549489e-31,0.0,0.0,0.0,-1.36534152515e-35,4.98755183289e-07,-4.27447964827e-39,0.0,0.0,0.0,-1.62818549489e-31,4.27447964827e-39,4.98755183289e-07,0.0,0.0,0.0,0.0,0.0,0.0,9.99957501812e-10
49900000000,2470,49900000000,odom,base_link,2.02547971794e-05,1.67209737298e-09,0.0,0.0,0.0,4.19330189152e-05,0.999999999121,2.47134096162,-2.82244816633e-14,0.0,0.0,0.0,-2.16039180261e-09,-2.82244816409e-14,2.47134096196,0.0,0.0,0.0,2.60561593409e-05,0.0,0.0,4.99791811249e-07,-5.57750428872e-30,-5.92031828576e-22,0.0,0.0,0.0,-5.57750428872e-30,4.99583911198e-07,1.4645995107e-39,0.0,0.0,0.0,-5.92031828576e-22,-1.49471147626e-39,4.99583911198e-07,0.0,-2.16039180261e-09,2.60561593409e-05,0.0,0.0,0.0,2.9640000114,2.56508806314e-07,0.0,0.0,0.0,0.0,-2.71539252889e-07,0.00102524671346,0.0,0.0,0.0,0.0,0.0,0.0,0.00102524671346,0.0,0.0,0.0,0.0,0.0,0.0,4.9968782518e-07,-1.36720708031e-35,-1.63022690601e-31,0.0,0.0,0.0,-1.36720708031e-35,4.98755183289e-07,-2.27346569723e-40,0.0,0.0,0.0,-1.63022690601e-31,2.27346569723e-40,4.98755183289e-07,0.0,0.0,0.0,0.0,0.0,0.0,9.99957501812e-10
49920000000,2471,49920000000,odom,base_link,2.02599372231e-05,1.67252844782e-09,0.0,0.0,0.0,4.19303035278e-05,0.999999999121,2.47234141162,-2.82468033076e-14,0.0,0.0,0.0,-2.16166827477e-09,-2.82468032851e-14,2.47234141196,0.0,0.0,0.0,2.60713797113e-05,0.0,0.0,4.99791811249e-07,3.21921898897e-30,-5.92772487214e-22,0.0,0.0,0.0,3.21921898897e-30,4.99583911198e-07,4.83297241917e-40,0.0,0.0,0.0,-5.92772487214e-22,-4.65493719061e-40,4.99583911198e-07,0.0,-2.16166827477e-09,2.60713797113e-05,0.0,0.0,0.0,2.9652000114,2.5683066049e-07,0.0,0.0,0.0,0.0,-7.1950703106e-08,0.00102524671319,0.0,0.0,0.0,0.0,0.0,0.0,0.00102524671319,0.0,0.0,0.0,0.0,0.0,0.0,4.9968782518e-07,-1.36882861855e-35,-1.63226639373e-31,0.0,0.0,0.0,-1.36882861855e-35,4.98755183289e-07,1.27662141801e-39,0.0,0.0,0.0,-1.63226639373e-31,-1.27662141801e-39,4.98755183289e-07,0.0,0.0,0.0,0.0,0.0,0.0,9.99957501812e-10
49940000000,2472,49940000000,odom,base_link,2.02650836073e-05,1.67296002652e-09,0.0,0.0,0.0,4.19295840235e-05,0.999999999121,2.47334186162,-2.82691652253e-14,0.0,0.0,0.0,-2.16294677505e-09,-2.82691652029e-14,2.47334186197,0.0,0.0,0.0,2.60866252518e-05,0.0,0.0,4.99791811249e-07,8.54073255319e-31,-5.935124715e-22,0.0,0.0,0.0,8.54073255319e-31,4.99583911198e-07,-6.16304264591e-37,0.0,0.0,0.0,-5.935124715e-22,6.16309139306e-37,4.99583911198e-07,0.0,-2.16294677505e-09,2.60866252518e-05,0.0,0.0,0.0,2.9664000114,2.57152207884e-07,0.0,0.0,0.0,0.0,3.87798580224e-08,0.00102524671292,0.0,0.0,0.0,0.0,0.0,0.0,0.00102524671292,0.0,0.0,0.0,0.0,0.0,0.0,4.9968782518e-07,-1.370513575e-35,-1.63430402454e-31,0.0,0.0,0.0,-1.370513575e-35,4.98755183289e-07,5.83477954598e-39,0.0,0.0,0.0,-1.63430402454e-31,-5.83477954598e-39,4.98755183289e-07,0.0,0.0,0.0,0.0,0.0,0.0,9.99957501812e-10
49960000000,2473,49960000000,odom,base_link,2.02702363268e-05,1.67339212911e-09,0.0,0.0,0.0,4.19299718299e-05,0.999999999121,2.47434231162,-2.82915679786e-14,0.0,0.0,0.0,-2.16422736394e-09,-2.82915679561e-14,2.47434231197,0.0,0.0,0.0,2.61018959601e-05,0.0,0.0,4.99791811249e-07,-4.60899839197e-31,-5.94251772586e-22,0.0,0.0,0.0,-4.60899839197e-31,4.99583911198e-07,-1.03805519243e-37,0.0,0.0,0.0,-5.94251772586e-22,1.03802885331e-37,4.99583911198e-07,0.0,-2.16422736394e-09,2.61018959601e-05,0.0,0.0,0.0,2.9676000114,2.57473444821e-07,0.0,0.0,0.0,0.0,3.4921189551e-07,0.00102524671266,0.0,0.0,0.0,0.0,0.0,0.0,0.00102524671266,0.0,0.0,0.0,0.0,0.0,0.0,4.9968782518e-07,-1.3722335979e-35,-1.63633977409e-31,0.0,0.0,0.0,-1.3722335979e-35,4.98755183289e-07,-1.47370095996e-39,0.0,0.0,0.0,-1.63633977409e-31,1.47370095996e-39,4.98755183289e-07,0.0,0.0,0.0,0.0,0.0,0.0,9.99957501812e-10
49980000000,2474,49980000000,odom,base_link,2.02753953765e-05,1.67382476654e-09,0.0,0.0,0.0,4.19334639461e-05,0.999999999121,2.47534276162,-2.83140118931e-14,0.0,0.0,0.0,-2.16551007506e-09,-2.83140118707e-14,2.47534276197,0.0,0.0,0.0,2.61171918339e-05,0.0,0.0,4.99791811249e-07,-4.15555430106e-30,-5.94990382358e-22,0.0,0.0,0.0,-4.15555430106e-30,4.99583911198e-07,2.72823023844e-37,0.0,0.0,0.0,-5.94990382358e-22,-2.72845705963e-37,4.99583911198e-07,0.0,-2.16551007506e-09,2.61171918339e-05,0.0,0.0,0.0,2.9688000114,2.57794367943e-07,0.0,0.0,0.0,0.0,2.47055670004e-07,0.0010252467124,0.0,0.0,0.0,0.0,0.0,0.0,0.0010252467124,0.0,0.0,0.0,0.0,0.0,0.0,4.9968782518e-07,-1.37405383769e-35,-1.63837362002e-31,0.0,0.0,0.0,-1.37405383769e-35,4.98755183289e-07,8.02423941484e-39,0.0,0.0,0.0,-1.63837362002e-31,-8.02423941484e-39,4.98755183289e-07,0.0,0.0,0.0,0.0,0.0,0.0,9.99957501812e-10
50000000000,2475,50000000000,odom,base_link,2.02805607516e-05,1.67425797047e-09,0.0,0.0,0.0,4.19359344992e-05,0.999999999121,2.47634321163,-2.83364978359e-14,0.0,0.0,0.0,-2.16679500341e-09,-2.83364978135e-14,2.47634321197,0.0,0.0,0.0,2.61325128713e-05,0.0,0.0,4.99791811249e-07,-2.94356173016e-30,-5.95728323247e-22,0.0,0.0,0.0,-2.94356173016e-30,4.99583911198e-07,-1.36719607671e-36,0.0,0.0,0.0,-5.95728323247e-22,1.3671797609e-36,4.99583911198e-07,0.0,-2.16679500341e-09,2.61325128713e-05,0.0,0.0,0.0,2.9700000114,2.58114987205e-07,0.0,0.0,0.0,0.0,1.04714242682e-07,0.00102524671215,0.0,0.0,0.0,0.0,0.0,0.0,0.00102524671215,0.0,0.0,0.0,0.0,0.0,0.0,4.9968782518e-07,-1.37583918538e-35,-1.64040562411e-31,0.0,0.0,0.0,-1.37583918538e-35,4.98755183289e-07,-2.89294654042e-39,0.0,0.0,0.0,-1.64040562411e-31,2.89294654042e-39,4.98755183289e-07,0.0,0.0,0.0,0.0,0.0,0.0,9.99957501812e-10
50020000000,2476,50020000000,odom,base_link,2.02857324469e-05,1.67469173e-09,0.0,0.0,0.0,4.19369816487e-05,0.999999999121,2.47734366163,-2.83590255639e-14,0.0,0.0,0.0,-2.16808211779e-09,-2.83590255415e-14,2.47734366197,0.0,0.0,0.0,2.61478590701e-05,0.0,0.0,4.99791811249e-07,-1.24916923858e-30,-5.9646558121e-22,0.0,0.0,0.0,-1.24916923858e-30,4.99583911198e-07,-6.89822527315e-38,0.0,0.0,0.0,-5.9646558121e-22,6.89756350963e-38,4.99583911198e-07,0.0,-2.16808211779e-09,2.61478590701e-05,0.0,0.0,0.0,2.9712000114,2.58435296659e-07,0.0,0.0,0.0,0.0,3.88805910959e-07,0.00102524671191,0.0,0.0,0.0,0.0,0.0,0.0,0.00102524671191,0.0,0.0,0.0,0.0,0.0,0.0,4.9968782518e-07,-1.3775761519e-35,-1.64243574768e-31,0.0,0.0,0.0,-1.3775761519e-35,4.98755183289e-07,-1.65294350757e-39,0.0,0.0,0.0,-1.64243574768e-31,1.65294350757e-39,4.98755183289e-07,0.0,0.0,0.0,0.0,0.0,0.0,9.99957501812e-10
50040000000,2477,50040000000,odom,base_link,2.02909104572e-05,1.67512603004e-09,0.0,0.0,0.0,4.19408696993e-05,0.99999999912,2.47834411163,-2.83815947235e-14,0.0,0.0,0.0,-2.16937137451e-09,-2.83815947011e-14,2.47834411197,0.0,0.0,0.0,2.61632304282e-05,0.0,0.0,4.99791811249e-07,-4.64391460421e-30,-5.97202158447e-22,0.0,0.0,0.0,-4.64391460421e-30,4.99583911198e-07,8.2206644095e-37,0.0,0.0,0.0,-5.97202158447e-22,-8.22092016155e-37,4.99583911198e-07,0.0,-2.16937137451e-09,2.61632304282e-05,0.0,0.0,0.0,2.9724000114,2.58755297439e-07,0.0,0.0,0.0,0.0,5.34588204333e-08,0.00102524671168,0.0,0.0,0.0,0.0,0.0,0.0,0.00102524671168,0.0,0.0,0.0,0.0,0.0,0.0,4.9968782518e-07,-1.37940527823e-35,-1.6444639968e-31,0.0,0.0,0.0,-1.37940527823e-35,4.98755183289e-07,4.74624878611e-39,0.0,0.0,0.0,-1.6444639968e-31,-4.74624878611e-39,4.98755183289e-07,0.0,0.0,0.0,0.0,0.0,0.0,9.99957501812e-10
50060000000,2478,50060000000,odom,base_link,2.02960947781e-05,1.67556089966e-09,0.0,0.0,0.0,4.19414042777e-05,0.99999999912,2.47934456163,-2.84042061161e-14,0.0,0.0,0.0,-2.17066286102e-09,-2.84042060937e-14,2.47934456197,0.0,0.0,0.0,2.61786269437e-05,0.0,0.0,4.99791811249e-07,-6.39301972624e-31,-5.97938073899e-22,0.0,0.0,0.0,-6.39301972624e-31,4.99583911198e-07,1.70738194716e-37,0.0,0.0,0.0,-5.97938073899e-22,-1.70741870809e-37,4.99583911198e-07,0.0,-2.17066286102e-09,2.61786269437e-05,0.0,0.0,0.0,2.9736000114,2.59074997969e-07,0.0,0.0,0.0,0.0,-3.35856257452e-07,0.00102524671145,0.0,0.0,0.0,0.0,0.0,0.0,0.00102524671145,0.0,0.0,0.0,0.0,0.0,0.0,4.9968782518e-07,-1.38112265631e-35,-1.64649042361e-31,0.0,0.0,0.0,-1.38112265631e-35,4.98755183289e-07,-1.56724634323e-39,0.0,0.0,0.0,-1.64649042361e-31,1.56724634323e-39,4.98755183289e-07,0.0,0.0,0.0,0.0,0.0,0.0,9.99957501812e-10
50080000000,2479,50080000000,odom,base_link,2.0301285404e-05,1.67599630372e-09,0.0,0.0,0.0,4.19380457299e-05,0.999999999121,2.48034501163,-2.84268588639e-14,0.0,0.0,0.0,-2.17195647408e-09,-2.84268588415e-14,2.48034501197,0.0,0.0,0.0,2.61940486145e-05,0.0,0.0,4.99791811249e-07,4.02136328135e-30,-5.98673307442e-22,0.0,0.0,0.0,4.02136328135e-30,4.99583911198e-07,8.19261958972e-37,0.0,0.0,0.0,-5.98673307442e-22,-8.19239902243e-37,4.99583911198e-07,0.0,-2.17195647408e-09,2.61940486145e-05,0.0,0.0,0.0,2.9748000114,2.59394389647e-07,0.0,0.0,0.0,0.0,2.47532406207e-07,0.00102524671122,0.0,0.0,0.0,0.0,0.0,0.0,0.00102524671122,0.0,0.0,0.0,0.0,0.0,0.0,4.9968782518e-07,-1.38270977458e-35,-1.64851497272e-31,0.0,0.0,0.0,-1.38270977458e-35,4.98755183289e-07,6.10439154667e-39,0.0,0.0,0.0,-1.64851497272e-31,-6.10439154667e-39,4.98755183289e-07,0.0,0.0,0.0,0.0,0.0,0.0,9.99957501812e-10
50100000000,2480,50100000000,odom,base_link,2.03064823302e-05,1.67643220141e-09,0.0,0.0,0.0,4.19405210576e-05,0.99999999912,2.48134546163,-2.84495519377e-14,0.0,0.0,0.0,-2.17325209331e-09,-2.84495519153e-14,2.48134546197,0.0,0.0,0.0,2.62094954386e-05,0.0,0.0,4.99791811249e-07,-2.96745674595e-30,-5.99407875463e-22,0.0,0.0,0.0,-2.96745674595e-30,4.99583911198e-07,8.1982306219e-37,0.0,0.0,0.0,-5.99407875463e-22,-8.19839619899e-37,4.99583911198e-07,0.0,-2.17325209331e-09,2.62094954386e-05,0.0,0.0,0.0,2.9760000114,2.59713479781e-07,0.0,0.0,0.0,0.0,3.96328122189e-07,0.001025246711,0.0,0.0,0.0,0.0,0.0,0.0,0.001025246711,0.0,0.0,0.0,0.0,0.0,0.0,4.9968782518e-07,-1.3844881691e-35,-1.65053768923e-31,0.0,0.0,0.0,-1.3844881691e-35,4.98755183289e-07,-4.16224825872e-40,0.0,0.0,0.0,-1.65053768923e-31,4.16224825872e-40,4.98755183289e-07,0.0,0.0,0.0,0.0,0.0,0.0,9.99957501812e-10
50120000000,2481,50120000000,odom,base_link,2.03116855514e-05,1.67686865285e-09,0.0,0.0,0.0,4.19444843285e-05,0.99999999912,2.48234591163,-2.84722869534e-14,0.0,0.0,0.0,-2.17454989872e-09,-2.8472286931e-14,2.48234591197,0.0,0.0,0.0,2.62249674138e-05,0.0,0.0,4.99791811249e-07,-4.75706145597e-30,-6.00141765168e-22,0.0,0.0,0.0,-4.75706145597e-30,4.99583911198e-07,2.72852366921e-37,0.0,0.0,0.0,-6.00141765168e-22,-2.72878726416e-37,4.99583911198e-07,0.0,-2.17454989872e-09,2.62249674138e-05,0.0,0.0,0.0,2.9772000114,2.60032262959e-07,0.0,0.0,0.0,0.0,-1.03898384557e-08,0.00102524671079,0.0,0.0,0.0,0.0,0.0,0.0,0.00102524671079,0.0,0.0,0.0,0.0,0.0,0.0,4.9968782518e-07,-1.38631467197e-35,-1.65255853792e-31,0.0,0.0,0.0,-1.38631467197e-35,4.98755183289e-07,1.03460480418e-38,0.0,0.0,0.0,-1.65255853792e-31,-1.03460480418e-38,4.98755183289e-07,0.0,0.0,0.0,0.0,0.0,0.0,9.99957501812e-10
50140000000,2482,50140000000,odom,base_link,2.03168879255e-05,1.67730507465e-09,0.0,0.0,0.0,4.19443804376e-05,0.99999999912,2.48334764004,-2.84950516824e-14,0.0,0.0,0.0,-2.1758492137e-09,-2.84950516601e-14,2.48334764038,0.0,0.0,0.0,2.6240455922e-05,0.0,0.0,4.99791840132e-07,1.87054338559e-31,-9.00187157987e-22,0.0,0.0,0.0,1.87054338559e-31,4.99584026472e-07,-4.47543332124e-37,0.0,0.0,0.0,-9.00187157987e-22,4.47544951639e-37,4.99584026472e-07,0.0,-2.1758492137e-09,2.6240455922e-05,0.0,0.0,0.0,2.9784000114,2.60205147909e-07,0.0,0.0,0.0,0.0,2.90165955706e-07,0.00155722780247,0.0,0.0,0.0,0.0,0.0,0.0,0.00155722780247,0.0,0.0,0.0,0.0,0.0,0.0,4.99687890093e-07,-4.66897971888e-35,-5.56567881496e-31,0.0,0.0,0.0,-4.66897971888e-35,4.98756211202e-07,-2.20150396344e-38,0.0,0.0,0.0,-5.56567881496e-31,2.20150396344e-38,4.98756211202e-07,0.0,0.0,0.0,0.0,0.0,0.0,9.99957501812e-10
50160000000,2483,50160000000,odom,base_link,2.03221051952e-05,1.67774274465e-09,0.0,0.0,0.0,4.19472820891e-05,0.99999999912,2.48434689758,-2.85178629554e-14,0.0,0.0,0.0,-2.17715093464e-09,-2.8517862933e-14,2.48434689792,0.0,0.0,0.0,2.62559731488e-05,0.0,0.0,4.99791796802e-07,-2.61854739636e-30,-4.51215510571e-22,0.0,0.0,0.0,-2.61854739636e-30,4.99583853513e-07,6.84180498773e-37,0.0,0.0,0.0,-4.51215510571e-22,-6.84191312743e-37,4.99583853513e-07,0.0,-2.17715093464e-09,2.62559731488e-05,0.0,0.0,0.0,2.9796000114,2.60583716217e-07,0.0,0.0,0.0,0.0,-2.49284647612e-08,0.000894259171394,0.0,0.0,0.0,0.0,0.0,0.0,0.000894259171394,0.0,0.0,0.0,0.0,0.0,0.0,4.99687792703e-07,-5.86457328967e-36,-6.99040796836e-32,0.0,0.0,0.0,-5.86457328967e-36,4.98754668056e-07,4.16901537462e-40,0.0,0.0,0.0,-6.99040796836e-32,-4.16901537462e-40,4.98754668056e-07,0.0,0.0,0.0,0.0,0.0,0.0,9.99957501812e-10
50180000000,2484,50180000000,odom,base_link,2.03273270861e-05,1.67818083266e-09,0.0,0.0,0.0,4.19470327999e-05,0.99999999912,2.4853473775,-2.85407190015e-14,0.0,0.0,0.0,-2.17845500481e-09,-2.85407189792e-14,2.48534737784,0.0,0.0,0.0,2.62715173046e-05,0.0,0.0,4.99791811249e-07,3.00244506743e-31,-6.02213019209e-22,0.0,0.0,0.0,3.00244506743e-31,4.99583911198e-07,-8.36335532341e-37,0.0,0.0,0.0,-6.02213019209e-22,8.36337271141e-37,4.99583911198e-07,0.0,-2.17845500481e-09,2.62715173046e-05,0.0,0.0,0.0,2.98080001141,2.60931751985e-07,0.0,0.0,0.0,0.0,-2.09080627551e-07,0.000990250072039,0.0,0.0,0.0,0.0,0.0,0.0,0.000990250072039,0.0,0.0,0.0,0.0,0.0,0.0,4.9968782518e-07,-1.39175863654e-35,-1.65894752248e-31,0.0,0.0,0.0,-1.39175863654e-35,4.98755183288e-07,1.26490097653e-39,0.0,0.0,0.0,-1.65894752248e-31,-1.26490097653e-39,4.98755183288e-07,0.0,0.0,0.0,0.0,0.0,0.0,9.99957501812e-10
50200000000,2485,50200000000,odom,base_link,2.03325598218e-05,1.67861982771e-09,0.0,0.0,0.0,4.19449419935e-05,0.99999999912,2.48634741202,-2.85636185178e-14,0.0,0.0,0.0,-2.17976129924e-09,-2.85636184954e-14,2.48634741237,0.0,0.0,0.0,2.62870880653e-05,0.0,0.0,3.33240792156e-07,1.12114050309e-30,-2.6811200481e-22,0.0,0.0,0.0,1.12114050309e-30,3.33148353665e-07,1.82788334864e-37,0.0,0.0,0.0,-2.6811200481e-22,-1.82781779983e-37,3.33148353665e-07,0.0,-2.17976129924e-09,2.62870880653e-05,0.0,0.0,0.0,2.98200001141,2.61424470518e-07,0.0,0.0,0.0,0.0,-2.15670138547e-07,0.000504055081305,0.0,0.0,0.0,0.0,0.0,0.0,0.000504055081305,0.0,0.0,0.0,0.0,0.0,0.0,3.33194560088e-07,-6.19983271107e-36,-7.39044205952e-32,0.0,0.0,0.0,-6.19983271107e-36,3.32779621949e-07,8.8773499554e-40,0.0,0.0,0.0,-7.39044205952e-32,-8.8773499554e-40,3.32779621949e-07,0.0,0.0,0.0,0.0,0.0,0.0,9.99957468482e-10
50220000000,2486,50220000000,odom,base_link,0.000485515638502,4.06835734069e-08,0.0,0.0,0.0,4.19426452618e-05,0.99999999912,2.48734785868,-2.8586560148e-14,0.0,0.0,0.0,-2.18106971004e-09,-2.85865601256e-14,2.48734785903,0.0,0.0,0.0,2.63026848302e-05,0.0,0.0,3.33240792156e-07,1.15794045802e-30,-2.68451696189e-22,0.0,0.0,0.0,1.15794045802e-30,3.33148353665e-07,6.02523733586e-38,0.0,0.0,0.0,-2.68451696189e-22,-6.02458815576e-38,3.33148353665e-07,0.0,-2.18106971004e-09,2.63026848302e-05,0.0,0.0,0.0,2.98320001141,0.0159281976533,0.0,0.0,0.0,0.0,-0.00560166795545,0.000505689153436,0.0,0.0,0.0,0.0,0.0,0.0,0.000505689153436,0.0,0.0,0.0,0.0,0.0,0.0,3.33194560088e-07,-6.20736808279e-36,-7.39980555521e-32,0.0,0.0,0.0,-6.20736808279e-36,3.32779621949e-07,1.98622939036e-39,0.0,0.0,0.0,-7.39980555521e-32,-1.98622939036e-39,3.32779621949e-07,0.0,0.0,0.0,0.0,0.0,0.0,9.99957468482e-10
50240000000,2487,50240000000,odom,base_link,0.000806057458662,6.75723171863e-08,0.0,0.0,0.0,-1.40744356045e-05,0.999999999901,2.48834875353,-2.7147058842e-11,0.0,0.0,0.0,-8.23955704612e-08,-2.7147058842e-11,2.48834907725,0.0,0.0,0.0,0.000982543046387,0.0,0.0,4.99791811249e-07,4.14546264409e-21,-3.70020380913e-17,0.0,0.0,0.0,4.14546264409e-21,4.99583911198e-07,7.36784879959e-28,0.0,0.0,0.0,-3.70020380913e-17,7.36787213759e-28,4.99583911198e-07,0.0,-8.23955704612e-08,0.000982543046387,0.0,0.0,0.0,2.98440001141,0.0161259844754,0.0,0.0,0.0,0.0,-0.0216553326012,0.00102469168085,0.0,0.0,0.0,0.0,0.0,0.0,0.00102469168085,0.0,0.0,0.0,0.0,0.0,0.0,4.9968782518e-07,2.8869829863e-31,-1.01889176001e-26,0.0,0.0,0.0,2.8869829863e-31,4.98755183289e-07,2.05622964237e-37,0.0,0.0,0.0,-1.01889176001e-26,2.03574587595e-37,4.98755183289e-07,0.0,0.0,0.0,0.0,0.0,0.0,9.99957501812e-10
50260000000,2488,50260000000,odom,base_link,0.00301756295003,1.30684299786e-07,0.0,0.0,0.0,-0.00023062815323,0.999999973405,2.4893492053,1.32744226249e-11,0.0,0.0,0.0,9.35337935087e-09,1.32744226249e-11,2.48935523498,0.0,0.0,0.0,0.00424196148287,0.0,0.0,4.99791811249e-07,5.4603300998e-20,-1.26073572498e-16,0.0,0.0,0.0,5.4603300998e-20,4.99583911198e-07,3.30663288371e-26,0.0,0.0,0.0,-1.26073572498e-16,3.30662859601e-26,4.99583911198e-07,0.0,9.35337935087e-09,0.00424196148287,0.0,0.0,0.0,2.98560001141,0.0549433126652,0.0,0.0,0.0,0.0,-0.0376912892429,0.00102510925403,0.0,0.0,0.0,0.0,0.0,0.0,0.00102510925403,0.0,0.0,0.0,0.0,0.0,0.0,4.9968782518e-07,1.60443272454e-29,-3.47157563893e-26,0.0,0.0,0.0,1.60443272454e-29,4.98755183289e-07,3.86216608451e-35,0.0,0.0,0.0,-3.47157563893e-26,3.86239350692e-35,4.98755183289e-07,0.0,0.0,0.0,0.0,0.0,0.0,9.99957501812e-10
50280000000,2489,50280000000,odom,base_link,0.00654474241093,-7.67807014249e-07,0.0,0.0,0.0,-0.000607541396735,0.999999815447,2.49034965618,1.01312269536e-08,0.0,0.0,0.0,2.88641000334e-06,1.01312269536e-08,2.49038644132,0.0,0.0,0.0,0.0104793968396,0.0,0.0,4.9979181125e-07,1.81796874244e-19,-2.41165741744e-16,0.0,0.0,0.0,1.81796874244e-19,4.99583911199e-07,2.10593487489e-25,0.0,0.0,0.0,-2.41165741744e-16,2.10593431583e-25,4.99583911199e-07,0.0,2.88641000334e-06,0.0104793968396,0.0,0.0,0.0,2.98680001141,0.105097802047,0.0,0.0,0.0,0.0,-0.0536510005487,0.00102521302298,0.0,0.0,0.0,0.0,0.0,0.0,0.00102521302298,0.0,0.0,0.0,0.0,0.0,0.0,4.9968782518e-07,8.08219195225e-29,-6.64076533667e-26,0.0,0.0,0.0,8.08219195225e-29,4.98755183289e-07,3.7215643338e-34,0.0,0.0,0.0,-6.64076533667e-26,3.72198147595e-34,4.98755183289e-07,0.0,0.0,0.0,0.0,0.0,0.0,9.99957501812e-10
50300000000,2490,50300000000,odom,base_link,0.0113303253152,-4.84950210457e-06,0.0,0.0,0.0,-0.00114405156822,0.999999345573,2.49135010669,9.72261511591e-08,0.0,0.0,0.0,1.44950831005e-05,9.72261511591e-08,2.4914844917,0.0,0.0,0.0,0.0200332039812,0.0,0.0,4.9979181125e-07,3.96204272411e-19,-3.69242943158e-16,0.0,0.0,0.0,3.96204272411e-19,4.99583911199e-07,7.02706846702e-25,0.0,0.0,0.0,-3.69242943158e-16,7.02706859254e-25,4.99583911199e-07,0.0,1.44950831005e-05,0.0200332039812,0.0,0.0,0.0,2.98800001141,0.160907447277,0.0,0.0,0.0,0.0,-0.0694947093606,0.00102523863566,0.0,0.0,0.0,0.0,0.0,0.0,0.00102523863566,0.0,0.0,0.0,0.0,0.0,0.0,4.9968782518e-07,2.32952044425e-28,-1.01674983644e-25,0.0,0.0,0.0,2.32952044425e-28,4.98755183289e-07,1.64233497608e-33,0.0,0.0,0.0,-1.01674983644e-25,1.64238234961e-33,4.98755183289e-07,0.0,0.0,0.0,0.0,0.0,0.0,9.99957501812e-10
50320000000,2491,50320000000,odom,base_link,0.0173451621734,-1.56057309196e-05,0.0,0.0,0.0,-0.00183899824365,0.999998309041,2.4923505575,4.90754706439e-07,0.0,0.0,0.0,4.43328605138e-05,4.90754706439e-07,2.49271671309,0.0,0.0,0.0,0.0330735771874,0.0,0.0,4.9979181125e-07,7.00216245065e-19,-5.03793939194e-16,0.0,0.0,0.0,7.00216245065e-19,4.995839112e-07,1.69444699072e-24,0.0,0.0,0.0,-5.03793939194e-16,1.69444699709e-24,4.995839112e-07,0.0,4.43328605138e-05,0.0330735771874,0.0,0.0,0.0,2.98920001141,0.219534011053,0.0,0.0,0.0,0.0,-0.085174811562,0.00102524487344,0.0,0.0,0.0,0.0,0.0,0.0,0.00102524487344,0.0,0.0,0.0,0.0,0.0,0.0,4.9968782518e-07,5.10798110181e-28,-1.38724529862e-25,0.0,0.0,0.0,5.10798110181e-28,4.98755183289e-07,4.91356205921e-33,0.0,0.0,0.0,-1.38724529862e-25,4.91378585262e-33,4.98755183289e-07,0.0,0.0,0.0,0.0,0.0,0.0,9.99957501812e-10
50340000000,2492,50340000000,odom,base_link,0.0245745797876,-3.77342682129e-05,0.0,0.0,0.0,-0.00269074450715,0.99999637994,2.49335101067,1.75280640179e-06,0.0,0.0,0.0,0.000105436120262,1.75280640179e-06,2.49417712074,0.0,0.0,0.0,0.0496866843476,0.0,0.0,4.99791811251e-07,1.0928941247e-18,-6.41567779049e-16,0.0,0.0,0.0,1.0928941247e-18,4.99583911202e-07,3.36793370184e-24,0.0,0.0,0.0,-6.41567779049e-16,3.36793375708e-24,4.99583911202e-07,0.0,0.000105436120262,0.0496866843476,0.0,0.0,0.0,2.99040001141,0.279560277253,0.0,0.0,0.0,0.0,-0.100639571072,0.00102524635051,0.0,0.0,0.0,0.0,0.0,0.0,0.00102524635051,0.0,0.0,0.0,0.0,0.0,0.0,4.9968782518e-07,9.51612531089e-28,-1.76660622765e-25,0.0,0.0,0.0,9.51612531089e-28,4.98755183289e-07,1.16577931701e-32,0.0,0.0,0.0,-1.76660622765e-25,1.16573966719e-32,4.98755183289e-07,0.0,0.0,0.0,0.0,0.0,0.0,9.99957501812e-10
50360000000,2493,50360000000,odom,base_link,0.033011062447,-7.70852322012e-05,0.0,0.0,0.0,-0.00369713538491,0.999993165572,2.49435147236,5.0114311872e-06,0.0,0.0,0.0,0.000214303731786,5.0114311872e-06,2.49598667583,0.0,0.0,0.0,0.0699164811404,0.0,0.0,4.99791811252e-07,1.57181718326e-18,-7.80933800689e-16,0.0,0.0,0.0,1.57181718326e-18,4.99583911204e-07,5.89602300599e-24,0.0,0.0,0.0,-7.80933800689e-16,5.89602296278e-24,4.99583911204e-07,0.0,0.000214303731786,0.0699164811404,0.0,0.0,0.0,2.99160001141,0.34027521487,0.0,0.0,0.0,0.0,-0.115693239302,0.0010252466787,0.0,0.0,0.0,0.0,0.0,0.0,0.0010252466787,0.0,0.0,0.0,0.0,0.0,0.0,4.9968782518e-07,1.59136657705e-27,-2.15033497111e-25,0.0,0.0,0.0,1.59136657705e-27,4.98755183289e-07,2.3728528787e-32,0.0,0.0,0.0,-2.15033497111e-25,2.3728545639e-32,4.98755183289e-07,0.0,0.0,0.0,0.0,0.0,0.0,9.99957501812e-10
50380000000,2494,50380000000,odom,base_link,0.0426509027988,-0.000140618713475,0.0,0.0,0.0,-0.00485405743482,0.999988218994,2.49535195808,1.22545824851e-05,0.0,0.0,0.0,0.000390804580684,1.22545824851e-05,2.49829327904,0.0,0.0,0.0,0.0937859383913,0.0,0.0,4.99791811253e-07,2.1311696289e-18,-9.21084152559e-16,0.0,0.0,0.0,2.1311696289e-18,4.99583911207e-07,9.42888306137e-24,0.0,0.0,0.0,-9.21084152559e-16,9.42888287872e-24,4.99583911207e-07,0.0,0.000390804580684,0.0937859383913,0.0,0.0,0.0,2.99280001141,0.401326388379,0.0,0.0,0.0,0.0,-0.129086512121,0.00102524674014,0.0,0.0,0.0,0.0,0.0,0.0,0.00102524674014,0.0,0.0,0.0,0.0,0.0,0.0,4.9968782518e-07,2.464054503e-27,-2.53619656216e-25,0.0,0.0,0.0,2.464054503e-27,4.98755183289e-07,4.33338536594e-32,0.0,0.0,0.0,-2.53619656216e-25,4.33342921811e-32,4.98755183289e-07,0.0,0.0,0.0,0.0,0.0,0.0,9.99957501812e-10
50400000000,2495,50400000000,odom,base_link,0.0531983212487,-0.000234497978664,0.0,0.0,0.0,-0.00614490296713,0.999981119906,2.4963525002,2.64601534999e-05,0.0,0.0,0.0,0.000654533801943,2.64601534999e-05,2.50124284069,0.0,0.0,0.0,0.120950831244,0.0,0.0,4.99791811254e-07,2.70509290033e-18,-1.04785848723e-15,0.0,0.0,0.0,2.70509290033e-18,4.99583911211e-07,1.36153171205e-23,0.0,0.0,0.0,-1.04785848723e-15,1.36153172063e-23,4.99583911211e-07,0.0,0.000654533801943,0.120950831244,0.0,0.0,0.0,2.99400001141,0.456542413568,0.0,0.0,0.0,0.0,-0.131668841152,0.00102524674502,0.0,0.0,0.0,0.0,0.0,0.0,0.00102524674502,0.0,0.0,0.0,0.0,0.0,0.0,4.9968782518e-07,3.54833664577e-27,-2.88518855441e-25,0.0,0.0,0.0,3.54833664577e-27,4.98755183289e-07,7.09884260584e-32,0.0,0.0,0.0,-2.88518855441e-25,7.09902700841e-32,4.98755183289e-07,0.0,0.0,0.0,0.0,0.0,0.0,9.99957501812e-10
50420000000,2496,50420000000,odom,base_link,0.0634737383078,-0.0003562619124,0.0,0.0,0.0,-0.00746156078702,0.999972162168,2.49735314698,5.04811620979e-05,0.0,0.0,0.0,0.00100876578194,5.04811620979e-05,2.50484939577,0.0,0.0,0.0,0.149772434934,0.0,0.0,4.99791811255e-07,2.92631036038e-18,-1.1113585188e-15,0.0,0.0,0.0,2.92631036038e-18,4.99583911215e-07,1.56213138904e-23,0.0,0.0,0.0,-1.1113585188e-15,1.56213139967e-23,4.99583911215e-07,0.0,0.00100876578194,0.149772434934,0.0,0.0,0.0,2.99520001141,0.48417920713,0.0,0.0,0.0,0.0,-0.132409519642,0.00102524674077,0.0,0.0,0.0,0.0,0.0,0.0,0.00102524674077,0.0,0.0,0.0,0.0,0.0,0.0,4.9968782518e-07,4.56930624709e-27,-3.05992144468e-25,0.0,0.0,0.0,4.56930624709e-27,4.98755183289e-07,9.69522646402e-32,0.0,0.0,0.0,-3.05992144468e-25,9.6952397047e-32,4.98755183289e-07,0.0,0.0,0.0,0.0,0.0,0.0,9.99957501812e-10
50440000000,2497,50440000000,odom,base_link,0.0736100251901,-0.00050564882149,0.0,0.0,0.0,-0.00878561216806,0.999961405765,2.49835396043,8.69783385386e-05,0.0,0.0,0.0,0.00145131183277,8.69783385386e-05,2.50910891177,0.0,0.0,0.0,0.17942501732,0.0,0.0,4.99791811255e-07,3.02640419579e-18,-1.1429920199e-15,0.0,0.0,0.0,3.02640419579e-18,4.99583911218e-07,1.66154892724e-23,0.0,0.0,0.0,-1.1429920199e-15,1.66154892394e-23,4.99583911218e-07,0.0,0.00145131183277,0.17942501732,0.0,0.0,0.0,2.99640001141,0.497926691,0.0,0.0,0.0,0.0,-0.133069722489,0.00102524673673,0.0,0.0,0.0,0.0,0.0,0.0,0.00102524673673,0.0,0.0,0.0,0.0,0.0,0.0,4.9968782518e-07,5.53273793102e-27,-3.14688328414e-25,0.0,0.0,0.0,5.53273793102e-27,4.98755183289e-07,1.20728298604e-31,0.0,0.0,0.0,-3.14688328414e-25,1.20730429081e-31,4.98755183289e-07,0.0,0.0,0.0,0.0,0.0,0.0,9.99957501812e-10
50460000000,2498,50460000000,odom,base_link,0.0836763628433,-0.000682271595725,0.0,0.0,0.0,-0.0101162497561,0.999948829436,2.49935501549,0.000138488558366,0.0,0.0,0.0,0.00197974365743,0.000138488558366,2.51401235165,0.0,0.0,0.0,0.209495240686,0.0,0.0,4.99791811255e-07,3.08309666321e-18,-1.1586845084e-15,0.0,0.0,0.0,3.08309666321e-18,4.99583911222e-07,1.71591335917e-23,0.0,0.0,0.0,-1.1586845084e-15,1.71591335352e-23,4.99583911222e-07,0.0,0.00197974365743,0.209495240686,0.0,0.0,0.0,2.99760001141,0.504726345382,0.0,0.0,0.0,0.0,-0.130512311152,0.00102524673397,0.0,0.0,0.0,0.0,0.0,0.0,0.00102524673397,0.0,0.0,0.0,0.0,0.0,0.0,4.9968782518e-07,6.45765776756e-27,-3.1899274625e-25,0.0,0.0,0.0,6.45765776756e-27,4.98755183289e-07,1.4284200505e-31,0.0,0.0,0.0,-3.1899274625e-25,1.42843032134e-31,4.98755183289e-07,0.0,0.0,0.0,0.0,0.0,0.0,9.99957501812e-10
50480000000,2499,50480000000,odom,base_link,0.0937074509756,-0.000885948194095,0.0,0.0,0.0,-0.011421296064,0.999934774871,2.50035640009,0.000207501460314,0.0,0.0,0.0,0.00259249944226,0.000207501460314,2.51955123999,0.0,0.0,0.0,0.239776309897,0.0,0.0,4.99791811255e-07,3.04382745489e-18,-1.16640758269e-15,0.0,0.0,0.0,3.04382745489e-18,4.99583911224e-07,1.70534944025e-23,0.0,0.0,0.0,-1.16640758269e-15,1.70534945949e-23,4.99583911224e-07,0.0,0.00259249944226,0.239776309897,0.0,0.0,0.0,2.99880001141,0.508053442526,0.0,0.0,0.0,0.0,-0.0909068386632,0.00102524673215,0.0,0.0,0.0,0.0,0.0,0.0,0.00102524673215,0.0,0.0,0.0,0.0,0.0,0.0,4.9968782518e-07,7.33881188062e-27,-3.21100856444e-25,0.0,0.0,0.0,7.33881188062e-27,4.98755183289e-07,1.63405464555e-31,0.0,0.0,0.0,-3.21100856444e-25,1.63402588753e-31,4.98755183289e-07,0.0,0.0,0.0,0.0,0.0,0.0,9.99957501812e-10
50500000000,2500,50500000000,odom,base_link,0.103720447712,-0.00111598630228,0.0,0.0,0.0,-0.012330298479,0.99992397898,2.50135821122,0.000296321001434,0.0,0.0,0.0,0.00328678184264,0.000296321001434,2.52571916159,0.0,0.0,0.0,0.270164566167,0.0,0.0,4.99791811255e-07,2.12679627728e-18,-1.17012056871e-15,0.0,0.0,0.0,2.12679627728e-18,4.99583911218e-07,1.19536237383e-23,0.0,0.0,0.0,-1.17012056871e-15,1.19536236986e-23,4.99583911218e-07,0.0,0.00328678184264,0.270164566167,0.0,0.0,0.0,3.00000001141,0.509641962058,0.0,0.0,0.0,0.0,-0.0187882745978,0.00102524673088,0.0,0.0,0.0,0.0,0.0,0.0,0.00102524673088,0.0,0.0,0.0,0.0,0.0,0.0,4.9968782518e-07,7.94739866545e-27,-3.22108525983e-25,0.0,0.0,0.0,7.94739866545e-27,4.98755183289e-07,1.77507066717e-31,0.0,0.0,0.0,-3.22108525983e-25,1.77511980724e-31,4.98755183289e-07,0.0,0.0,0.0,0.0,0.0,0.0,9.99957501812e-10
50520000000,2501,50520000000,odom,base_link,0.113724338776,-0.00136425974878,0.0,0.0,0.0,-0.0125181662493,0.999921644687,2.50236049461,0.000404922590113,0.0,0.0,0.0,0.00403772773378,0.000404922590113,2.53251187749,0.0,0.0,0.0,0.300608866646,0.0,0.0,4.99791811255e-07,4.40192810922e-19,-1.17182253138e-15,0.0,0.0,0.0,4.40192810922e-19,4.99583911203e-07,2.47769770588e-24,0.0,0.0,0.0,-1.17182253138e-15,2.47769769749e-24,4.99583911203e-07,0.0,0.00403772773378,0.300608866646,0.0,0.0,0.0,3.00120001141,0.510365130574,0.0,0.0,0.0,0.0,-7.83090095443e-05,0.0010252467299,0.0,0.0,0.0,0.0,0.0,0.0,0.0010252467299,0.0,0.0,0.0,0.0,0.0,0.0,4.9968782518e-07,8.07909772269e-27,-3.22573520591e-25,0.0,0.0,0.0,8.07909772269e-27,4.98755183289e-07,1.80713068891e-31,0.0,0.0,0.0,-3.22573520591e-25,1.80712034089e-31,4.98755183289e-07,0.0,0.0,0.0,0.0,0.0,0.0,9.99957501812e-10
50540000000,2502,50540000000,odom,base_link,0.123724175145,-0.00161611549193,0.0,0.0,0.0,-0.0125189492768,0.999921634884,2.50336319219,0.000530117337875,0.0,0.0,0.0,0.00480091656853,0.000530117337875,2.5399269467,0.0,0.0,0.0,0.331084952966,0.0,0.0,4.99791811255e-07,1.83595901899e-21,-1.17257710427e-15,0.0,0.0,0.0,1.83595901899e-21,4.99583911198e-07,1.03413996216e-26,0.0,0.0,0.0,-1.17257710427e-15,1.03413998319e-26,4.99583911198e-07,0.0,0.00480091656853,0.331084952966,0.0,0.0,0.0,3.00240001141,0.510664070124,0.0,0.0,0.0,0.0,-3.01399129436e-05,0.00102524672908,0.0,0.0,0.0,0.0,0.0,0.0,0.00102524672908,0.0,0.0,0.0,0.0,0.0,0.0,4.9968782518e-07,8.08386659769e-27,-3.22781217846e-25,0.0,0.0,0.0,8.08386659769e-27,4.98755183289e-07,1.80934462597e-31,0.0,0.0,0.0,-3.22781217846e-25,1.8093609642e-31,4.98755183289e-07,0.0,0.0,0.0,0.0,0.0,0.0,9.99957501812e-10
50560000000,2503,50560000000,odom,base_link,0.133721841708,-0.00186781923298,0.0,0.0,0.0,-0.0125192506518,0.999921631111,2.50436627883,0.00067085415161,0.0,0.0,0.0,0.00556463015483,0.00067085415161,2.5479627391,0.0,0.0,0.0,0.361580085553,0.0,0.0,4.99791811255e-07,7.06765159468e-22,-1.17284098443e-15,0.0,0.0,0.0,7.06765159468e-22,4.99583911198e-07,3.98159851482e-27,0.0,0.0,0.0,-1.17284098443e-15,3.98159917861e-27,4.99583911198e-07,0.0,0.00556463015483,0.361580085553,0.0,0.0,0.0,3.00360001141,0.510744866994,0.0,0.0,0.0,0.0,-1.25979419905e-05,0.00102524672834,0.0,0.0,0.0,0.0,0.0,0.0,0.00102524672834,0.0,0.0,0.0,0.0,0.0,0.0,4.9968782518e-07,8.08567889091e-27,-3.22853857772e-25,0.0,0.0,0.0,8.08567889091e-27,4.98755183289e-07,1.81016769105e-31,0.0,0.0,0.0,-3.22853857772e-25,1.81014141445e-31,4.98755183289e-07,0.0,0.0,0.0,0.0,0.0,0.0,9.99957501812e-10
50580000000,2504,50580000000,odom,base_link,0.143718425486,-0.00211942644048,0.0,0.0,0.0,-0.0125193766212,0.999921629534,2.50536975418,0.000827112396719,0.0,0.0,0.0,0.006328676586,0.000827112396719,2.5566182244,0.0,0.0,0.0,0.392087773885,0.0,0.0,4.99791811255e-07,2.95418684775e-22,-1.17285511806e-15,0.0,0.0,0.0,2.95418684775e-22,4.99583911198e-07,1.66427640873e-27,0.0,0.0,0.0,-1.17285511806e-15,1.66427701231e-27,4.99583911198e-07,0.0,0.006328676586,0.392087773885,0.0,0.0,0.0,3.00480001141,0.510717226791,0.0,0.0,0.0,0.0,-5.11636519921e-06,0.00102524672766,0.0,0.0,0.0,0.0,0.0,0.0,0.00102524672766,0.0,0.0,0.0,0.0,0.0,0.0,4.9968782518e-07,8.08585700734e-27,-3.22857746479e-25,0.0,0.0,0.0,8.08585700734e-27,4.98755183289e-07,1.8102301962e-31,0.0,0.0,0.0,-3.22857746479e-25,1.81023136907e-31,4.98755183289e-07,0.0,0.0,0.0,0.0,0.0,0.0,9.99957501812e-10
50600000000,2505,50600000000,odom,base_link,0.153714475496,-0.00237096962436,0.0,0.0,0.0,-0.0125194277808,0.999921628893,2.50637361803,0.000998878991394,0.0,0.0,0.0,0.00709296472075,0.000998878991394,2.565892769,0.0,0.0,0.0,0.422604806015,0.0,0.0,4.99791811255e-07,1.19966341929e-22,-1.17274580337e-15,0.0,0.0,0.0,1.19966341929e-22,4.99583911198e-07,6.75782054038e-28,0.0,0.0,0.0,-1.17274580337e-15,6.75781933855e-28,4.99583911198e-07,0.0,0.00709296472075,0.422604806015,0.0,0.0,0.0,3.00600001141,0.510636200286,0.0,0.0,0.0,0.0,-2.4398684257e-06,0.00102524672702,0.0,0.0,0.0,0.0,0.0,0.0,0.00102524672702,0.0,0.0,0.0,0.0,0.0,0.0,4.9968782518e-07,8.08513615516e-27,-3.22827654096e-25,0.0,0.0,0.0,8.08513615516e-27,4.98755183289e-07,1.80990400337e-31,0.0,0.0,0.0,-3.22827654096e-25,1.80992004313e-31,4.98755183289e-07,0.0,0.0,0.0,0.0,0.0,0.0,9.99957501812e-10
50620000000,2506,50620000000,odom,base_link,0.163710266507,-0.00262246634923,0.0,0.0,0.0,-0.0125194521775,0.999921628588,2.5073778702,0.00118614531427,0.0,0.0,0.0,0.00785745063944,0.00118614531427,2.57578597408,0.0,0.0,0.0,0.453129610605,0.0,0.0,4.99791811255e-07,5.72007144766e-23,-1.17257621318e-15,0.0,0.0,0.0,5.72007144766e-23,4.99583911198e-07,3.22170734745e-28,0.0,0.0,0.0,-1.17257621318e-15,3.2217015807e-28,4.99583911198e-07,0.0,0.00785745063944,0.453129610605,0.0,0.0,0.0,3.00720001141,0.510529319277,0.0,0.0,0.0,0.0,-8.74676645613e-07,0.0010252467264,0.0,0.0,0.0,0.0,0.0,0.0,0.0010252467264,0.0,0.0,0.0,0.0,0.0,0.0,4.9968782518e-07,8.08398261527e-27,-3.22780969779e-25,0.0,0.0,0.0,8.08398261527e-27,4.98755183289e-07,1.80939873171e-31,0.0,0.0,0.0,-3.22780969779e-25,1.80941755033e-31,4.98755183289e-07,0.0,0.0,0.0,0.0,0.0,0.0,9.99957501812e-10
50640000000,2507,50640000000,odom,base_link,0.173705935767,-0.00287392610235,0.0,0.0,0.0,-0.0125194609236,0.999921628478,2.50838251056,0.0013889055046,0.0,0.0,0.0,0.0086221138991,0.0013889055046,2.58629757768,0.0,0.0,0.0,0.483661436635,0.0,0.0,4.99791811255e-07,2.05026111505e-23,-1.17237791933e-15,0.0,0.0,0.0,2.05026111505e-23,4.99583911198e-07,1.1545720824e-28,0.0,0.0,0.0,-1.17237791933e-15,1.15456681811e-28,4.99583911198e-07,0.0,0.0086221138991,0.483661436635,0.0,0.0,0.0,3.00840001141,0.510410340988,0.0,0.0,0.0,0.0,-5.27759596101e-07,0.00102524672579,0.0,0.0,0.0,0.0,0.0,0.0,0.00102524672579,0.0,0.0,0.0,0.0,0.0,0.0,4.9968782518e-07,8.08262114001e-27,-3.22726384302e-25,0.0,0.0,0.0,8.08262114001e-27,4.98755183289e-07,1.80878682863e-31,0.0,0.0,0.0,-3.22726384302e-25,1.80879486523e-31,4.98755183289e-07,0.0,0.0,0.0,0.0,0.0,0.0,9.99957501812e-10
50660000000,2508,50660000000,odom,base_link,0.18370155219,-0.00312535395044,0.0,0.0,0.0,-0.0125194662007,0.999921628412,2.50938753901,0.00160715527176,0.0,0.0,0.0,0.00938694501539,0.00160715527176,2.59742739762,0.0,0.0,0.0,0.514199943578,0.0,0.0,4.99791811255e-07,1.23685690641e-23,-1.17216671292e-15,0.0,0.0,0.0,1.23685690641e-23,4.99583911198e-07,6.96387349088e-29,0.0,0.0,0.0,-1.17216671292e-15,6.96390792655e-29,4.99583911198e-07,0.0,0.00938694501539,0.514199943578,0.0,0.0,0.0,3.00960001141,0.510286143205,0.0,0.0,0.0,0.0,1.12908555741e-07,0.00102524672521,0.0,0.0,0.0,0.0,0.0,0.0,0.00102524672521,0.0,0.0,0.0,0.0,0.0,0.0,4.9968782518e-07,8.08116842446e-27,-3.22668244367e-25,0.0,0.0,0.0,8.08116842446e-27,4.98755183289e-07,1.80812487158e-31,0.0,0.0,0.0,-3.22668244367e-25,1.80814202729e-31,4.98755183289e-07,0.0,0.0,0.0,0.0,0.0,0.0,9.99957501812e-10
50680000000,2509,50680000000,odom,base_link,0.193697150449,-0.00337675285483,0.0,0.0,0.0,-0.0125194650717,0.999921628426,2.51039295549,0.00184089135818,0.0,0.0,0.0,0.0101519403861,0.00184089135818,2.60917529863,0.0,0.0,0.0,0.544744996061,0.0,0.0,4.99791811255e-07,-2.64563308571e-24,-1.17195048063e-15,0.0,0.0,0.0,-2.64563308571e-24,4.99583911198e-07,-1.48932708755e-29,0.0,0.0,0.0,-1.17195048063e-15,-1.48926566913e-29,4.99583911198e-07,0.0,0.0101519403861,0.544744996061,0.0,0.0,0.0,3.01080001142,0.510160158828,0.0,0.0,0.0,0.0,1.65920507306e-07,0.00102524672464,0.0,0.0,0.0,0.0,0.0,0.0,0.00102524672464,0.0,0.0,0.0,0.0,0.0,0.0,4.9968782518e-07,8.07967693496e-27,-3.22608721034e-25,0.0,0.0,0.0,8.07967693496e-27,4.98755183289e-07,1.80748120169e-31,0.0,0.0,0.0,-3.22608721034e-25,1.80745917103e-31,4.98755183289e-07,0.0,0.0,0.0,0.0,0.0,0.0,9.99957501812e-10
50700000000,2510,50700000000,odom,base_link,0.203692747427,-0.0036281245171,0.0,0.0,0.0,-0.0125194634127,0.999921628447,2.51139875991,0.00209011104844,0.0,0.0,0.0,0.0109170987726,0.00209011104844,2.62154117354,0.0,0.0,0.0,0.575296560261,0.0,0.0,4.99791811255e-07,-3.8870724758e-24,-1.17173312347e-15,0.0,0.0,0.0,-3.8870724758e-24,4.99583911198e-07,-2.18772975804e-29,0.0,0.0,0.0,-1.17173312347e-15,-2.18773636097e-29,4.99583911198e-07,0.0,0.0109170987726,0.575296560261,0.0,0.0,0.0,3.01200001142,0.510034082922,0.0,0.0,0.0,0.0,4.22023803075e-09,0.00102524672409,0.0,0.0,0.0,0.0,0.0,0.0,0.00102524672409,0.0,0.0,0.0,0.0,0.0,0.0,4.9968782518e-07,8.07817735062e-27,-3.2254888806e-25,0.0,0.0,0.0,8.07817735062e-27,4.98755183289e-07,1.80680267763e-31,0.0,0.0,0.0,-3.2254888806e-25,1.80680446278e-31,4.98755183289e-07,0.0,0.0,0.0,0.0,0.0,0.0,9.99957501812e-10
50720000000,2511,50720000000,odom,base_link,0.213688351462,-0.00387947015881,0.0,0.0,0.0,-0.0125194633705,0.999921628447,2.51240495222,0.00235481206946,0.0,0.0,0.0,0.0116824205576,0.00235481206946,2.63452493291,0.0,0.0,0.0,0.605854652756,0.0,0.0,4.99791811255e-07,-9.88511836839e-26,-1.17151657507e-15,0.0,0.0,0.0,-9.88511836839e-26,4.99583911198e-07,-5.56201009493e-31,0.0,0.0,0.0,-1.17151657507e-15,-5.56599141893e-31,4.99583911198e-07,0.0,0.0116824205576,0.605854652756,0.0,0.0,0.0,3.01320001142,0.509908753398,0.0,0.0,0.0,0.0,-1.49119087452e-07,0.00102524672355,0.0,0.0,0.0,0.0,0.0,0.0,0.00102524672355,0.0,0.0,0.0,0.0,0.0,0.0,4.9968782518e-07,8.07668439349e-27,-3.22489277689e-25,0.0,0.0,0.0,8.07668439349e-27,4.98755183289e-07,1.80614183465e-31,0.0,0.0,0.0,-3.22489277689e-25,1.80616219873e-31,4.98755183289e-07,0.0,0.0,0.0,0.0,0.0,0.0,9.99957501812e-10
50740000000,2512,50740000000,odom,base_link,0.223537846843,-0.00412808881701,0.0,0.0,0.0,-0.0125194648616,0.999921628429,2.5134110806,0.00263499244695,0.0,0.0,0.0,0.0124479068767,0.00263499244695,2.64812604755,0.0,0.0,0.0,0.636419314941,0.0,0.0,3.33240792158e-07,1.55272343534e-24,-5.2079529858e-16,0.0,0.0,0.0,1.55272343534e-24,3.33148353665e-07,8.73805518458e-30,0.0,0.0,0.0,-5.2079529858e-16,8.73851786402e-30,3.33148353665e-07,0.0,0.0124479068767,0.636419314941,0.0,0.0,0.0,3.01440001142,0.504831061167,0.0,0.0,0.0,0.0,-8.57786187625e-08,0.000506232999351,0.0,0.0,0.0,0.0,0.0,0.0,0.000506232999351,0.0,0.0,0.0,0.0,0.0,0.0,3.33194560088e-07,3.59420576637e-27,-1.43510954055e-25,0.0,0.0,0.0,3.59420576637e-27,3.32779621949e-07,8.04326493488e-32,0.0,0.0,0.0,-1.43510954055e-25,8.04317593035e-32,3.32779621949e-07,0.0,0.0,0.0,0.0,0.0,0.0,9.99957468482e-10
50760000000,2513,50760000000,odom,base_link,0.233535308847,-0.00437940709165,0.0,0.0,0.0,-0.0125194657193,0.999921628418,2.51441804855,0.00293065041746,0.0,0.0,0.0,0.0132135591617,0.00293065041746,2.66234535244,0.0,0.0,0.0,0.666990600242,0.0,0.0,3.33240792158e-07,8.9302009081e-25,-5.20700782843e-16,0.0,0.0,0.0,8.9302009081e-25,3.33148353665e-07,5.02476706512e-30,0.0,0.0,0.0,-5.20700782843e-16,5.02474144286e-30,3.33148353665e-07,0.0,0.0132135591617,0.666990600242,0.0,0.0,0.0,3.01560001142,0.504770403979,0.0,0.0,0.0,0.0,1.19314030487e-07,0.000506232999225,0.0,0.0,0.0,0.0,0.0,0.0,0.000506232999225,0.0,0.0,0.0,0.0,0.0,0.0,3.33194560088e-07,3.59355372408e-27,-1.43484909183e-25,0.0,0.0,0.0,3.59355372408e-27,3.32779621949e-07,8.04035895291e-32,0.0,0.0,0.0,-1.43484909183e-25,8.0401395652e-32,3.32779621949e-07,0.0,0.0,0.0,0.0,0.0,0.0,9.99957468482e-10
50780000000,2514,50780000000,odom,base_link,0.243532763297,-0.00463070184736,0.0,0.0,0.0,-0.0125194645262,0.999921628433,2.51542540425,0.00324178436216,0.0,0.0,0.0,0.0139793788528,0.00324178436216,2.67718233435,0.0,0.0,0.0,0.697568567708,0.0,0.0,3.33240792158e-07,-1.24192564772e-24,-5.20607347625e-16,0.0,0.0,0.0,-1.24192564772e-24,3.33148353665e-07,-6.98674827322e-30,0.0,0.0,0.0,-5.20607347625e-16,-6.98661386882e-30,3.33148353665e-07,0.0,0.0139793788528,0.697568567708,0.0,0.0,0.0,3.01680001142,0.504710456969,0.0,0.0,0.0,0.0,-1.64428056331e-07,0.000506232999103,0.0,0.0,0.0,0.0,0.0,0.0,0.000506232999103,0.0,0.0,0.0,0.0,0.0,0.0,3.33194560088e-07,3.59290854874e-27,-1.43459162074e-25,0.0,0.0,0.0,3.59290854874e-27,3.32779621949e-07,8.03734574843e-32,0.0,0.0,0.0,-1.43459162074e-25,8.03740347777e-32,3.32779621949e-07,0.0,0.0,0.0,0.0,0.0,0.0,9.99957468482e-10
